PROPERTY TYPE,ADDRESS,CITY,STATE OR PROVINCE,ZIP OR POSTAL CODE,PRICE,BEDS,BATHS,SQUARE FEET,LOT SIZE,YEAR BUILT,HOA/MONTH,URL (SEE http://www.redfin.com/buy-a-home/comparative-market-analysis FOR INFO ON PRICING),LATITUDE,LONGITUDE
Single Family Residential,32996 Heather Glen Ct,Anchor Point,AK,99556,369900,5,3,2500,404672,2016,0,http://www.redfin.com/AK/Unknown/32996-HEATHER-GLEN-CT-Unknown/home/133669331,59.79455,-151.827787
Single Family Residential,70875 Lee Roy Ave,Anchor Point,AK,99556,319000,2,2,1456,125452,2002,0,http://www.redfin.com/AK/Anchor-Point/70875-Lee-Roy-Ave-99556/home/133610894,59.8450042,-151.7875338
Single Family Residential,26890 Sterling Hwy,Anchor Point,AK,99556,115000,2,1,896,86248,2009,0,http://www.redfin.com/AK/Anchor-Point/26890-Sterling-Hwy-99556/home/133413449,59.882706,-151.782732
Single Family Residential,31513 Sterling Hwy,Anchor Point,AK,99556,205000,3,1,1423,78408,1962,0,http://www.redfin.com/AK/Anchor-Point/31513-Sterling-Hwy-99556/home/133309127,59.8162244,-151.8272286
Single Family Residential,72960 Laida Ave,Anchor Point,AK,99556,299000,2,2,2185,78843,1998,0,http://www.redfin.com/AK/Anchor-Point/72960-Laida-Ave-99556/home/133655135,59.7818402,-151.8515962
Single Family Residential,71185 Kutafya Rd,Anchor Point,AK,99556,369000,4,2,2945,384199,1983,0,http://www.redfin.com/AK/Anchor-Point/71185-Kutafya-Rd-99556/home/133170908,59.837067,-151.7987149
Single Family Residential,73085 Thurmond Ave,Anchor Point,AK,99556,187000,3,2,1536,18730,1993,0,http://www.redfin.com/AK/Anchor-Point/73085-Thurmond-Dr-99556/home/133713111,59.7772939,-151.8291217
Single Family Residential,73614 Twin Peaks Loop,Anchor Point,AK,99556,495000,3,3,2620,50965,2010,0,http://www.redfin.com/AK/Anchor-Point/73614-Twin-Peaks-Loop-99556/home/133500866,59.7670261,-151.8462178
Single Family Residential,24436 Misty Ln,Anchor Point,AK,99556,395000,3,3,3234,130680,1978,0,http://www.redfin.com/AK/Anchor-Point/24436-Misty-Ln-99556/home/133286471,59.918333,-151.7372649
Single Family Residential,32965 Heather Glen Ct,Anchor Point,AK,99556,349000,4,3,1683,311889,2014,0,http://www.redfin.com/AK/Unknown/32965-HEATHER-GLEN-CT-Unknown/home/133597087,59.796795,-151.831274
Single Family Residential,32939 Shorebird Ln,Anchor Point,AK,99556,649000,6,5,4438,71874,1985,0,http://www.redfin.com/AK/Anchor-Point/32939-Shorebird-Ln-99556/home/133468253,59.7946973,-151.8472338
Single Family Residential,26957 Sterling Hwy,Anchor Point,AK,99556,324000,3,3,2824,336283,1986,0,http://www.redfin.com/AK/Anchor-Point/26957-Sterling-Hwy-99556/home/133500310,59.881606,-151.789736
Single Family Residential,29395 Alta Loop,Anchor Point,AK,99556,322900,3,2,2336,42253,1991,0,http://www.redfin.com/AK/Anchor-Point/29395-Alta-Loop-99556/home/133321557,59.8463438,-151.8055886
Single Family Residential,28100 Coastal Vista Cir,Anchor Point,AK,99556,325000,4,2,2240,79279,1997,0,http://www.redfin.com/AK/Anchor-Point/28100-Coastal-Vista-Cir-99556/home/133622991,59.865386,-151.7916111
Single Family Residential,28160 Chestes Rd,Anchor Point,AK,99556,324900,7,8,3884,394218,2002,0,http://www.redfin.com/AK/Anchor-Point/28160-Chestes-St-99556/home/133643060,59.86422,-151.716568
Single Family Residential,34614 North Fork Rd,Anchor Point,AK,99556,339500,1,1,1920,479160,1994,0,http://www.redfin.com/AK/Anchor-Point/34614-N-Fork-Rd-99556/home/133665864,59.7969375,-151.7692231
Single Family Residential,35075 Old Sterling Hwy,Anchor Point,AK,99556,235000,2,2,1392,118047,2013,0,http://www.redfin.com/AK/Anchor-Point/35075-Old-Sterling-Hwy-99556/home/133615045,59.765272,-151.8407239
Single Family Residential,34260 N North Fork Rd,Anchor Point,AK,99556,479000,3,3,1320,90169,2016,0,http://www.redfin.com/AK/Anchor-Point/34260-N-Fork-Rd-99556/home/133603891,59.785661,-151.798601
Single Family Residential,74200 Alaskan Oceanside Paradise Ests,Anchor Point,AK,99556,3500000,5,4,4322,246114,1997,0,http://www.redfin.com/AK/Anchor-Point/74200-Alaskan-Oceanside-Paradise-ESTS-Unknown/home/172232179,59.7766667,-151.8313889
Single Family Residential,73090 Thurmond Dr,Anchor Point,AK,99556,355000,5,3,3348,20037,1995,0,http://www.redfin.com/AK/Anchor-Point/73090-Thurmond-Dr-99556/home/133697714,59.777586,-151.83025
Single Family Residential,32645 Shorebird Ln,Anchor Point,AK,99556,749999,5,5,2492,129373,1985,0,http://www.redfin.com/AK/Anchor-Point/32645-Shorebird-LN-Unknown/home/172209559,59.799469,-151.842842
Single Family Residential,27145 Elemar Cir,Anchor Point,AK,99556,140000,0,,,87555,2019,0,http://www.redfin.com/AK/Unknown/27145-ELEMAR-CIR-Unknown/home/133669247,59.877711,-151.790555
Single Family Residential,26449 Mocha Ln,Anchor Point,AK,99556,47500,1,,512,200376,2003,0,http://www.redfin.com/AK/Anchor-Point/26449-Mocha-Ln-99556/home/133300459,59.8888808,-151.7293591
Single Family Residential,34250 Heatley St,Anchor Point,AK,99556,949000,5,4,4454,422967,2004,0,http://www.redfin.com/AK/Unknown/34250-HEATLEY-ST-Unknown/home/133302767,59.77649,-151.823655
Single Family Residential,34970 Old Sterling Hwy,Anchor Point,AK,99556,99000,1,,294,258746,2017,0,http://www.redfin.com/AK/Anchor-Point/34970-Old-Sterling-Hwy-99556/home/133358357,59.7660663,-151.8382263
Single Family Residential,27155 Cloyds Rd,Anchor Point,AK,99556,204000,1,1,512,470448,1999,0,http://www.redfin.com/AK/Anchor-Point/27155-Cloyds-Rd-99556/home/133320162,59.886725,-151.7424567
Single Family Residential,71066 Greenfield Rd,Anchor Point,AK,99556,87000,1,1,460,45738,1965,0,http://www.redfin.com/AK/Anchor-Point/71066-Greenfield-Rd-99556/home/133468505,59.798633,-151.79514
Single Family Residential,32725 Dads Cir,Anchor Point,AK,99556,195000,3,2,1310,61420,1986,0,http://www.redfin.com/AK/Anchor-Point/32725-Dads-CIR-Unknown/home/172194705,59.799893,-151.7908
Single Family Residential,928 E 9th Ave,Anchorage,AK,99501,224500,3,2,1292,7000,1942,0,http://www.redfin.com/AK/Anchorage/928-E-9th-Ave-99501/home/131078773,61.2133426,-149.8656953
Single Family Residential,13340 Reef Pl,Anchorage,AK,99515,874900,4,3,3450,48861,1978,0,http://www.redfin.com/AK/Anchorage/13340-Reef-Pl-99515/home/131692687,61.0997608,-149.8625534
Single Family Residential,1840 Crescent Cir,Anchorage,AK,99508,399900,3,2,2468,9745,1968,0,http://www.redfin.com/AK/Anchorage/1840-Crescent-Cir-99508/home/131153367,61.1868881,-149.8460088
Single Family Residential,18160 Norway Dr,Anchorage,AK,99516,549000,3,2,2012,22553,2007,0,http://www.redfin.com/AK/Anchorage/18160-Norway-Dr-99516/home/131419939,61.0551746,-149.7637991
Single Family Residential,8225 Eleusis Dr,Anchorage,AK,99502,275000,4,3,1850,8520,1991,0,http://www.redfin.com/AK/Anchorage/8225-Eleusis-Dr-99502/home/131402670,61.1459702,-149.9248386
Single Family Residential,5501 Little Tree St,Anchorage,AK,99507,305000,4,2,1955,7405,1972,0,http://www.redfin.com/AK/Anchorage/5501-Little-Tree-St-99507/home/131149226,61.1708253,-149.8460458
Single Family Residential,817 Bradley Cir,Anchorage,AK,99518,369900,4,3,1996,9700,1976,0,http://www.redfin.com/AK/Anchorage/817-Bradley-Cir-99518/home/131895691,61.1512813,-149.8945122
Single Family Residential,8212 Wisteria St,Anchorage,AK,99502,375000,3,2,1267,14077,1978,0,http://www.redfin.com/AK/Anchorage/8212-Wisteria-St-99502/home/131574106,61.1459967,-149.9346155
Single Family Residential,822 Cunningham St,Anchorage,AK,99501,189500,2,1,640,7000,1948,0,http://www.redfin.com/AK/Anchorage/822-Cunningham-St-99501/home/131548942,61.2297978,-149.8794964
Single Family Residential,2518 Ridge Pointe Dr,Anchorage,AK,99515,1025000,3,3,3000,6727,1996,0,http://www.redfin.com/AK/Anchorage/2518-Ridge-Pointe-Dr-99515/home/131611815,61.1127624,-149.9263348
Single Family Residential,4733 Pavalof St,Anchorage,AK,99507,360000,4,2,2152,7000,1967,0,http://www.redfin.com/AK/Anchorage/4733-Pavalof-St-99507/home/130969390,61.1775017,-149.8549828
Single Family Residential,2105 W 46th Ave,Anchorage,AK,99517,249900,3,1,1184,6940,1966,0,http://www.redfin.com/AK/Anchorage/2105-W-46th-Ave-99517/home/131911817,61.179242,-149.9221289
Single Family Residential,3530 Perenosa Bay Dr,Anchorage,AK,99515,529900,4,3,3490,9320,1975,0,http://www.redfin.com/AK/Anchorage/3530-Perenosa-Bay-Dr-99515/home/131205067,61.1254748,-149.9470153
Single Family Residential,2711 W 84th Ave,Anchorage,AK,99502,289000,3,1,960,8396,1973,0,http://www.redfin.com/AK/Anchorage/2711-W-84th-Ave-99502/home/131672999,61.1452763,-149.9302312
Single Family Residential,3331 Windlass Cir,Anchorage,AK,99516,439000,4,3,2436,8827,1980,0,http://www.redfin.com/AK/Anchorage/3331-Windlass-Cir-99516/home/131304106,61.0994204,-149.8201004
Single Family Residential,3630 Hazen Cir,Anchorage,AK,99515,375000,4,2,2116,10041,1976,0,http://www.redfin.com/AK/Anchorage/3630-Hazen-Cir-99515/home/131017916,61.1265698,-149.9479938
Single Family Residential,2851 Kempton Hills Dr,Anchorage,AK,99516,479000,4,3,2748,9297,1985,0,http://www.redfin.com/AK/Anchorage/2851-Kempton-Hills-Dr-99516/home/131206725,61.1028278,-149.826991
Single Family Residential,3519 Newcomb Dr,Anchorage,AK,99508,395000,4,2,2456,7000,1975,0,http://www.redfin.com/AK/Anchorage/3519-Newcomb-Dr-99508/home/131562586,61.1887088,-149.7889909
Single Family Residential,7050 Joseph St,Anchorage,AK,99518,309000,4,2,1667,7000,1978,0,http://www.redfin.com/AK/Anchorage/7050-Joseph-St-99518/home/131156590,61.1563277,-149.9015453
Single Family Residential,9610 Arlene Dr,Anchorage,AK,99502,469985,3,3,2776,7700,1977,0,http://www.redfin.com/AK/Anchorage/9610-Arlene-Dr-99502/home/131299943,61.133409,-149.9329553
Single Family Residential,13441 Carita Ln,Anchorage,AK,99516,550000,4,4,2406,49230,1977,0,http://www.redfin.com/AK/Anchorage/13441-Carita-Ln-99516/home/131213537,61.0987849,-149.7506666
Single Family Residential,2701 E 112th Ave,Anchorage,AK,99516,852000,3,2,2184,217800,1965,0,http://www.redfin.com/AK/Anchorage/2701-E-112th-Ave-99516/home/131487499,61.120367,-149.831241
Single Family Residential,1620 Winterset Dr,Anchorage,AK,99508,418000,4,3,3040,13666,1965,0,http://www.redfin.com/AK/Anchorage/1620-Winterset-Dr-99508/home/131928224,61.1855283,-149.8516597
Single Family Residential,3420 Meadowbrook Cir,Anchorage,AK,99504,310000,4,2,1464,4262,1986,0,http://www.redfin.com/AK/Anchorage/3420-Meadowbrook-Cir-99504/home/131870999,61.1901278,-149.7341271
Single Family Residential,6121 Gross Dr,Anchorage,AK,99507,217000,2,1,1040,4066,1983,0,http://www.redfin.com/AK/Anchorage/6121-Gross-Dr-99507/home/131700762,61.16552,-149.822636
Single Family Residential,10550 Shivalik Cir,Anchorage,AK,99507,920000,4,4,4001,65982,2004,0,http://www.redfin.com/AK/Anchorage/10550-Shivalik-Cir-99507/home/131345545,61.1643588,-149.68824
Single Family Residential,2928 Captain Cook Estates Cir,Anchorage,AK,99517,689000,4,3,3304,7647,2004,0,http://www.redfin.com/AK/Anchorage/2928-Captain-Cook-Estates-Cir-99517/home/130990294,61.1939138,-149.9271446
Single Family Residential,1112 W 11th Ave,Anchorage,AK,99501,380000,1,1,957,7000,1947,0,http://www.redfin.com/AK/Anchorage/1112-W-11th-Ave-99501/home/131355845,61.2114501,-149.9043211
Single Family Residential,1364 Saint Gotthard Ave,Anchorage,AK,99508,585000,4,4,2770,16494,1978,0,http://www.redfin.com/AK/Anchorage/1364-St-Gotthard-Ave-99508/home/131359182,61.184621,-149.8571015
Single Family Residential,2613 Draper Dr,Anchorage,AK,99517,675000,4,3,2610,14000,1965,0,http://www.redfin.com/AK/Anchorage/2613-Draper-Dr-99517/home/131025060,61.196788,-149.9329283
Single Family Residential,10001 Schuss Dr,Anchorage,AK,99507,1550000,5,6,7589,91115,1999,0,http://www.redfin.com/AK/Anchorage/10001-Schuss-Dr-99507/home/131230779,61.1298322,-149.7301515
Mobile/Manufactured Home,9499 Brayton Dr #268,Anchorage,AK,99507,52000,3,1,1216,,1976,0,http://www.redfin.com/AK/Anchorage/9499-Brayton-Dr-99507/unit-268/home/172201243,61.1363026,-149.8552259
Single Family Residential,934 W 71st Ave,Anchorage,AK,99518,368900,3,3,2075,9480,1969,0,http://www.redfin.com/AK/Anchorage/934-W-71st-Ave-99518/home/131398795,61.1561529,-149.8969261
Single Family Residential,1702 Ira Dr,Anchorage,AK,99502,399000,4,2,1878,7060,2002,0,http://www.redfin.com/AK/Anchorage/1702-Ira-Dr-99515/home/131747857,61.1346157,-149.9099249
Single Family Residential,1740 Rebel Ridge Dr,Anchorage,AK,99504,414900,3,3,2096,9087,1980,0,http://www.redfin.com/AK/Anchorage/1740-Rebel-Ridge-Dr-99504/home/131561816,61.2049749,-149.7235674
Single Family Residential,905 Fairbanks St,Anchorage,AK,99501,299900,2,2,1200,3700,1941,0,http://www.redfin.com/AK/Anchorage/905-Fairbanks-St-99501/home/131357251,61.2134515,-149.8727735
Single Family Residential,L4 Gray Hawk,Anchorage,AK,99507,489000,3,3,2098,7132,2020,0,http://www.redfin.com/AK/Anchorage/L4-Grayhawk-Cir-99507/home/172205227,61.147766,-149.816413
Single Family Residential,1831 Rebel Ridge Dr,Anchorage,AK,99504,419900,4,4,2816,7205,1983,0,http://www.redfin.com/AK/Anchorage/1831-Rebel-Ridge-Dr-99504/home/131485855,61.2041625,-149.723341
Single Family Residential,2320 Yorkshire Ln,Anchorage,AK,99504,429500,3,3,2369,7295,1983,0,http://www.redfin.com/AK/Anchorage/2320-Yorkshire-Ln-99504/home/131739405,61.1993416,-149.7498341
Single Family Residential,2810 W 84th Ave,Anchorage,AK,99502,279900,3,1,960,8280,1973,0,http://www.redfin.com/AK/Anchorage/2810-W-84th-Ave-99502/home/131897061,61.1448997,-149.9313667
Single Family Residential,10200 Schuss Dr,Anchorage,AK,99507,995000,6,5,6002,99624,1997,0,http://www.redfin.com/AK/Anchorage/10200-Schuss-Dr-99507/home/131062813,61.1283706,-149.7340332
Single Family Residential,1848 Kalgin St,Anchorage,AK,99504,364500,5,3,2796,12600,1966,0,http://www.redfin.com/AK/Anchorage/1848-Kalgin-St-99504/home/131129353,61.2033476,-149.7364092
Single Family Residential,11220 Polar Dr,Anchorage,AK,99516,474900,3,3,1816,18000,1960,0,http://www.redfin.com/AK/Anchorage/11220-Polar-Dr-99516/home/131195919,61.119241,-149.8386462
Single Family Residential,3056 Morgan Loop,Anchorage,AK,99516,509900,3,3,1892,6796,2020,0,http://www.redfin.com/AK/Anchorage/3056-Morgan-Loop-99516/home/168810928,61.1174483,-149.8249674
Single Family Residential,1533 Demeure Pl,Anchorage,AK,99508,219450,3,1,1008,7115,1963,0,http://www.redfin.com/AK/Anchorage/1533-Demeure-Pl-99508/home/131085095,61.2072865,-149.8087986
Single Family Residential,5100 Spruce Creek Cir,Anchorage,AK,99516,349000,3,2,1664,11570,1974,0,http://www.redfin.com/AK/Anchorage/5100-Spruce-Creek-Cir-99507/home/131903562,61.1271265,-149.7871525
Single Family Residential,4600 Virgo Ave,Anchorage,AK,99516,685000,3,3,4239,46269,2006,0,http://www.redfin.com/AK/Anchorage/4600-Virgo-Ave-99516/home/131498363,61.0692164,-149.7960219
Single Family Residential,156 Ocean Park Dr,Anchorage,AK,99515,266000,3,2,1460,5100,1975,0,http://www.redfin.com/AK/Anchorage/156-Ocean-Park-Dr-99515/home/131640536,61.112963,-149.880245
Single Family Residential,637 Giroux Cir,Anchorage,AK,99515,458000,4,3,2491,10983,2000,0,http://www.redfin.com/AK/Anchorage/637-Giroux-Cir-99515/home/130986309,61.1120302,-149.8909003
Single Family Residential,6051 E 22nd Ave,Anchorage,AK,99504,303000,3,2,1709,8400,1972,0,http://www.redfin.com/AK/Anchorage/6051-E-22nd-Ave-99504/home/131136020,61.2013267,-149.7669142
Single Family Residential,9010 King David Dr,Anchorage,AK,99507,605000,4,3,2228,6080,2020,0,http://www.redfin.com/AK/Anchorage/9010-King-David-Dr-99507/home/172263725,61.1376613,-149.8146526
Single Family Residential,1905 W 47th Ave,Anchorage,AK,99517,319900,3,2,1728,8416,2012,0,http://www.redfin.com/AK/Anchorage/1905-W-47th-Ave-99517/home/131151083,61.1783141,-149.9187475
Single Family Residential,708 Irwin St,Anchorage,AK,99508,239900,2,2,1300,6250,1950,0,http://www.redfin.com/AK/Anchorage/708-Irwin-St-99508/home/131738151,61.2298529,-149.8107824
Single Family Residential,11210 Via Appia,Anchorage,AK,99515,338900,5,2,2112,11500,1970,0,http://www.redfin.com/AK/Anchorage/11210-Via-Appia-99515/home/131048052,61.1190424,-149.8856224
Single Family Residential,6000 Azalea Dr,Anchorage,AK,99516,725000,3,4,3194,40887,1980,0,http://www.redfin.com/AK/Anchorage/6000-Azalea-Dr-99516/home/131213683,61.0846933,-149.7702334
Single Family Residential,7005 E 10th Ave,Anchorage,AK,99504,189000,3,2,1060,9025,1953,0,http://www.redfin.com/AK/Anchorage/7005-E-10th-Ave-99504/home/131031663,61.2129571,-149.7504052
Single Family Residential,13155 Stephenson St,Anchorage,AK,99515,439900,3,2,2710,9495,1972,0,http://www.redfin.com/AK/Anchorage/13155-Stephenson-St-99515/home/131641228,61.1013136,-149.8472539
Single Family Residential,6555 Mc Gill Way,Anchorage,AK,99502,572500,4,3,2150,7116,2020,0,http://www.redfin.com/AK/Anchorage/6555-McGill-Way-99502/home/165921937,61.160953,-149.955645
Single Family Residential,L26 B1 Thomas W Sperstad,Anchorage,AK,99515,309000,2,2,1301,,2020,0,http://www.redfin.com/AK/Anchorage/L26-B1-Thomas-W-Sperstad-99515/home/172644126,61.131349,-149.916901
Single Family Residential,3139 Discovery Bay Dr,Anchorage,AK,99515,569900,4,3,2745,11020,1998,0,http://www.redfin.com/AK/Anchorage/3139-Discovery-Bay-Dr-99515/home/131306147,61.1181294,-149.9381821
Single Family Residential,4032 Kingston Dr,Anchorage,AK,99504,490000,8,4,3358,10480,1974,0,http://www.redfin.com/AK/Anchorage/4032-Kingston-Dr-99504/home/131295368,61.1839504,-149.7626827
Single Family Residential,13651 Vern Dr,Anchorage,AK,99516,439900,3,3,2330,7635,1981,0,http://www.redfin.com/AK/Anchorage/13651-Vern-Dr-99516/home/130973932,61.1005213,-149.8352228
Single Family Residential,7073 Clogia Cir,Anchorage,AK,99507,405000,3,2,1576,8100,2020,0,http://www.redfin.com/AK/Anchorage/7073-Clogia-Cir-99507/home/172642906,61.1558527,-149.8267181
Single Family Residential,3633 E 68th Ave,Anchorage,AK,99503,215000,3,2,1024,8519,1981,0,http://www.redfin.com/AK/Anchorage/3633-E-68th-Ave-99507/home/131329139,61.1594471,-149.8142826
Single Family Residential,7605 Upper Huffman Dr,Anchorage,AK,99516,699000,4,3,2616,37180,2002,0,http://www.redfin.com/AK/Anchorage/7605-Upper-Huffman-Rd-99516/home/131894873,61.109021,-149.740279
Single Family Residential,3541 Scarlet Pl,Anchorage,AK,99517,356900,6,2,2000,8750,1966,0,http://www.redfin.com/AK/Anchorage/3541-Scarlet-Pl-99517/home/131321417,61.1882314,-149.953343
Single Family Residential,1751 Burlington St,Anchorage,AK,99508,324900,3,2,1680,7920,1969,0,http://www.redfin.com/AK/Anchorage/1751-Burlington-St-99508/home/131016366,61.1819818,-149.846958
Single Family Residential,8830 McClellan Cir,Anchorage,AK,99502,294000,3,3,1738,3199,1984,0,http://www.redfin.com/AK/Anchorage/8830-McClellan-Cir-99502/home/131243389,61.140643,-149.938554
Single Family Residential,1608 E 27th Ave,Anchorage,AK,99508,320000,2,1,744,8400,1951,0,http://www.redfin.com/AK/Anchorage/1608-E-27th-Ave-99508/home/131255697,61.1960527,-149.8519436
Single Family Residential,12802 Langman Cir,Anchorage,AK,99516,745000,4,4,3014,73284,2015,0,http://www.redfin.com/AK/Anchorage/12802-Langman-Cir-99516/home/132023794,61.1044219,-149.7585981
Single Family Residential,3475 Hines Cir,Anchorage,AK,99516,572000,4,3,3006,6901,2008,0,http://www.redfin.com/AK/Anchorage/3475-Hines-Cir-99516/home/131765496,61.0949448,-149.8172623
Single Family Residential,2431 Legacy Dr,Anchorage,AK,99516,499900,4,3,3472,7676,1983,0,http://www.redfin.com/AK/Anchorage/2431-Legacy-Dr-99516/home/131414563,61.1016566,-149.8373824
Single Family Residential,7921 Little Moose Cir,Anchorage,AK,99507,409900,4,3,2167,6694,1999,0,http://www.redfin.com/AK/Anchorage/7921-Little-Moose-Cir-99507/home/131726711,61.1488324,-149.8196784
Single Family Residential,2310 W 46th Ave,Anchorage,AK,99517,309000,4,2,1920,6969,1975,0,http://www.redfin.com/AK/Anchorage/2310-W-46th-Ave-99517/home/131911871,61.1787934,-149.9272943
Single Family Residential,3501 Spinnaker Dr,Anchorage,AK,99516,440000,4,3,2525,8650,1983,0,http://www.redfin.com/AK/Anchorage/3501-Spinnaker-Dr-99516/home/131842325,61.1007291,-149.8241918
Single Family Residential,303 Eyak Dr,Anchorage,AK,99501,359000,4,3,1880,9416,1950,0,http://www.redfin.com/AK/Anchorage/303-Eyak-Dr-99501/home/131957840,61.2072284,-149.8784278
Single Family Residential,2206 Hanning Bay Cir,Anchorage,AK,99515,379900,3,2,2020,6836,1997,18,http://www.redfin.com/AK/Anchorage/2206-Hanning-Bay-Cir-99515/home/131838448,61.1123797,-149.9198414
Single Family Residential,10600 Constitution St,Anchorage,AK,99515,379900,3,3,1780,6969,1985,18,http://www.redfin.com/AK/Anchorage/10600-Constitution-St-99515/home/131832069,61.1247013,-149.9214436
Single Family Residential,3031 Chesapeake Cir,Anchorage,AK,99516,489900,4,3,2636,8500,1984,21,http://www.redfin.com/AK/Anchorage/3031-Chesapeake-Cir-99516/home/131339850,61.1020038,-149.8249716
Single Family Residential,11072 Retreat Cir,Anchorage,AK,99515,359900,3,2,1738,5635,2003,45,http://www.redfin.com/AK/Anchorage/11072-Retreat-Cir-99515/home/131645836,61.1213497,-149.9362773
Condo/Co-op,1209 Norman St #1,Anchorage,AK,99504,217000,3,2,1556,,1996,100,http://www.redfin.com/AK/Anchorage/1209-Norman-St-99504/unit-1/home/131292582,61.2110975,-149.7706052
Single Family Residential,2295 Sorbus Way,Anchorage,AK,99508,334000,3,3,2214,2178,1975,103,http://www.redfin.com/AK/Anchorage/2295-Sorbus-Way-99508/home/131025422,61.1969572,-149.8389909
Single Family Residential,2135 Sorbus Way,Anchorage,AK,99508,535000,3,3,3453,2432,1981,108,http://www.redfin.com/AK/Anchorage/2135-Sorbus-Way-99508/home/131514557,61.198516,-149.842133
Condo/Co-op,2462 Brookshire Loop #59,Anchorage,AK,99504,219900,3,2,1357,2346,2003,130,http://www.redfin.com/AK/Anchorage/2462-Brookshire-Loop-99504/unit-59/home/131946731,61.1990024,-149.7316249
Condo/Co-op,8118 Marsha Loop #28,Anchorage,AK,99507,270000,3,2,1480,,2012,130,http://www.redfin.com/AK/Anchorage/8118-Marsha-Loop-99507/unit-28/home/131952778,61.1474509,-149.8313491
Condo/Co-op,8056 Marsha Loop #20,Anchorage,AK,99507,275000,3,3,1480,,2013,130,http://www.redfin.com/AK/Anchorage/8056-Marsha-Loop-99507/unit-20/home/131448627,61.1474509,-149.8313491
Condo/Co-op,3335 Kendall Loop,Anchorage,AK,99507,260000,4,2,1372,3078,2002,135,http://www.redfin.com/AK/Anchorage/3335-Kendall-Loop-99507/unit-34/home/131308554,61.1456362,-149.8205788
Condo/Co-op,122 E 45th Ave,Anchorage,AK,99503,240000,3,2,1355,2142,2001,135,http://www.redfin.com/AK/Anchorage/122-E-45th-Ave-99503/unit-32/home/131256280,61.1797828,-149.8821272
Single Family Residential,4729 Sydney Park Cir,Anchorage,AK,99516,695000,4,3,2732,12143,2018,155,http://www.redfin.com/AK/Anchorage/4729-Sydney-Park-Cir-99516/home/166120214,61.073347,-149.792881
Condo/Co-op,7405 Meadow St Unit 4C,Anchorage,AK,99507,205000,3,2,1020,,2004,160,http://www.redfin.com/AK/Anchorage/7405-Meadow-St-99507/unit-4C/home/131538445,61.153353,-149.850732
Condo/Co-op,6978 Briar Loop #22,Anchorage,AK,99518,237500,3,2,1361,,2005,168,http://www.redfin.com/AK/Anchorage/6978-Briar-Loop-99518/unit-22/home/131541528,61.1578559,-149.8697075
Condo/Co-op,518 E 22nd Ave #2,Anchorage,AK,99503,95000,2,1,824,,1978,177,http://www.redfin.com/AK/Anchorage/518-E-22nd-Ave-99503/unit-2/home/131090427,61.2005142,-149.8740363
Condo/Co-op,9449 Canton Loop #180,Anchorage,AK,99515,208000,2,1,1164,,1976,180,http://www.redfin.com/AK/Anchorage/9449-Canton-Loop-99515/unit-180/home/131168797,61.1344353,-149.9162747
Condo/Co-op,4511 Folker St Unit 29B,Anchorage,AK,99507,100000,1,2,630,,1975,190,http://www.redfin.com/AK/Anchorage/4511-Folker-St-99507/unit-29B/home/131555920,61.1798135,-149.830362
Single Family Residential,2215 Radiant Cir,Anchorage,AK,99501,265000,4,2,1428,2770,1978,195,http://www.redfin.com/AK/Anchorage/2215-Radiant-Cir-99501/home/131152992,61.2034714,-149.8396624
Single Family Residential,2241 Sunburst Cir,Anchorage,AK,99501,275000,3,3,1525,2418,1979,195,http://www.redfin.com/AK/Anchorage/2241-Sunburst-Cir-99501/home/131866455,61.205147,-149.839868
Condo/Co-op,3101 E Tudor Rd Unit B,Anchorage,AK,99507,220000,3,2,1228,,2003,210,http://www.redfin.com/AK/Anchorage/3101-E-Tudor-Rd-99507/unit-B/home/172206201,61.18115,-149.822754
Condo/Co-op,368 Skwentna Dr,Anchorage,AK,99504,324999,3,3,1479,2418,2017,220,http://www.redfin.com/AK/Anchorage/368-Skwentna-Dr-99504/unit-85/home/146475335,61.2214189,-149.7662125
Condo/Co-op,8602 Shrub Ct #8,Anchorage,AK,99504,174900,2,2,1064,,1981,221,http://www.redfin.com/AK/Anchorage/8602-Shrub-Ct-99504/unit-8/home/131104253,61.2063828,-149.7199244
Condo/Co-op,140 W 10th Ave #6,Anchorage,AK,99501,419000,3,3,1740,,2004,225,http://www.redfin.com/AK/Anchorage/140-W-10th-Ave-99501/unit-6/home/131255796,61.2125028,-149.8841581
Condo/Co-op,7950 Gate Creek Dr #34,Anchorage,AK,99502,369000,4,3,1409,4407,2017,225,http://www.redfin.com/AK/Anchorage/7950-Gate-Creek-Dr-99502/unit-34/home/146475363,61.1488855,-149.9930279
Condo/Co-op,12100 Lucille Ln #4,Anchorage,AK,99515,230000,3,2,1182,,2005,230,http://www.redfin.com/AK/Anchorage/12100-Lucille-Ln-99515/unit-4/home/131073588,61.1109024,-149.8719205
Condo/Co-op,5245 IronBranch Ct #13,Anchorage,AK,99508,329000,2,2,1218,,2018,250,http://www.redfin.com/AK/Anchorage/5245-Ironbranch-Ct-99508/unit-13/home/172647874,61.199562,-149.78321
Condo/Co-op,3222 Eastgate Pl,Anchorage,AK,99504,169900,2,2,1033,,1979,256,http://www.redfin.com/AK/Anchorage/3222-Eastgate-Pl-99504/unit-11/home/130981165,61.1911599,-149.7775779
Condo/Co-op,6436 E 10th Ave,Anchorage,AK,99504,234900,3,3,1650,,2002,260,http://www.redfin.com/AK/Anchorage/6436-E-10th-Ave-99504/unit-18-643/home/131761604,61.2126828,-149.7606439
Condo/Co-op,8613 Turf Ct #5,Anchorage,AK,99504,169000,2,1,922,,1982,265,http://www.redfin.com/AK/Anchorage/8613-Turf-Ct-99504/unit-5/home/131379171,61.2081176,-149.7198262
Condo/Co-op,12251 Johns Rd #3,Anchorage,AK,99515,260000,3,2,1292,,1999,269,http://www.redfin.com/AK/Anchorage/12251-Johns-Rd-99515/unit-3/home/172133509,61.1096979,-149.8785192
Condo/Co-op,5526 Big Bear Way #12,Anchorage,AK,99504,339000,3,2,1431,,2020,270,http://www.redfin.com/AK/Anchorage/5526-Big-Bear-Way-99504/unit-12/home/172187872,61.1869666,-149.7768577
Condo/Co-op,5530 Big Bear Way #13,Anchorage,AK,99504,339000,3,2,1431,,2020,270,http://www.redfin.com/AK/Anchorage/5530-Big-Bear-Way-99504/unit-13/home/172187873,61.1869666,-149.7768577
Condo/Co-op,5522 Big Bear Way #11,Anchorage,AK,99504,339000,3,2,1431,,2020,270,http://www.redfin.com/AK/Anchorage/5522-Big-Bear-Way-99504/unit-11/home/172187870,61.1869666,-149.7768577
Condo/Co-op,241 W 13th Ave #241,Anchorage,AK,99501,220000,2,2,800,,2010,275,http://www.redfin.com/AK/Anchorage/241-W-13th-Ave-99501/unit-241/home/172181129,61.2099272,-149.8871547
Condo/Co-op,243 W 13th Ave #243,Anchorage,AK,99501,225000,2,2,800,,2010,275,http://www.redfin.com/AK/Anchorage/243-W-13th-Ave-99501/unit-243/home/172187044,61.2099272,-149.887162
Condo/Co-op,239 W 13th Ave #239,Anchorage,AK,99501,225000,2,2,800,,2010,275,http://www.redfin.com/AK/Anchorage/239-W-13th-Ave-99501/unit-239/home/172179014,61.209792,-149.8871483
Condo/Co-op,7781 Stepping Stone Ln Unit G1,Anchorage,AK,99504,282900,3,3,1662,,2010,278,http://www.redfin.com/AK/Anchorage/7781-Stepping-Stone-Ln-99504/unit-G1/home/131274023,61.2078744,-149.737364
Condo/Co-op,4610 Reka Dr Unit A19,Anchorage,AK,99508,64999,1,1,661,,1978,279,http://www.redfin.com/AK/Anchorage/4610-Reka-Dr-99508/unit-A19/home/131549678,61.2041509,-149.7952793
Condo/Co-op,2628 Aspen Heights Loop #67,Anchorage,AK,99508,256000,3,3,1558,,2014,281,http://www.redfin.com/AK/Anchorage/2628-Aspen-Heights-Loop-99508/unit-67/home/131980632,61.195457,-149.790535
Condo/Co-op,2210 Sentry Dr Unit B21,Anchorage,AK,99507,126000,2,1,628,,1982,282,http://www.redfin.com/AK/Anchorage/2210-Sentry-Dr-99507/unit-B21/home/131648928,61.1342171,-149.8405913
Condo/Co-op,4651 Reka Dr #1,Anchorage,AK,99508,64500,11,1,541,,1982,285,http://www.redfin.com/AK/Anchorage/4651-Reka-Dr-99508/unit-1/home/172686700,61.2050959,-149.7942383
Condo/Co-op,2053 Cliffside Dr,Anchorage,AK,99501,275000,3,3,1567,,1974,288,http://www.redfin.com/AK/Anchorage/2053-Cliffside-Dr-99501/unit-13/home/131477925,61.2013326,-149.8434872
Condo/Co-op,7240 Huntsmen Cir Unit 4-E,Anchorage,AK,99518,149900,2,2,740,,1983,290,http://www.redfin.com/AK/Anchorage/7240-Huntsmen-Cir-99518/unit-4-E/home/131672386,61.1540635,-149.8848927
Condo/Co-op,13103 Brandon St #9,Anchorage,AK,99515,164900,2,2,859,,1983,300,http://www.redfin.com/AK/Anchorage/13103-Brandon-St-99515/unit-9/home/131215206,61.1017227,-149.8555208
Condo/Co-op,3626 Carleton Ave,Anchorage,AK,99517,229500,3,3,1377,,1983,309,http://www.redfin.com/AK/Anchorage/3626-Carleton-Ave-99517/unit-3626/home/131745100,61.1945297,-149.952164
Condo/Co-op,1717 Russian Jack Drive #A2 Unit A2,Anchorage,AK,99508,127000,2,2,988,,1982,319,http://www.redfin.com/AK/Anchorage/1717-Russian-Jack-Dr-99508/unit-A2/home/131094455,61.2053565,-149.798084
Condo/Co-op,3605 Burl Ct #121,Anchorage,AK,99504,229000,2,2,1521,,1976,321,http://www.redfin.com/AK/Anchorage/3605-Burl-Ct-99504/unit-121/home/131096538,61.1880863,-149.7619717
Condo/Co-op,1751 Hollybrook Circle Cir #13,Anchorage,AK,99507,330000,3,3,1608,,2013,321,http://www.redfin.com/AK/Anchorage/1751-Hollybrook-Cir-99507/unit-13/home/131964247,61.1263504,-149.8495769
Condo/Co-op,1797 Hollybrook Cir #6,Anchorage,AK,99507,330000,3,3,1453,3582,2010,321,http://www.redfin.com/AK/Anchorage/1797-Hollybrook-Cir-99507/unit-6/home/131279142,61.1263504,-149.8495769
Condo/Co-op,1711 Russian Jack Dr Unit B-1,Anchorage,AK,99508,115000,3,2,1117,,1982,328,http://www.redfin.com/AK/Anchorage/1711-Russian-Jack-Dr-99508/unit-B1/home/131368588,61.2054158,-149.7978295
Condo/Co-op,9625 Independence Dr Unit C205,Anchorage,AK,99507,106000,1,1,501,,1983,332,http://www.redfin.com/AK/Anchorage/9625-Independence-Dr-99507/unit-C205/home/131911657,61.13087,-149.8455059
Condo/Co-op,4208 Rollins Dr #14,Anchorage,AK,99508,189500,3,2,1225,,1974,335,http://www.redfin.com/AK/Anchorage/4208-Rollins-Dr-99508/unit-14/home/131823865,61.1824867,-149.7907644
Condo/Co-op,7141 Weimer Rd #23,Anchorage,AK,99502,120000,2,1,827,,1976,338,http://www.redfin.com/AK/Anchorage/7141-Weimer-Rd-99502/unit-23/home/172169643,61.1559803,-149.9500632
Condo/Co-op,8528 Boundary Ave Unit H4,Anchorage,AK,99504,92000,2,1,829,,1976,341,http://www.redfin.com/AK/Anchorage/8528-Boundary-Ave-99504/unit-H4/home/131466532,61.2240028,-149.7228042
Condo/Co-op,8612 Boundary Ave Unit L-3,Anchorage,AK,99504,75000,2,1,830,,1976,344,http://www.redfin.com/AK/Anchorage/8612-Boundary-Ave-99504/unit-L3/home/131101809,61.2240109,-149.7204849
Condo/Co-op,639 N St #102,Anchorage,AK,99501,325000,1,2,977,,1978,350,http://www.redfin.com/AK/Anchorage/639-N-St-99501/unit-102/home/131514121,61.2161937,-149.9074883
Condo/Co-op,2801 Discovery Bay Dr #25,Anchorage,AK,99515,415000,3,3,2251,,2006,359,http://www.redfin.com/AK/Anchorage/2801-Discovery-Bay-Dr-99515/unit-25/home/131764787,61.118107,-149.932036
Condo/Co-op,3100 Ward Pl #1,Anchorage,AK,99517,97000,2,1,845,,1977,381,http://www.redfin.com/AK/Anchorage/3100-Ward-Pl-99517/unit-1/home/131685202,61.1922511,-149.9557325
Condo/Co-op,11324 Discovery View Dr Unit 104B,Anchorage,AK,99515,230000,2,2,1041,,2009,396,http://www.redfin.com/AK/Anchorage/11324-Discovery-View-Dr-99515/unit-104B/home/131816199,61.117348,-149.931502
Condo/Co-op,610 N St #2,Anchorage,AK,99501,199000,2,1,783,,1978,412,http://www.redfin.com/AK/Anchorage/610-N-St-99501/unit-2/home/132079720,61.2162911,-149.9083177
Condo/Co-op,380 E 11th Ave #127,Anchorage,AK,99501,154900,2,1,890,,1983,459,http://www.redfin.com/AK/Anchorage/1101-Cordova-St-99501/unit-127/home/172167776,61.211529,-149.8783277
Condo/Co-op,1501 W 11th Ave #19,Anchorage,AK,99501,197000,2,1,633,,1953,460,http://www.redfin.com/AK/Anchorage/1501-W-11th-Ave-99501/unit-19/home/172166004,61.2116584,-149.9118792
Condo/Co-op,4230 Woronzof Dr Unit D,Anchorage,AK,99517,232000,3,2,1235,,1984,460,http://www.redfin.com/AK/Anchorage/4230-Woronzof-Dr-99517/unit-D/home/131885877,61.1935989,-149.9646028
Single Family Residential,712 Top Rail Ln,Anchorage,AK,99501,437500,2,3,1318,,2019,470,http://www.redfin.com/AK/Anchorage/Unknown-99501/unit-C2/home/172206348,61.2163596,-149.8879439
Condo/Co-op,101 W 13th Ave #204,Anchorage,AK,99501,325000,2,2,1418,,2006,591,http://www.redfin.com/AK/Anchorage/101-W-13th-Ave-99501/unit-204/home/131812275,61.2098171,-149.8831799
Condo/Co-op,1001 E St #2,Anchorage,AK,99501,549900,2,2,1346,,2008,619,http://www.redfin.com/AK/Anchorage/1001-E-St-99501/unit-2/home/131943902,61.2127199,-149.8911453
Condo/Co-op,222 E 7th Ave #307,Anchorage,AK,99501,719000,3,2,1808,,2005,649,http://www.redfin.com/AK/Anchorage/222-E-7th-Ave-99501/unit-307/home/131815001,61.2153194,-149.8799219
Condo/Co-op,333 M St #210,Anchorage,AK,99501,365000,2,3,2087,,1978,675,http://www.redfin.com/AK/Anchorage/333-M-St-99501/unit-210/home/131355755,61.2183321,-149.9054538
Single Family Residential,1145 Bradway Rd,Badger,AK,99705,289900,3,2,2000,99927,2008,0,http://www.redfin.com/AK/North-Pole/1145-Bradway-Rd-99705/home/104682917,64.8050926,-147.5340598
Single Family Residential,L18 Dallas Dr,Badger,AK,99705,360000,3,3,1850,68476,2020,0,http://www.redfin.com/AK/Unknown/L18-Dallas-Dr-99705/home/172232487,64.7926627,-147.4163607
Single Family Residential,1876 S Simms Rd,Big Lake,AK,99652,225000,4,2,2226,37897,1970,0,http://www.redfin.com/AK/Big-Lake/1876-S-Simms-RD-99652/home/172213001,61.55004,-149.865389
Single Family Residential,898 S Ashley Rd,Big Lake,AK,99652,529000,2,2,2304,251341,2004,0,http://www.redfin.com/AK/Big-Lake/898-S-Ashley-RD-99652/home/172538238,61.573648,-149.80393
Single Family Residential,3726 S Horseshoe Lake Rd,Big Lake,AK,99652,575000,4,4,2700,63162,2005,0,http://www.redfin.com/AK/Big-Lake/3726-S-Horseshoe-Lake-RD-99654/home/172192888,61.57115,-149.946288
Single Family Residential,14248 W Jojoba Rd,Big Lake,AK,99652,305900,4,3,1572,44431,2016,0,http://www.redfin.com/AK/Wasilla/14248-W-Jojoba-Rd-99623/home/140843995,61.55653,-149.8093131
Single Family Residential,3258 S Horseshoe Lake Rd,Big Lake,AK,99652,625000,6,5,3300,45441,2018,0,http://www.redfin.com/AK/Wasilla/3258-S-Horseshoe-Lake-Rd-99623/home/134510660,61.5754134,-149.939151
Single Family Residential,14845 W Ryan's Creek Dr,Big Lake,AK,99652,412000,2,2,2380,44866,1997,0,http://www.redfin.com/AK/Big-Lake/14845-W-Ryan-s-Creek-DR-99652/home/172207705,61.569677,-149.823451
Single Family Residential,20621 W Fox Loop,Big Lake,AK,99652,380000,3,3,2000,199940,1998,0,http://www.redfin.com/AK/Big-Lake/20621-W-Fox-LOOP-99654/home/172158484,61.511461,-149.97029
Single Family Residential,12485 W Looking Glass Dr,Big Lake,AK,99623,45000,1,,704,40946,2005,0,http://www.redfin.com/AK/Wasilla/12485-Looking-Glass-Dr-99654/home/134409302,61.614989,-149.746005
Single Family Residential,11823 Wasey Cir,Big Lake,AK,99652,89999,2,2,1568,91911,2016,0,http://www.redfin.com/AK/Big-Lake/11823-Wasey-CIR-99652/home/172232279,61.564658,-149.747503
Single Family Residential,5488 S Timberline Dr,Big Lake,AK,99652,345000,3,3,3272,48351,2005,0,http://www.redfin.com/AK/Big-Lake/5488-S-Timberline-Dr-99654/home/172201977,61.515068,-150.033611
Single Family Residential,B001 No Rd,Big Lake,AK,99652,135000,0,,480,217800,1996,0,http://www.redfin.com/AK/Wasilla/B001-No-RD-99654/home/172178926,61.536483,-149.985736
Single Family Residential,3721 S Musk Ox St,Big Lake,AK,99652,234000,3,2,1288,22500,2019,0,http://www.redfin.com/AK/Big-Lake/3721-S-Musk-Ox-ST-99652/home/172206526,61.540143,-149.821329
Single Family Residential,3201 S Buoyant Dr,Big Lake,AK,99652,349900,4,2,3000,87120,1979,0,http://www.redfin.com/AK/BIG-LAKE/3201-S-BUOYANT-DR-99652/home/134469016,61.546515,-149.842625
Single Family Residential,20207 W Lakes Blvd,Big Lake,AK,99652,189900,1,1,960,13504,2008,0,http://www.redfin.com/AK/Wasilla/20207-W-Lakes-Blvd-99623/home/135011142,61.5414032,-149.9356504
Single Family Residential,L5A-5B No Rd,Big Lake,AK,99652,749000,5,4,6244,124582,1998,0,http://www.redfin.com/AK/Wasilla/L5A-5B-No-RD-99652/home/172592414,61.548298,-149.876532
Single Family Residential,23129 W Susitna Pkwy,Big Lake,AK,99652,24900,1,,,41382,1984,0,http://www.redfin.com/AK/Big-Lake/23129-W-Susitna-PKWY-99652/home/172162606,61.51393,-150.030259
Single Family Residential,212 S Ashley Rd,Big Lake,AK,99652,45000,0,,,58806,2004,0,http://www.redfin.com/AK/Big-Lake/212-S-Ashley-RD-99652/home/172190735,61.576413,-149.804943
Single Family Residential,13788 W Airigin Dr,Big Lake,AK,99652,319000,3,2,2174,23086,2019,65,http://www.redfin.com/AK/Big-Lake/13788-W-Airigin-DR-99652/home/172213417,61.561489,-149.79632
Single Family Residential,20240 McKinley View Ave,Chugiak,AK,99567,449500,3,2,1854,49717,2012,0,http://www.redfin.com/AK/Chugiak/20240-McKinley-View-Ave-99567/home/131942068,61.4040203,-149.5052741
Single Family Residential,38200 Rochelle Ave,Chugiak,AK,99567,475000,3,3,2871,103200,2001,0,http://www.redfin.com/AK/Chugiak/38200-Rochelle-Ave-99567/home/131612728,61.4171985,-149.1688494
Single Family Residential,23260 Blue Skies Cir,Chugiak,AK,99567,575000,5,4,2996,40519,2007,0,http://www.redfin.com/AK/Chugiak/23260-Blue-Skies-Cir-99567/home/131076241,61.4121566,-149.4480448
Single Family Residential,23805 Homestead Rd,Chugiak,AK,99567,155000,3,1,924,68389,1953,0,http://www.redfin.com/AK/Chugiak/23805-Homestead-Rd-99567/home/131455313,61.41235,-149.438874
Single Family Residential,22501 Whispering Birch Dr,Chugiak,AK,99567,499900,4,3,2540,40673,2004,0,http://www.redfin.com/AK/Chugiak/22501-Whispering-Birch-Dr-99567/home/131445508,61.4232166,-149.4479485
Single Family Residential,23010 Ross Voyles Ave,Chugiak,AK,99567,585000,4,3,3948,40000,2001,0,http://www.redfin.com/AK/Chugiak/23010-Ross-Voyles-Ave-99567/home/130989466,61.413478,-149.4536251
Single Family Residential,24444 Reese Rd,Chugiak,AK,99567,299000,3,2,1920,15000,1982,0,http://www.redfin.com/AK/Chugiak/24444-Reese-Rd-99567/home/131422870,61.425908,-149.426026
Single Family Residential,22131 Armas Dr,Chugiak,AK,99567,449900,3,2,2034,43912,2000,0,http://www.redfin.com/AK/Chugiak/22131-Armas-Dr-99567/home/131227390,61.423053,-149.4696449
Single Family Residential,21708 Old Glenn Hwy,Chugiak,AK,99567,440000,3,4,2532,43560,2000,0,http://www.redfin.com/AK/Chugiak/21708-Old-Glenn-Hwy-99567/home/131003044,61.4165311,-149.4363242
Single Family Residential,22443 Sambar Loop,Chugiak,AK,99567,699999,4,3,5696,51413,2005,0,http://www.redfin.com/AK/Chugiak/22443-Sambar-Loop-99567/home/131523562,61.423737,-149.4599541
Single Family Residential,20640 Upper Bowery Ln,Chugiak,AK,99567,189900,3,2,2500,108900,1966,0,http://www.redfin.com/AK/Chugiak/20640-Upper-Bowery-Ln-99567/home/131212062,61.40677,-149.4812951
Single Family Residential,20727 Oberg Rd,Chugiak,AK,99567,459900,3,2,2656,40808,1979,0,http://www.redfin.com/AK/Chugiak/20727-Oberg-Rd-99567/home/131226375,61.407521,-149.456399
Single Family Residential,21415 Rock Ptarmigan St,Chugiak,AK,99567,91000,2,1,980,20909,1970,0,http://www.redfin.com/AK/Chugiak/21415-Rock-Ptarmigan-St-99567/home/131668842,61.4142145,-149.425138
Single Family Residential,18546 Mink Creek Dr,Chugiak,AK,99567,475000,4,5,4298,95832,1993,0,http://www.redfin.com/AK/Chugiak/18546-Mink-Creek-Dr-99567/home/131463694,61.383317,-149.537555
Single Family Residential,19920 Tulwar Dr,Chugiak,AK,99567,435000,4,3,2442,45734,1976,0,http://www.redfin.com/AK/Chugiak/19920-Tulwar-Dr-99567/home/131654867,61.4001211,-149.4317663
Single Family Residential,25295 Homestead Rd,Chugiak,AK,99567,575000,4,4,4531,54618,1985,10,http://www.redfin.com/AK/Chugiak/25295-Homestead-Rd-99567/home/131238999,61.415168,-149.4117039
Single Family Residential,23826 Hilltop Dr,Chugiak,AK,99567,295000,3,2,1092,24234,1976,35,http://www.redfin.com/AK/Chugiak/23826-Hilltop-Dr-99567/home/131240189,61.4059379,-149.4376659
Single Family Residential,65780 Sterling Hwy,Clam Gulch,AK,99568,150000,3,2,1200,131986,1961,0,http://www.redfin.com/AK/Clam-Gulch/65780-Sterling-Hwy-99568/home/133189468,60.227105,-151.402541
Single Family Residential,18061 Tolrah Rd,Clam Gulch,AK,99568,323000,3,3,1664,176853,2019,0,http://www.redfin.com/AK/Unknown/18061-TOLRAH-RD-Unknown/home/133595593,60.24354,-151.380894
Single Family Residential,18476 Sterling Hwy,Cooper Landing,AK,99572,795000,4,2,2560,40946,2004,0,http://www.redfin.com/AK/Cooper-Landing/18476-Sterling-Hwy-99572/home/133391951,60.491019,-149.8160984
Single Family Residential,19120 Citation Rd,Eagle River,AK,99577,555900,3,2,3200,18034,2020,0,http://www.redfin.com/AK/Eagle-River/19120-Citation-Rd-99577/home/166188925,61.314104,-149.5258629
Single Family Residential,10336 Crest View Ln,Eagle River,AK,99577,529200,3,2,3002,11325,2020,0,http://www.redfin.com/AK/Eagle-River/10336-Crest-View-Ln-99577/home/166660169,61.314105,-149.525258
Single Family Residential,12106 Copper Mountain Dr,Eagle River,AK,99577,334900,3,2,1747,4356,1996,0,http://www.redfin.com/AK/Eagle-River/12106-Copper-Mountain-Dr-99577/home/131429984,61.329811,-149.5823801
Single Family Residential,17811 Lacey Dr,Eagle River,AK,99577,483900,4,4,2792,40530,1980,0,http://www.redfin.com/AK/Eagle-River/17811-Lacey-Dr-99577/home/131214081,61.3246607,-149.5498996
Single Family Residential,21419 Lowland Ave,Eagle River,AK,99577,629500,4,4,4468,20054,1984,0,http://www.redfin.com/AK/Eagle-River/21419-Lowland-Ave-99577/home/131338318,61.3117562,-149.4831589
Single Family Residential,17743 Kiloana Cir,Eagle River,AK,99577,379500,3,3,1810,10336,1982,0,http://www.redfin.com/AK/Eagle-River/17743-Kiloana-Cir-99577/home/131709947,61.3089341,-149.5508917
Single Family Residential,16627 Riddell Cir,Eagle River,AK,99577,317000,4,2,1532,8075,1983,0,http://www.redfin.com/AK/Eagle-River/16627-Riddell-Cir-99577/home/131622077,61.338422,-149.5718297
Single Family Residential,19039 First St,Eagle River,AK,99577,625000,5,5,3606,17820,2020,0,http://www.redfin.com/AK/Eagle-River/19039-1st-St-99577/home/131463210,61.3118718,-149.5274508
Single Family Residential,10007 Wildwood St,Eagle River,AK,99577,395000,3,3,1924,11442,1995,0,http://www.redfin.com/AK/Eagle-River/10007-Wildwood-St-99577/home/131341142,61.3109613,-149.547853
Single Family Residential,17631 N Juanita Loop,Eagle River,AK,99577,324900,3,2,1668,17245,1993,0,http://www.redfin.com/AK/Eagle-River/17631-N-Juanita-Loop-99577/home/131915712,61.3375486,-149.5529693
Single Family Residential,18128 Fish Hatchery Rd,Eagle River,AK,99577,375000,3,3,1912,21533,1971,0,http://www.redfin.com/AK/Eagle-River/18128-Fish-Hatchery-Rd-99577/home/131241138,61.3490541,-149.5436959
Single Family Residential,9623 Krishka Cir,Eagle River,AK,99577,350000,3,3,1635,10103,1982,0,http://www.redfin.com/AK/Eagle-River/9623-Krishka-Cir-99577/home/131916448,61.307488,-149.527758
Single Family Residential,19720 Canyon View Dr,Eagle River,AK,99577,175000,3,2,2106,75004,1975,0,http://www.redfin.com/AK/Eagle-River/19720-Canyon-View-Dr-99577/home/131840119,61.3304246,-149.5150095
Single Family Residential,14810 E Lake Ridge Dr,Eagle River,AK,99577,975000,4,5,5392,55850,2006,0,http://www.redfin.com/AK/Eagle-River/14810-E-Lake-Ridge-Dr-99577/home/130988741,61.354208,-149.5402851
Single Family Residential,11316 Bridger Pl,Eagle River,AK,99577,324900,3,2,1478,6301,1982,0,http://www.redfin.com/AK/Eagle-River/11316-Bridger-Pl-99577/home/131538524,61.3228827,-149.5827149
Single Family Residential,11607 Birch Hills Dr,Eagle River,AK,99577,565000,4,4,2610,35528,1993,0,http://www.redfin.com/AK/Eagle-River/11607-Birch-Hills-Dr-99577/home/131201524,61.3253624,-149.544575
Single Family Residential,17934 Sauvignon Cir,Eagle River,AK,99577,331000,3,3,1962,5848,1997,0,http://www.redfin.com/AK/Eagle-River/17934-Sauvignon-Cir-99577/home/131907685,61.3380014,-149.5484664
Single Family Residential,12110 Buttermilk Way,Eagle River,AK,99577,239900,3,2,1511,3050,1984,0,http://www.redfin.com/AK/Eagle-River/12110-Buttermilk-Way-99577/home/131922140,61.3298691,-149.5809931
Single Family Residential,11811 Laurie Cir,Eagle River,AK,99577,439000,4,2,2132,23972,1972,0,http://www.redfin.com/AK/Eagle-River/11811-Laurie-Cir-99577/home/131752949,61.3269864,-149.5497577
Single Family Residential,20519 Birch Crest Ln,Eagle River,AK,99577,435000,4,3,2262,6812,2012,0,http://www.redfin.com/AK/Eagle-River/20519-Birch-Crest-Ln-99577/home/131944946,61.3045013,-149.5001406
Single Family Residential,16220 Squaw Valley Cir,Eagle River,AK,99577,315000,4,2,1755,6029,1981,0,http://www.redfin.com/AK/Eagle-River/16220-Squaw-Valley-Cir-99577/home/131626924,61.3217123,-149.5794621
Single Family Residential,10336 LeDoux Ln,Eagle River,AK,99577,399900,5,2,2101,10018,1980,0,http://www.redfin.com/AK/Eagle-River/10336-Le-Doux-Ln-99577/home/131463235,61.3140654,-149.5363054
Single Family Residential,6212 Magnaview Dr,Eagle River,AK,99577,585900,4,5,4172,45727,1994,0,http://www.redfin.com/AK/Eagle-River/6212-Magnaview-Dr-99577/home/131239169,61.276564,-149.371501
Single Family Residential,23650 Sunny Glen Dr,Eagle River,AK,99577,479000,3,2,2240,62291,1978,0,http://www.redfin.com/AK/Eagle-River/23650-Sunny-Glen-Dr-99577/home/131043509,61.297808,-149.439864
Single Family Residential,20798 Icefall Dr,Eagle River,AK,99577,470000,5,4,2828,6901,2007,0,http://www.redfin.com/AK/Eagle-River/20798-Icefall-Dr-99577/home/131765694,61.300967,-149.4950769
Single Family Residential,17711 Beaujolais Dr,Eagle River,AK,99577,310000,3,2,1536,3372,1991,12,http://www.redfin.com/AK/Eagle-River/17711-Beaujolais-Dr-99577/home/131416045,61.3391546,-149.5518506
Single Family Residential,16555 Theodore Dr,Eagle River,AK,99577,465000,4,3,2331,10710,1999,13,http://www.redfin.com/AK/Eagle-River/16555-Theodore-Dr-99577/home/131056358,61.3448881,-149.5726356
Single Family Residential,16140 Rosenburg Cir,Eagle River,AK,99577,599000,5,4,4058,9698,2010,15,http://www.redfin.com/AK/Eagle-River/16140-Rosenburg-Cir-99577/home/131714593,61.3364385,-149.5811845
Single Family Residential,16392 Stephan Valley Dr,Eagle River,AK,99577,429900,4,3,2046,7271,2013,45,http://www.redfin.com/AK/Eagle-River/16392-Stephan-Valley-Dr-99577/home/131734194,61.3393787,-149.5773084
Single Family Residential,20306 Glacier Park Cir,Eagle River,AK,99577,324500,2,2,1627,3950,2005,48,http://www.redfin.com/AK/Eagle-River/20306-Glacier-Park-Cir-99577/home/131283067,61.2999964,-149.5037166
Single Family Residential,18512 S Kanaga Loop,Eagle River,AK,99577,264900,3,3,1482,4718,1983,75,http://www.redfin.com/AK/Eagle-River/18512-S-Kanaga-Loop-99577/home/131433761,61.3036997,-149.5373069
Single Family Residential,19721 Shumagin Cir,Eagle River,AK,99577,349900,3,3,1598,12842,1982,75,http://www.redfin.com/AK/Eagle-River/19721-Shumagin-Cir-99577/home/131596780,61.3099605,-149.5144371
Single Family Residential,19503 Marble Cir,Eagle River,AK,99577,409900,4,3,2644,11201,1989,75,http://www.redfin.com/AK/Eagle-River/19503-Marble-Cir-99577/home/131919058,61.304335,-149.519993
Single Family Residential,9243 Biorka Cir,Eagle River,AK,99577,269000,3,3,1378,5026,1984,75,http://www.redfin.com/AK/Eagle-River/9243-Biorka-Cir-99577/home/131759695,61.3041312,-149.5327237
Single Family Residential,19701 Shumagin Cir,Eagle River,AK,99577,356900,5,3,1974,10518,1974,75,http://www.redfin.com/AK/Eagle-River/19701-Shumagin-Cir-99577/home/131475379,61.3100607,-149.5156566
Single Family Residential,18888 Andreanof Dr,Eagle River,AK,99577,328000,3,2,1344,9666,1982,75,http://www.redfin.com/AK/Eagle-River/18888-Andreanof-Dr-99577/home/131937405,61.3067861,-149.5307922
Single Family Residential,19901 N Montague Loop,Eagle River,AK,99577,419000,4,3,2576,11137,1985,75,http://www.redfin.com/AK/Eagle-River/19901-N-Montague-Loop-99577/home/131844165,61.3090402,-149.5115408
Single Family Residential,20620 Ptarmigan Blvd,Eagle River,AK,99577,249900,4,3,3233,39865,1998,100,http://www.redfin.com/AK/Eagle-River/20620-Ptarmigan-Blvd-99577/home/131968432,61.3066023,-149.4989483
Condo/Co-op,17488 Fire Eagle Way #120,Eagle River,AK,99577,215000,3,2,1376,1735,2003,117,http://www.redfin.com/AK/Eagle-River/17488-Fire-Eagle-Way-99577/unit-120/home/131285174,61.3454004,-149.5574415
Condo/Co-op,17417 Stonewood Pl #101,Eagle River,AK,99577,215000,3,2,1513,1869,2003,125,http://www.redfin.com/AK/Eagle-River/17417-Stonewood-Pl-99577/unit-101/home/131940924,61.3454004,-149.5574415
Condo/Co-op,12263 Lake St Unit B4,Eagle River,AK,99577,180000,2,2,930,,1983,271,http://www.redfin.com/AK/Eagle-River/12263-Lake-St-99577/unit-B4/home/172278978,61.331418,-149.569596
Condo/Co-op,12313 Lake St Unit C-7,Eagle River,AK,99577,167000,2,2,989,,1983,285,http://www.redfin.com/AK/Anchorage/Unknown-99577/unit-C-7/home/131215778,61.331808,-149.569674
Condo/Co-op,36 Vista Ridge Cir #36,Eagle River,AK,99577,335000,3,3,1572,,2020,290,http://www.redfin.com/AK/Anchorage/36-Vista-Ridge-Loop-99577/unit-36/home/172504270,61.3317549,-149.5635493
Condo/Co-op,20129 Riverside Dr,Eagle River,AK,99577,315000,2,3,1615,,2006,320,http://www.redfin.com/AK/Eagle-River/20129-Riverside-Dr-99577/unit-3A/home/131723701,61.299167,-149.505172
Condo/Co-op,16600 River Heights Loop #28,Eagle River,AK,99577,210000,2,3,1440,,2002,490,http://www.redfin.com/AK/Eagle-River/16600-River-Heights-Loop-99577/unit-28/home/131438271,61.3111674,-149.5709636
Single Family Residential,1755 Rise Rd,Fairbanks,AK,99709,94900,1,,384,79769,2011,0,http://www.redfin.com/AK/Fairbanks/1755-Rise-Rd-99709/home/104671937,64.8788224,-147.8197865
Single Family Residential,506 Eighth Ave,Fairbanks,AK,99701,149900,2,1,727,2356,1943,0,http://www.redfin.com/AK/Fairbanks/506-8th-Ave-99701/home/104567030,64.8405301,-147.7168065
Single Family Residential,1506 3rd Ave,Fairbanks,AK,99701,231000,4,3,1974,8549,1950,0,http://www.redfin.com/AK/Fairbanks/1506-3rd-Ave-99701/home/104567072,64.84553,-147.7418549
Single Family Residential,995 Union Dr,Fairbanks,AK,99709,167500,2,1,768,79149,2000,0,http://www.redfin.com/AK/Fairbanks/995-Union-Dr-99709/home/104643662,64.8947533,-147.7386444
Single Family Residential,2620 Lingonberry Ln,Fairbanks,AK,99709,169900,2,1,1028,217800,1976,0,http://www.redfin.com/AK/Fairbanks/2620-Lingonberry-Ln-99709/home/172578514,64.8458104,-147.9036144
Single Family Residential,309 Erceg St,Fairbanks,AK,99701,524900,6,4,6800,8943,1996,0,http://www.redfin.com/AK/Fairbanks/309-Erceg-St-99701/home/104673292,64.8492509,-147.7181348
Single Family Residential,446 Carlton Dr,Fairbanks,AK,99701,349900,4,3,2411,10286,1984,0,http://www.redfin.com/AK/Fairbanks/446-Carlton-Dr-99701/home/104595264,64.8530844,-147.6734678
Single Family Residential,477 Snowy Owl Ln,Fairbanks,AK,99712,449900,4,4,3021,64338,1995,0,http://www.redfin.com/AK/Fairbanks/477-Snowy-Owl-Ln-99712/home/104622104,64.901721,-147.6742799
Single Family Residential,2344 Nugget Loop,Fairbanks,AK,99709,329500,3,3,3576,126542,1977,0,http://www.redfin.com/AK/Fairbanks/2344-Nugget-Loop-99709/home/104663519,64.921885,-147.879512
Single Family Residential,665 10th Ave,Fairbanks,AK,99701,110000,2,1,1005,,1973,0,http://www.redfin.com/AK/Fairbanks/665-10th-Ave-99701/unit-108/home/104566255,64.8388052,-147.7221237
Single Family Residential,920 5th Ave,Fairbanks,AK,99701,259900,3,2,1728,7060,1964,0,http://www.redfin.com/AK/Fairbanks/920-5th-Ave-99701/home/104652815,64.8434881,-147.7316594
Single Family Residential,1122 Garden Way,Fairbanks,AK,99701,129500,2,2,1500,4600,1976,0,http://www.redfin.com/AK/Fairbanks/1122-Garden-Way-99701/home/104692104,64.8270396,-147.7292504
Single Family Residential,755 Moosewood Cir,Fairbanks,AK,99712,132500,2,1,940,42253,2007,0,http://www.redfin.com/AK/Fairbanks/755-Moosewood-Cir-99712/home/104643509,64.891474,-147.552481
Single Family Residential,1129 23rd Ave,Fairbanks,AK,99701,149900,5,3,1859,6476,1958,0,http://www.redfin.com/AK/Fairbanks/1129-23rd-Ave-99701/home/104621106,64.825964,-147.728964
Single Family Residential,1210 Bunnell St,Fairbanks,AK,99701,204900,2,2,1735,11573,1954,0,http://www.redfin.com/AK/Fairbanks/1210-Bunnell-St-99701/home/104566362,64.859743,-147.738155
Single Family Residential,474 Trainor Gate Rd,Fairbanks,AK,99701,259900,6,3,2600,7827,1981,0,http://www.redfin.com/AK/Fairbanks/474-Trainor-Gate-Rd-99701/home/104643679,64.8468216,-147.6735319
Single Family Residential,1526 Mary Ann St,Fairbanks,AK,99701,42000,1,1,530,7500,1942,0,http://www.redfin.com/AK/Fairbanks/1526-Mary-Ann-St-99701/home/104643365,64.8335764,-147.72159
Single Family Residential,4204 York Ave,Fairbanks,AK,99709,254900,3,2,1664,10061,1983,0,http://www.redfin.com/AK/Fairbanks/4204-York-Ave-99709/home/104607779,64.8451699,-147.8367435
Single Family Residential,4823 Villanova Dr,Fairbanks,AK,99709,229900,5,3,2720,7600,1983,0,http://www.redfin.com/AK/Fairbanks/4823-Villanova-Dr-99709/home/104609436,64.836997,-147.863791
Single Family Residential,527 Beacon Rd,Fairbanks,AK,99712,179000,3,1,1700,40320,1996,0,http://www.redfin.com/AK/Fairbanks/527-Beacon-Rd-99712/home/104594633,64.8711917,-147.5978621
Single Family Residential,340 Snowy Owl Ln,Fairbanks,AK,99712,315000,4,3,2542,84288,1995,0,http://www.redfin.com/AK/Fairbanks/340-Snowy-Owl-Ln-99712/home/104578749,64.9077202,-147.6680953
Single Family Residential,L6 B1 Teresa Turnaround,Fairbanks,AK,99712,459900,3,3,2636,91040,2020,0,http://www.redfin.com/AK/Unknown/L6-B1-Teresa-Turnaround-99712/home/172204479,64.9015492,-147.6357054
Single Family Residential,L17 B2 Edinburgh Ct,Fairbanks,AK,99712,189900,2,1,939,74182,2020,0,http://www.redfin.com/AK/Unknown/L17-B2-Edinburgh-Ct-99712/home/172232503,64.9024289,-147.6381437
Single Family Residential,L13 B2 Brighton Dr,Fairbanks,AK,99712,309900,3,2,1555,68520,2020,0,http://www.redfin.com/AK/Unknown/L13-B2-Brighton-Dr-99712/home/172204470,64.9040884,-147.6298402
Single Family Residential,2340 Chief John Dr,Fairbanks,AK,99709,649900,5,5,4200,256568,2006,0,http://www.redfin.com/AK/Fairbanks/2340-Chief-John-Dr-99709/home/104621315,64.763835,-148.011028
Single Family Residential,1659 Old Pioneer Way,Fairbanks,AK,99709,184900,2,1,864,10962,1982,0,http://www.redfin.com/AK/Fairbanks/1659-Old-Pioneer-Way-99709/home/166739462,64.859733,-147.7778508
Single Family Residential,312 Well St,Fairbanks,AK,99701,249900,4,1,2520,11200,1938,0,http://www.redfin.com/AK/Fairbanks/312-Well-St-99701/home/166717148,64.84877,-147.7152319
Single Family Residential,301 Erceg St,Fairbanks,AK,99701,498900,6,6,3400,7247,2006,0,http://www.redfin.com/AK/Fairbanks/301-Erceg-St-99701/home/104565917,64.8489152,-147.718378
Single Family Residential,221 Bentley Dr,Fairbanks,AK,99701,259999,4,2,1936,12200,1964,0,http://www.redfin.com/AK/Fairbanks/221-Bentley-Dr-99701/home/104631075,64.8405362,-147.695952
Single Family Residential,386 Crestmont Dr,Fairbanks,AK,99709,342500,3,3,2448,27955,1986,0,http://www.redfin.com/AK/Fairbanks/386-Crestmont-Dr-99709/home/104673288,64.8505266,-147.8837396
Single Family Residential,1400 Aspen St,Fairbanks,AK,99709,230000,4,2,1742,7920,1977,0,http://www.redfin.com/AK/Fairbanks/1400-Aspen-St-99709/home/104644375,64.8569828,-147.7736169
Single Family Residential,L10 B4 W Canterbury Dr,Fairbanks,AK,99709,485750,4,3,2690,82023,2020,0,http://www.redfin.com/AK/Unknown/L10-B4-Canterbury-Dr-99709/home/172231024,64.8259354,-147.9525108
Single Family Residential,L5 B2 W Teresa Turnaround,Fairbanks,AK,99712,456771,4,3,2690,52794,2020,0,http://www.redfin.com/AK/Unknown/L5-B2-Teresa-Turnaround-99712/home/172204468,64.9015492,-147.6357054
Single Family Residential,1466 Joyce Drive Dr,Fairbanks,AK,99701,344900,3,2,1639,8180,2019,0,http://www.redfin.com/AK/Fairbanks/1466-Joyce-Dr-99701/home/166716882,64.856444,-147.671786
Single Family Residential,915 Canterbury Dr,Fairbanks,AK,99709,450435,4,3,2456,83243,2020,0,http://www.redfin.com/AK/Fairbanks/915-Canterbury-Dr-99709/home/166741125,64.826809,-147.9562919
Single Family Residential,905 Canterbury Dr,Fairbanks,AK,99709,434900,3,3,2132,81196,2020,0,http://www.redfin.com/AK/Fairbanks/905-Canterbury-Dr-99709/home/166744929,64.827409,-147.957769
Single Family Residential,L1 B2 Brighton Dr,Fairbanks,AK,99712,381211,3,3,2164,54754,2020,0,http://www.redfin.com/AK/Unknown/L1-B2-Brighton-Dr-99712/home/172204476,64.9040884,-147.6298402
Single Family Residential,620 O'Leary Rd,Fairbanks,AK,99712,349900,4,4,2900,48003,2006,0,http://www.redfin.com/AK/Fairbanks/620-Oleary-Rd-99712/home/104644023,64.8864862,-147.3417145
Single Family Residential,2359 Hawthorne Ct,Fairbanks,AK,99709,379900,3,3,1850,19038,2020,0,http://www.redfin.com/AK/Fairbanks/2359-Hawthorne-Ct-99709/home/166744516,64.851972,-147.8800629
Single Family Residential,2491 Western Ave,Fairbanks,AK,99709,176000,4,2,2330,7800,1959,0,http://www.redfin.com/AK/Fairbanks/2491-Western-Ave-99709/home/104671671,64.8240791,-147.8732581
Single Family Residential,5795 Supply Rd,Fairbanks,AK,99709,359900,3,2,3060,54014,1966,0,http://www.redfin.com/AK/Fairbanks/5795-Supply-Rd-99709/home/104579163,64.810865,-147.8937598
Single Family Residential,L3 B9 W Heather,Fairbanks,AK,99709,427900,3,3,2132,119016,2020,0,http://www.redfin.com/AK/Unknown/L3-B9-Heather-Dr-99709/home/172213688,64.7955059,-147.9823844
Single Family Residential,995 Ellesmere Dr,Fairbanks,AK,99709,899900,5,5,5633,89210,1998,0,http://www.redfin.com/AK/Fairbanks/995-Ellesmere-Dr-99709/home/104671630,64.824758,-147.9678749
Single Family Residential,7044 Sweren Loop,Fairbanks,AK,99712,27500,0,,192,126062,2013,0,http://www.redfin.com/AK/Fairbanks/7044-Sweren-Loop-99712/home/143593828,64.871215,-146.905894
Single Family Residential,5166 Elliott Hwy,Fairbanks,AK,99712,149500,0,1,1632,217800,2003,0,http://www.redfin.com/AK/Fairbanks/5166-Elliott-Hwy-99712/home/104663140,65.0919849,-147.7274969
Single Family Residential,4280 Murphy Dome Rd,Fairbanks,AK,99709,314900,3,3,2216,93654,1979,0,http://www.redfin.com/AK/Fairbanks/4280-Murphy-Dome-Rd-99709/home/104621911,64.92988,-148.0855411
Single Family Residential,6624 Chena Hot Springs Rd,Fairbanks,AK,99712,349900,4,2,2216,229155,2004,0,http://www.redfin.com/AK/Fairbanks/6624-Chena-Hot-Springs-Rd-99712/home/104567202,64.880489,-146.950145
Single Family Residential,1244 Leuthold Dr,Fairbanks,AK,99712,89900,2,1,1000,215622,2012,0,http://www.redfin.com/AK/Fairbanks/1244-Leuthold-Dr-E-99712/home/104662110,65.1311038,-147.5432816
Single Family Residential,177 Simpson Way,Fairbanks,AK,99712,29900,1,,300,217800,1990,0,http://www.redfin.com/AK/Fairbanks/177-Simpson-Way-99712/home/104672318,65.072018,-147.6552078
Single Family Residential,9545 Parks Hwy,Fairbanks,AK,99709,155000,2,1,1150,261360,1985,0,http://www.redfin.com/AK/Unknown/9545-PARKS-HWY-Unknown/home/104630171,64.710465,-148.622529
Single Family Residential,370 Lake Trout Ln,Fairbanks,AK,99712,69900,2,1,432,204732,1981,0,http://www.redfin.com/AK/Fairbanks/370-Lake-Trout-Dr-99712/home/104578700,64.875656,-146.8644111
Condo/Co-op,141 Dunkel St #3,Fairbanks,AK,99701,89000,1,1,384,,1968,250,http://www.redfin.com/AK/Fairbanks/141-Dunkel-St-99701/unit-3/home/172232386,64.8448729,-147.7126826
Condo/Co-op,1600 Washington Dr #1,Fairbanks,AK,99709,79900,1,1,563,,1982,350,http://www.redfin.com/AK/Fairbanks/1600-Washington-Dr-99709/unit-1/home/104579148,64.8341965,-147.801346
Condo/Co-op,1600 Washington Dr #11,Fairbanks,AK,99709,79900,1,1,568,,1982,350,http://www.redfin.com/AK/Fairbanks/1600-Washington-Dr-99709/unit-11/home/104652728,64.8343001,-147.8011398
Condo/Co-op,1600 Washington Dr #2,Fairbanks,AK,99709,72800,1,1,567,,1982,350,http://www.redfin.com/AK/Fairbanks/1600-Washington-Dr-99709/unit-2/home/104594574,64.8343001,-147.8011398
Condo/Co-op,87-1 Slater Dr Unit 87-1,Fairbanks,AK,99701,72500,2,1,721,,1971,350,http://www.redfin.com/AK/Fairbanks/81-Slater-Dr-99701/unit-87-1/home/172232024,64.8441961,-147.7012731
Condo/Co-op,658 Fairbanks St #16,Fairbanks,AK,99709,89900,2,1,805,,1982,422,http://www.redfin.com/AK/Fairbanks/658-Fairbanks-St-99709/unit-16/home/172232456,64.847235,-147.8310004
Condo/Co-op,1606 Marika Rd #8,Fairbanks,AK,99709,134900,3,2,1270,,1982,594,http://www.redfin.com/AK/Fairbanks/1606-Marika-Rd-99709/unit-8/home/104578816,64.8546493,-147.7570672
Single Family Residential,183 Crow Creek Rd,Girdwood,AK,99587,599000,3,2,1903,13341,1983,0,http://www.redfin.com/AK/Girdwood/183-Crow-Creek-Rd-99587/home/172188161,60.9635484,-149.1390722
Condo/Co-op,330 Hightower Rd #201,Girdwood,AK,99587,372000,2,2,1099,,2006,380,http://www.redfin.com/AK/Girdwood/330-Hightower-Rd-99587/unit-201/home/172635980,60.9647014,-149.131905
Single Family Residential,41295 Alan Dr,Homer,AK,99603,349000,3,2,2688,102801,1978,0,http://www.redfin.com/AK/Homer/41295-Alan-Dr-99603/home/133501754,59.6743136,-151.4203299
Single Family Residential,945 Ben Walters Ct,Homer,AK,99603,289000,3,2,1402,12196,2002,0,http://www.redfin.com/AK/Homer/945-Ben-Walters-Ct-99603/home/133708179,59.6464253,-151.5179135
Single Family Residential,39888 Brenmark Rd,Homer,AK,99603,264000,2,2,940,97574,2002,0,http://www.redfin.com/AK/Homer/39888-Brenmark-Rd-99603/home/133322240,59.695783,-151.351557
Single Family Residential,1638 Eagle View Dr,Homer,AK,99603,299000,1,1,1262,110032,2007,0,http://www.redfin.com/AK/Homer/1638-Eagle-View-Dr-99603/home/133299225,59.662918,-151.58632
Single Family Residential,1054 Krueth Way,Homer,AK,99603,720000,5,5,3972,14374,2016,0,http://www.redfin.com/AK/Homer/1054-Krueth-Way-99603/home/133305477,59.6355245,-151.5163708
Single Family Residential,67784 Green Timbers Rd,Homer,AK,99603,319000,3,3,2056,98010,1983,0,http://www.redfin.com/AK/Homer/67784-Green-Timbers-Rd-99603/home/133445389,59.667719,-151.674015
Single Family Residential,38185 Chelsey St,Homer,AK,99603,105000,0,,768,89298,1988,0,http://www.redfin.com/AK/Homer/38185-Chelsey-St-99603/home/133450713,59.7197911,-151.2994211
Single Family Residential,38165 Chelsey St,Homer,AK,99603,265000,4,2,2295,89298,1988,0,http://www.redfin.com/AK/Homer/38165-Chelsey-St-99603/home/133713321,59.720217,-151.299245
Single Family Residential,67385 Timmerman Ct,Homer,AK,99603,338000,2,1,1367,92347,1996,0,http://www.redfin.com/AK/Homer/67385-Timmerman-Ct-99603/home/133299250,59.6759883,-151.6668148
Single Family Residential,759 Soundview Ave,Homer,AK,99603,429000,4,3,3713,10890,2012,0,http://www.redfin.com/AK/Homer/759-Soundview-Ave-99603/home/133609868,59.647995,-151.5617071
Single Family Residential,3356 Beluga Pl,Homer,AK,99603,575000,3,1,1200,7000,1987,0,http://www.redfin.com/AK/Homer/3356-Beluga-Pl-99603/home/133510413,59.639657,-151.538157
Single Family Residential,4103 Kachemak Dr,Homer,AK,99603,990000,2,1,1489,258746,1982,0,http://www.redfin.com/AK/Homer/4103-Kachemak-Dr-99603/home/172532592,59.6531305,-151.4451839
Single Family Residential,38929 Alathea St,Homer,AK,99603,310000,1,,612,316245,1999,0,http://www.redfin.com/AK/Homer/38929-Alathea-St-99603/home/133669599,59.707201,-151.344745
Single Family Residential,1500 Cottonwood Ln,Homer,AK,99603,599000,3,3,3228,77972,1997,0,http://www.redfin.com/AK/Homer/1500-Cottonwood-Ln-99603/home/133691266,59.6707746,-151.5012074
Single Family Residential,40889 Denny Ln,Homer,AK,99603,199000,1,1,738,91476,1981,0,http://www.redfin.com/AK/Homer/40889-Denny-Ln-99603/home/133306340,59.6778412,-151.6886613
Single Family Residential,1366 Sterling Hwy,Homer,AK,99603,260000,3,3,1720,39639,1977,0,http://www.redfin.com/AK/Homer/1366-Sterling-Hwy-99603/home/133493158,59.6440499,-151.5776314
Single Family Residential,937 Miller Ln,Homer,AK,99603,585000,6,4,3024,44431,1971,0,http://www.redfin.com/AK/Homer/937-Miller-Ln-99603/home/133709090,59.654674,-151.565182
Single Family Residential,1330 Mission Rd,Homer,AK,99603,379000,4,2,1714,206910,1982,0,http://www.redfin.com/AK/Homer/1330-Mission-Rd-99603/home/133323269,59.667345,-151.50377
Single Family Residential,4758 Kachemak Dr,Homer,AK,99603,595000,2,2,2000,25700,1956,0,http://www.redfin.com/AK/Homer/4758-Kachemak-Dr-99603/home/133196886,59.6591469,-151.4417574
Single Family Residential,60456 E End Rd,Homer,AK,99603,450000,2,2,2237,91040,1976,0,http://www.redfin.com/AK/Homer/60456-E-End-Rd-99603/home/133314122,59.6681603,-151.4473239
Single Family Residential,59895 Winter Wren Ct,Homer,AK,99603,539750,3,3,2412,78843,2005,0,http://www.redfin.com/AK/Homer/59895-Winter-Wren-Ct-99603/home/133669981,59.6763792,-151.4506173
Single Family Residential,63935 Katamar Ave,Homer,AK,99603,389000,5,4,3921,84070,1980,0,http://www.redfin.com/AK/Homer/63935-Katamar-Ave-99603/home/133486174,59.666472,-151.5704187
Single Family Residential,4715 Lincoln Cir,Homer,AK,99603,475000,6,7,3948,118483,2003,0,http://www.redfin.com/AK/Homer/4715-Lincoln-Cir-99603/home/133412537,59.6608712,-151.5918864
Single Family Residential,0000 Undisclosed Address,Homer,AK,99603,9000000,8,12,17000,107593,2011,0,http://www.redfin.com/AK/Homer/Undisclosed-Address-Unknown/home/172211928,59.648486,-151.453801
Single Family Residential,55220 Finch St,Homer,AK,99603,248000,2,2,1492,58806,1988,0,http://www.redfin.com/AK/Homer/55220-Finch-St-99603/home/133426537,59.726914,-151.321391
Single Family Residential,64653 Leandra Rd,Homer,AK,99603,620000,6,4,4042,43560,2010,0,http://www.redfin.com/AK/Homer/64653-Leandra-Rd-99603/home/133626025,59.6767309,-151.5890202
Single Family Residential,56300 East End Rd,Homer,AK,99603,447000,3,3,1516,110206,2003,0,http://www.redfin.com/AK/Homer/56300-E-End-Rd-99603/home/133195304,59.707508,-151.352443
Single Family Residential,60368 Bench Cir,Homer,AK,99603,295000,3,2,2015,31799,1984,0,http://www.redfin.com/AK/Homer/60368-Bench-Cir-99603/home/133591587,59.671597,-151.465362
Single Family Residential,752 Nelson Ave,Homer,AK,99603,685000,3,3,1624,18675,2020,0,http://www.redfin.com/AK/Homer/Unknown-Unknown/home/168795842,59.6425,-151.548333
Single Family Residential,40864 Waterman Rd,Homer,AK,99603,499000,3,4,3600,43560,1972,0,http://www.redfin.com/AK/Homer/40864-Waterman-Rd-99603/home/133670019,59.684929,-151.4006639
Single Family Residential,5009 Spruce Terrace Cir,Homer,AK,99603,680000,4,3,2090,72310,2010,0,http://www.redfin.com/AK/Homer/5009-Spruce-Terrace-Cir-99603/home/133438534,59.6644393,-151.541063
Single Family Residential,32614 Slava Bogu Ln,Homer,AK,99603,760000,6,4,3820,140698,2014,0,http://www.redfin.com/AK/Homer/32614-Slava-Bogu-Ln-99603/home/133614705,59.7998182,-151.1216864
Single Family Residential,4029 Main St,Homer,AK,99603,320000,5,4,2520,9147,1979,0,http://www.redfin.com/AK/Homer/4029-Main-St-99603/home/133323766,59.649105,-151.5422553
Single Family Residential,5250 E East Hill Rd,Homer,AK,99603,268000,3,2,1670,23522,1977,0,http://www.redfin.com/AK/Homer/5250-E-Hill-Rd-99603/home/133615112,59.6665279,-151.5163192
Single Family Residential,41596 Manor Rd,Homer,AK,99603,240000,1,1,1200,78843,1980,0,http://www.redfin.com/AK/Unknown/41596-MANOR-RD-Unknown/home/133501670,59.672341,-151.565362
Single Family Residential,54730 Rolling Meadows Rd,Homer,AK,99603,377000,3,2,1200,199940,2006,0,http://www.redfin.com/AK/Homer/54730-Rolling-Meadows-Rd-99603/home/133303943,59.714041,-151.3117716
Single Family Residential,61110 Skyline Dr,Homer,AK,99603,385000,3,2,2269,43560,1998,0,http://www.redfin.com/AK/Homer/61110-Skyline-Dr-99603/home/133523506,59.692908,-151.433804
Single Family Residential,1235 Sterling Hwy,Homer,AK,99603,140000,3,1,768,29620,1950,0,http://www.redfin.com/AK/Homer/1235-Sterling-Hwy-99603/home/133191325,59.642314,-151.5763491
Single Family Residential,5025 East HIll Rd,Homer,AK,99603,569000,4,3,2374,23522,1985,0,http://www.redfin.com/AK/Homer/5025-E-Hill-Rd-99603/home/133615351,59.663832,-151.512541
Single Family Residential,3625 W Hill Rd,Homer,AK,99603,235000,3,2,1640,12196,2005,0,http://www.redfin.com/AK/Homer/3625-W-Hill-Rd-99603/home/133666511,59.6434586,-151.577431
Single Family Residential,50215 East End Rd,Homer,AK,99603,890000,1,2,3395,153331,2011,0,http://www.redfin.com/AK/Homer/50215-E-End-Rd-99603/home/133632237,59.7718154,-151.1802215
Single Family Residential,40395 Forest Dr,Homer,AK,99603,339000,4,3,2504,54885,1997,0,http://www.redfin.com/AK/Homer/40395-Forest-Dr-99603/home/133486149,59.687587,-151.668895
Single Family Residential,40165 Portlock Dr,Homer,AK,99603,325000,2,2,1440,54014,2011,0,http://www.redfin.com/AK/Homer/40165-Portlock-Dr-99603/home/133501896,59.6903772,-151.3938763
Single Family Residential,2750 Sterling Hwy,Homer,AK,99603,799000,3,3,4353,74052,2000,0,http://www.redfin.com/AK/Homer/2750-Sterling-Hwy-99603/home/133317537,59.653418,-151.614943
Single Family Residential,46488 SW Fox River Rem SW,Homer,AK,99603,80000,1,,576,216928,2004,0,http://www.redfin.com/AK/Homer/46488-SW-Fox-River-Rem-SW-Unknown/home/172232009,59.879736,-151.092613
Single Family Residential,4530 Kachemak Dr,Homer,AK,99603,730000,3,3,2714,102801,2007,0,http://www.redfin.com/AK/Homer/4530-Kachemak-Dr-99603/home/133584144,59.656535,-151.440408
Single Family Residential,2217 Mount Augustine,Homer,AK,99603,465000,2,1,1900,34848,1993,0,http://www.redfin.com/AK/Homer/2217-Mt-Augustine-Dr-99603/home/133306026,59.649906,-151.608661
Single Family Residential,2505 Sterling,Homer,AK,99603,479000,2,2,1100,30056,2012,0,http://www.redfin.com/AK/Homer/2505-Sterling-Hwy-99603/home/133323669,59.6493689,-151.6095516
Single Family Residential,2506 Rene Ct,Homer,AK,99603,725000,2,3,1721,435600,2004,0,http://www.redfin.com/AK/Homer/2506-Rene-Ct-99603/home/134114738,59.6488923,-151.6108935
Single Family Residential,54637 Rolling Meadow Rd,Homer,AK,99603,575000,3,3,2656,67082,2003,0,http://www.redfin.com/AK/Homer/54637-Rolling-Meadows-Rd-99603/home/133615068,59.710897,-151.3121769
Single Family Residential,66477 Vicki Ln,Homer,AK,99603,160000,1,,647,80586,1981,0,http://www.redfin.com/AK/Homer/66477-Vicki-LN-Unknown/home/172231860,59.6425,-151.5483333
Single Family Residential,64000 Mineral Dr,Homer,AK,99603,1050000,3,4,5291,132858,2017,0,http://www.redfin.com/AK/Homer/64000-Mineral-Dr-99603/home/133487480,59.665214,-151.57093
Single Family Residential,5641 Clearwater Dr,Homer,AK,99603,279000,3,2,1408,54014,2016,0,http://www.redfin.com/AK/Homer/5641-Clearwater-Dr-99603/home/133304457,59.6731121,-151.513728
Single Family Residential,28732 Caribou View Ln,Homer,AK,99603,110000,1,,1033,260488,2005,0,http://www.redfin.com/AK/Unknown/28732-CARIBOU-VIEW-LN-Unknown/home/133667213,59.854235,-151.047013
Single Family Residential,1832 Sterling Hwy,Homer,AK,99603,365000,3,2,3251,202118,1979,0,http://www.redfin.com/AK/Homer/1832-Sterling-Hwy-99603/home/133615294,59.648763,-151.590154
Single Family Residential,41420 Sterling Hwy,Homer,AK,99603,1250000,2,2,1632,499197,1984,0,http://www.redfin.com/AK/Homer/41420-Sterling-Hwy-99603/home/133599088,59.673455,-151.6717091
Single Family Residential,183 W Danview Ave,Homer,AK,99603,379000,5,3,2465,12196,1997,0,http://www.redfin.com/AK/Homer/183-W-Danview-Ave-99603/home/133493112,59.6508836,-151.544581
Single Family Residential,4590 Natalie Cir,Homer,AK,99603,789000,4,3,3624,82328,1998,0,http://www.redfin.com/AK/Homer/4590-Natalie-Cir-99603/home/133656040,59.6578288,-151.5831173
Single Family Residential,41586 Ridge Cir,Homer,AK,99603,249900,2,2,512,121968,2001,0,http://www.redfin.com/AK/Homer/41586-Ridge-Cir-99603/home/133322263,59.6707174,-151.684272
Single Family Residential,45609 E End Rd,Homer,AK,99603,425000,7,3,3544,154028,1993,0,http://www.redfin.com/AK/Homer/45609-E-End-Rd-99603/home/133326451,59.79468,-151.104994
Single Family Residential,L10 Peterson Bay,Homer,AK,99603,425000,1,1,1075,89298,2005,0,http://www.redfin.com/AK/Homer/708-Smoky-Bay-Way-99603/home/133296371,59.6458837,-151.5242914
Single Family Residential,60871 Bear Creek Dr,Homer,AK,99603,745000,3,4,3364,74052,2002,0,http://www.redfin.com/AK/Homer/60871-Bear-Creek-Dr-99603/home/133324760,59.667245,-151.464392
Single Family Residential,000 Lone Wolf Ct,Homer,AK,99603,34900,0,,660,112384,2007,0,http://www.redfin.com/AK/Homer/Lone-Wolf-CT-Unknown/home/172231094,59.84973,-151.048789
Single Family Residential,39047 Sayer Rd,Homer,AK,99603,122000,1,1,500,67518,1986,0,http://www.redfin.com/AK/Homer/39047-Sayer-RD-99603/home/172231048,59.705368,-151.689756
Single Family Residential,39059 Sayer Rd,Homer,AK,99603,115000,1,1,500,66646,1986,0,http://www.redfin.com/AK/Homer/39059-Sayer-RD-99603/home/172202505,59.705011,-151.689408
Condo/Co-op,4900 Clover Ln #1,Homer,AK,99603,239000,3,3,1658,20473,2006,120,http://www.redfin.com/AK/Homer/4900-Clover-Ln-99603/unit-1/home/133440564,59.6614712,-151.4747154
Single Family Residential,1876 Triton Ct,Homer,AK,99603,210000,2,2,1144,20473,1986,140,http://www.redfin.com/AK/Homer/1876-Triton-Ct-99603/home/133714877,59.661305,-151.490946
Single Family Residential,932 Quiet Creek Dr,Homer,AK,99603,699000,3,4,2532,435,2006,425,http://www.redfin.com/AK/Homer/932-Quiet-Creek-Dr-99603/home/133428039,59.659299,-151.521437
Single Family Residential,11763 W Parks Hwy,Houston,AK,99652,120000,2,2,788,87272,2005,0,http://www.redfin.com/AK/Houston/11763-W-Parks-HWY-99652/home/172187760,61.583366,-149.738236
Single Family Residential,2834 N Pick A Dilley St,Houston,AK,99694,207900,2,1,1088,40075,2019,0,http://www.redfin.com/AK/Houston/2834-N-Pick-A-Dilley-ST-99694/home/172160983,61.611891,-149.801323
Single Family Residential,11239 Meadowood Dr,Houston,AK,99694,255000,3,2,2041,42253,1985,0,http://www.redfin.com/AK/Houston/11239-Meadowood-DR-99694/home/172208556,61.566545,-149.733749
Single Family Residential,1994 N Duley Rd,Houston,AK,99652,132000,0,,1216,217800,1996,0,http://www.redfin.com/AK/Houston/1994-N-Duley-RD-99652/home/172283933,61.599852,-149.804037
Single Family Residential,1255 N Miller Cir,Houston,AK,99694,217000,3,2,1344,40075,2015,0,http://www.redfin.com/AK/Houston/1255-N-Miller-Cir-99623/home/134424207,61.5932368,-149.7637814
Single Family Residential,3098 Nichols Dr,Houston,AK,99694,150000,1,1,1064,55756,2006,0,http://www.redfin.com/AK/Houston/3098-Nichols-DR-99694/home/172232847,61.615044,-149.767173
Single Family Residential,12475 W Corn St,Houston,AK,99652,89000,3,3,1368,41818,2008,0,http://www.redfin.com/AK/HOUSTON/12475-W-CORN-ST-99623/home/134745605,61.594941,-149.763968
Single Family Residential,4715 N Majors Dr,Houston,AK,99694,99900,2,1,736,148104,1975,0,http://www.redfin.com/AK/Houston/4715-N-Majors-DR-99694/home/172180607,61.634769,-149.761623
Single Family Residential,4100 Nottingham Cir,Houston,AK,99623,299000,4,3,2240,31363,1976,0,http://www.redfin.com/AK/Houston/4100-Nottingham-Cir-99567/home/172211957,61.627349,-149.7600709
Single Family Residential,2104 N Ray St,Houston,AK,99623,249900,4,3,2464,19166,1974,0,http://www.redfin.com/AK/Houston/2104-N-Ray-ST-99623/home/172213366,61.603155,-149.755817
Single Family Residential,12545 Round Table Dr,Houston,AK,99694,29500,0,,128,29185,2008,0,http://www.redfin.com/AK/Houston/12545-Round-Table-Dr-99567/home/172231239,61.623999,-149.7655179
Single Family Residential,977 S Kenlar Rd,Houston,AK,99694,875000,6,8,4766,434728,2005,0,http://www.redfin.com/AK/Houston/977-S-Kenlar-RD-99694/home/172187891,61.574603,-149.750926
Single Family Residential,2836 N Backhaus St,Houston,AK,99694,205000,3,2,1574,40946,2005,0,http://www.redfin.com/AK/Wasilla/2836-Backhaus-St-99654/home/134357830,61.612005,-149.804756
Single Family Residential,3623 S Wolverine Dr,Houston,AK,99652,200000,4,3,2243,14374,1996,0,http://www.redfin.com/AK/WASILLA/3623-S-WOLVERINE-DR-99623/home/134629463,61.541375,-149.829986
Single Family Residential,206 Huot Cir,Indian,AK,99540,550000,2,2,1285,50305,1984,0,http://www.redfin.com/AK/Indian/206-Huot-Cir-99540/home/131849334,60.9918811,-149.5215321
Single Family Residential,23322 Lowell Loop,Kasilof,AK,99610,349000,3,3,4851,50529,2006,0,http://www.redfin.com/AK/Kasilof/23322-Lowell-Loop-99610/home/133289141,60.3194141,-151.2863358
Single Family Residential,28974 N Cohoe Loop Rd,Kasilof,AK,99610,149000,2,2,1084,52272,2009,0,http://www.redfin.com/AK/Kasilof/28974-N-Cohoe-Loop-Rd-99610/home/133665534,60.330214,-151.3076501
Single Family Residential,29587 Kalifornsky Beach Rd,Kasilof,AK,99610,349900,4,2,8100,87120,1987,0,http://www.redfin.com/AK/Kasilof/29587-Kalifornsky-Beach-Rd-99610/home/172206433,60.4023622,-151.2851221
Single Family Residential,52642 Chumelina Ct,Kasilof,AK,99610,125000,4,2,2155,118047,1998,0,http://www.redfin.com/AK/Kasilof/52642-Chumelina-Ct-99610/home/133653439,60.3338729,-151.2903157
Single Family Residential,52340 Sterling Hwy,Kasilof,AK,99610,165000,1,1,320,653400,2016,0,http://www.redfin.com/AK/Kasilof/52340-Sterling-HWY-99610/home/172232759,60.380425,-151.194968
Single Family Residential,51222 Sun Ct,Kasilof,AK,99610,1199000,6,4,2607,385070,2014,0,http://www.redfin.com/AK/Kasilof/51222-Sun-Ct-99610/home/133602797,60.311965,-151.245316
Single Family Residential,23285 Cohoe King Loop,Kasilof,AK,99610,140000,2,2,646,51836,1964,0,http://www.redfin.com/AK/Kasilof/23285-Cohoe-King-Loop-99610/home/133484892,60.3165435,-151.2910161
Single Family Residential,23385 Cohoe Loop Rd,Kasilof,AK,99610,224900,1,1,952,100623,1996,0,http://www.redfin.com/AK/Kasilof/23385-Cohoe-Loop-Rd-99610/home/133282442,60.308658,-151.380045
Single Family Residential,29084 Cohoe Loop Rd,Kasilof,AK,99610,172000,2,1,1107,60984,1960,0,http://www.redfin.com/AK/Kasilof/29084-N-Cohoe-Loop-Rd-99610/home/133712467,60.3211079,-151.3022225
Single Family Residential,23305 Cohoe King Loop,Kasilof,AK,99610,259900,2,2,2031,51836,1987,0,http://www.redfin.com/AK/Kasilof/23305-Cohoe-King-Loop-99610/home/133695943,60.3166025,-151.2920114
Single Family Residential,50178 Bush Gardens Ave,Kasilof,AK,99610,299000,3,2,2480,217800,1992,0,http://www.redfin.com/AK/Unknown/50178-BUSH-GARDENS-AVE-Unknown/home/133591392,60.335569,-151.217099
Single Family Residential,52672 Fox Dr,Kasilof,AK,99610,699000,4,3,4228,87991,1997,0,http://www.redfin.com/AK/Kasilof/52672-Fox-Dr-99610/home/133566601,60.3329292,-151.2896076
Single Family Residential,53132 Blue Ribbon Ave,Kasilof,AK,99610,549000,3,4,3840,200376,2006,0,http://www.redfin.com/AK/Kasilof/53132-Blue-Ribbon-Ave-99610/home/133668257,60.2813844,-151.3109693
Single Family Residential,270 Phillips Drive Dr,Kenai,AK,99611,199000,4,2,1344,23958,2008,0,http://www.redfin.com/AK/Kenai/270-Phillips-Dr-99611/home/133228335,60.5565537,-151.107216
Single Family Residential,300 Rogers Rd,Kenai,AK,99611,483900,4,3,3703,17424,1995,0,http://www.redfin.com/AK/Kenai/300-Rogers-Rd-99611/home/133498818,60.5561922,-151.2263578
Single Family Residential,1803 Brannigan Cir,Kenai,AK,99611,179900,2,1,960,10018,1986,0,http://www.redfin.com/AK/Kenai/1803-Branigan-Cir-99611/home/133210919,60.567325,-151.175977
Single Family Residential,8848 Kenai Spur Hwy,Kenai,AK,99611,116000,2,1,735,14810,1972,0,http://www.redfin.com/AK/Kenai/8848-Kenai-Spur-Hwy-99611/home/133218185,60.5698383,-151.1929453
Single Family Residential,3810 Wildrose Ave,Kenai,AK,99611,179900,2,2,1456,17424,1992,0,http://www.redfin.com/AK/Kenai/3810-Wildrose-Ave-99611/home/133226808,60.557225,-151.118427
Single Family Residential,44536 Carver Dr,Kenai,AK,99611,475000,3,3,4145,77536,2001,0,http://www.redfin.com/AK/Kenai/44536-Carver-Dr-99611/home/133682221,60.5595958,-151.07362
Single Family Residential,2500 Watergate Way,Kenai,AK,99611,269000,3,2,1674,48351,1983,0,http://www.redfin.com/AK/Kenai/2500-Watergate-Way-99611/home/133556360,60.5233679,-151.2516291
Single Family Residential,616 Ponderosa,Kenai,AK,99611,185900,3,1,988,8276,1991,0,http://www.redfin.com/AK/Kenai/616-Ponderosa-St-99611/home/133675552,60.5707565,-151.2816143
Single Family Residential,45630 Back Troll Aly,Kenai,AK,99611,139000,1,1,600,3049,2006,0,http://www.redfin.com/AK/Kenai/45630-Back-Troll-ALY-Unknown/home/172377144,60.511203,-151.107509
Single Family Residential,845 Set Net Dr,Kenai,AK,99611,339000,4,2,2506,46173,1990,0,http://www.redfin.com/AK/Kenai/845-Set-Net-Dr-99611/home/133374783,60.521903,-151.2578624
Single Family Residential,708 Cypress Dr,Kenai,AK,99611,229000,5,2,2114,7840,1976,0,http://www.redfin.com/AK/Kenai/708-Cypress-Dr-99611/home/133661704,60.5732202,-151.2725036
Single Family Residential,720 Sycamore St,Kenai,AK,99611,169000,3,1,1066,12196,1982,0,http://www.redfin.com/AK/Kenai/720-Sycamore-St-99611/home/133582386,60.574804,-151.2666391
Single Family Residential,50235 Onslow Ave,Kenai,AK,99611,175000,1,1,1219,81892,1990,0,http://www.redfin.com/AK/Kenai/50235-Onslow-Ave-99611/home/133745531,60.516396,-151.237948
Single Family Residential,36340 Wren Dr,Kenai,AK,99611,182000,1,2,1165,20037,1976,0,http://www.redfin.com/AK/Kenai/36340-Wren-Ave-99611/home/133212585,60.5071688,-151.1413069
Single Family Residential,35813 Sea Biscuit Ct,Kenai,AK,99611,193500,1,2,1264,52272,2009,0,http://www.redfin.com/AK/Kenai/35813-Sea-Biscuit-Ct-99611/home/133343077,60.4991302,-151.260237
Single Family Residential,40205 Frogberry St,Kenai,AK,99611,825000,4,4,5100,871200,2000,0,http://www.redfin.com/AK/Kenai/40205-Frogberry-St-99611/home/133710973,60.563549,-151.0592751
Single Family Residential,1136 Walnut Ave,Kenai,AK,99611,259500,4,2,2392,9147,1976,0,http://www.redfin.com/AK/Kenai/1136-Walnut-Ave-99611/home/133399789,60.5740621,-151.276061
Single Family Residential,506 Japonski Dr,Kenai,AK,99611,189000,3,2,1433,12196,2000,0,http://www.redfin.com/AK/Kenai/506-Japonski-Dr-99611/home/133210296,60.568318,-151.1995991
Single Family Residential,315 Walker Ln,Kenai,AK,99611,275000,6,2,2240,8276,1985,0,http://www.redfin.com/AK/Kenai/315-Walker-Ln-99611/home/133711122,60.5545749,-151.2334408
Single Family Residential,36650 Virginia Dr,Kenai,AK,99611,349999,4,4,2912,48787,1983,0,http://www.redfin.com/AK/Kenai/36650-Virginia-Dr-99611/home/133459862,60.5115149,-151.1334079
Single Family Residential,47488 Grant Ave,Kenai,AK,99611,479500,3,3,2812,43560,2002,0,http://www.redfin.com/AK/Kenai/47488-Grant-Ave-99611/home/133495801,60.5155953,-151.1622938
Single Family Residential,37035 Stanford St,Kenai,AK,99611,399500,3,3,1676,81892,2001,0,http://www.redfin.com/AK/Kenai/37035-Stanford-St-99611/home/133663656,60.5172476,-151.1465759
Single Family Residential,1304 Lawton Dr,Kenai,AK,99611,399000,3,3,2461,15246,1999,0,http://www.redfin.com/AK/Kenai/1304-Lawton-Dr-99611/home/133489635,60.560231,-151.1930269
Single Family Residential,1303 Kaknu Way,Kenai,AK,99611,261500,3,1,1310,14810,1975,0,http://www.redfin.com/AK/Kenai/1303-Kaknu-Way-99611/home/133464401,60.5638608,-151.1922145
Single Family Residential,1209 Channel Way,Kenai,AK,99611,319000,4,3,1844,10890,2015,0,http://www.redfin.com/AK/Kenai/1209-Channel-Way-99611/home/133218706,60.578405,-151.2757399
Single Family Residential,345 Dolchok Ln,Kenai,AK,99611,576470,5,4,4400,84506,2002,0,http://www.redfin.com/AK/Kenai/345-Dolchok-Ln-99611/home/133281631,60.556108,-151.133223
Single Family Residential,2624 Beaver Loop Rd,Kenai,AK,99611,319000,3,2,2231,37026,1970,0,http://www.redfin.com/AK/Kenai/2624-Beaver-Loop-Rd-99611/home/133535322,60.5411094,-151.1792166
Single Family Residential,117 Wooded Glen Ct,Kenai,AK,99611,289500,3,3,1843,9147,1984,0,http://www.redfin.com/AK/Kenai/117-Wooded-Glen-Ct-99611/home/133677859,60.559315,-151.206423
Single Family Residential,44640 Carver Dr,Kenai,AK,99611,295500,3,4,3720,40946,1995,0,http://www.redfin.com/AK/Kenai/44640-Carver-Dr-99611/home/133554147,60.5595566,-151.0771112
Single Family Residential,36895 Chinulna Dr,Kenai,AK,99611,995000,4,5,4767,46173,2005,0,http://www.redfin.com/AK/Kenai/36895-Chinulna-Dr-99611/home/133229346,60.5157516,-151.273581
Single Family Residential,44520 Strawberry Rd,Kenai,AK,99611,395000,3,1,2000,1742400,1979,0,http://www.redfin.com/AK/Kenai/44520-Strawberry-Rd-99611/home/133513730,60.547937,-151.0666669
Single Family Residential,702 Lawton Dr,Kenai,AK,99611,349500,6,7,6873,23086,1976,0,http://www.redfin.com/AK/Kenai/702-Lawton-Dr-99611/home/133168531,60.5597554,-151.2181649
Single Family Residential,5743 Kenai Spur Hwy,Kenai,AK,99611,330000,4,4,2674,60112,1983,0,http://www.redfin.com/AK/Kenai/5743-Kenai-Spur-Hwy-99611/home/133564338,60.559412,-151.1110971
Single Family Residential,1109 Redoubt Ave,Kenai,AK,99611,234900,3,2,1092,10454,1977,0,http://www.redfin.com/AK/Kenai/1109-Redoubt-Ave-99611/home/133541027,60.574804,-151.269313
Single Family Residential,36376 Pelican Rd,Kenai,AK,99611,299900,2,1,983,43560,2002,0,http://www.redfin.com/AK/Kenai/36376-Pelican-Rd-99611/home/133168838,60.507611,-151.1345589
Single Family Residential,36420 Cork Line Dr,Kenai,AK,99611,112000,1,1,544,40075,2005,0,http://www.redfin.com/AK/Kenai/36420-Cork-Line-Dr-99611/home/133543202,60.508978,-151.2673159
Single Family Residential,47558 Southbend Ct,Kenai,AK,99611,515000,3,3,3803,43995,2008,0,http://www.redfin.com/AK/Kenai/47558-Southbend-Ct-99611/home/133582995,60.5141826,-151.1656222
Single Family Residential,207 Linwood Ln,Kenai,AK,99611,120000,2,3,2620,44431,1968,0,http://www.redfin.com/AK/Kenai/207-Linwood-Ln-99611/home/133464447,60.563489,-151.195623
Single Family Residential,1813 Sunset Blvd,Kenai,AK,99611,575000,3,3,2061,115869,2017,0,http://www.redfin.com/AK/Kenai/1813-Sunset-Blvd-99611/home/133201659,60.5877523,-151.3332871
Single Family Residential,1305 Angler Dr,Kenai,AK,99611,695000,3,2,1858,49222,1982,0,http://www.redfin.com/AK/Kenai/1305-Angler-Dr-99611/home/133561778,60.541703,-151.1470169
Single Family Residential,2355 Watergate Way,Kenai,AK,99611,375000,3,1,1080,45738,2014,0,http://www.redfin.com/AK/Kenai/2355-Watergate-Way-99611/home/133186522,60.5259522,-151.2516036
Single Family Residential,44350 Kenai Spur Hwy,Kenai,AK,99611,199900,3,2,1455,18730,1968,0,http://www.redfin.com/AK/Kenai/44350-Kenai-Spur-Hwy-99611/home/133464032,60.6238181,-151.3332655
Single Family Residential,45935 Drift Dr,Kenai,AK,99611,315000,2,2,1344,40075,1987,13,http://www.redfin.com/AK/Kenai/45935-Drift-Dr-99611/home/133681160,60.5371566,-151.1141579
Single Family Residential,45726 Davison Ave,Kenai,AK,99611,339900,4,3,2050,9147,2007,58,http://www.redfin.com/AK/Kenai/45726-Davison-Ave-99611/home/133212235,60.5136387,-151.1138182
Single Family Residential,36872 Guy Nash St,Kenai,AK,99611,369000,3,3,1804,20037,2017,58,http://www.redfin.com/AK/Kenai/36872-Guy-Nash-St-99611/home/172206358,60.5149141,-151.1154644
Single Family Residential,36852 Guy Nash St,Kenai,AK,99611,369000,4,3,1880,20037,2018,58,http://www.redfin.com/AK/Kenai/36852-Guy-Nash-St-99611/home/172208437,60.5143614,-151.1161667
Condo/Co-op,815 Auk St Unit D2,Kenai,AK,99611,87500,2,2,1410,435,1977,350,http://www.redfin.com/AK/Kenai/815-Auk-St-99611/unit-D2/home/133713955,60.5596635,-151.2061139
Single Family Residential,1617 Mission Rd,Kodiak,AK,99615,485000,4,3,2165,7768,1996,0,http://www.redfin.com/AK/Kodiak/1617-Mission-Rd-99615/home/104736584,57.7959382,-152.3786593
Single Family Residential,815 Willow St,Kodiak,AK,99615,260000,5,2,1856,6239,1955,0,http://www.redfin.com/AK/Kodiak/815-Willow-St-99615/home/104746750,57.7952434,-152.3987737
Single Family Residential,3124 Lakeview Dr,Kodiak,AK,99615,400000,3,2,1880,59677,1986,0,http://www.redfin.com/AK/Kodiak/3124-Lake-View-Dr-99615/home/104746235,57.821684,-152.374527
Single Family Residential,000 Holiday Is,Kodiak,AK,99615,3100000,3,2,1852,3612866,1998,0,http://www.redfin.com/AK/KODIAK/HOLIDAY-IS-99615/home/104745487,57.783562,-152.382307
Single Family Residential,511 Hemlock St,Kodiak,AK,99615,225000,2,1,756,4797,1954,0,http://www.redfin.com/AK/Kodiak/511-Hemlock-St-99615/home/104736328,57.7931926,-152.4014003
Single Family Residential,512 Thorsheim St,Kodiak,AK,99615,239500,3,2,1056,6001,1954,0,http://www.redfin.com/AK/Kodiak/512-Thorsheim-St-99615/home/104745616,57.7937153,-152.4047454
Single Family Residential,3922 Woodland Dr,Kodiak,AK,99615,610000,4,3,3500,26136,1979,0,http://www.redfin.com/AK/Kodiak/3922-Woodland-Dr-99615/home/104745330,57.8173245,-152.3436216
Single Family Residential,3081 Spruce Cape Rd,Kodiak,AK,99615,325000,2,1,1200,37950,1958,0,http://www.redfin.com/AK/Kodiak/3081-Spruce-Cape-Rd-99615/home/104737405,57.8067374,-152.3503774
Single Family Residential,492 Lilly Dr,Kodiak,AK,99615,190000,4,2,1536,19099,1971,0,http://www.redfin.com/AK/Kodiak/492-Lilly-Dr-99615/home/109514255,57.8188798,-152.3599058
Single Family Residential,4005 Spruce Cape Rd,Kodiak,AK,99615,618000,3,3,3248,11565,2008,0,http://www.redfin.com/AK/Kodiak/4005-Spruce-Cape-Rd-99615/home/104745692,57.8164343,-152.3356365
Single Family Residential,3404 Balika Ln,Kodiak,AK,99615,445000,4,3,2552,8372,2003,0,http://www.redfin.com/AK/Kodiak/3404-Balika-Ln-99615/home/104745250,57.8185,-152.3604621
Single Family Residential,2156 Monashka Way,Kodiak,AK,99615,469000,3,3,2300,42253,1985,0,http://www.redfin.com/AK/Kodiak/2156-Monashka-Way-99615/home/104736111,57.823968,-152.394636
Single Family Residential,3900 Spruce Cape Rd,Kodiak,AK,99615,1100000,5,4,5182,27949,1997,0,http://www.redfin.com/AK/Kodiak/3900-Spruce-Cape-Rd-99615/home/104737317,57.813659,-152.33715
Single Family Residential,11086 Ugak Dr,Kodiak,AK,99615,399000,3,2,2214,54886,1979,0,http://www.redfin.com/AK/Kodiak/11086-Ugak-Dr-99615/home/104746147,57.712642,-152.593891
Single Family Residential,1015 Hemlock St,Kodiak,AK,99615,250000,3,2,1734,5493,1952,0,http://www.redfin.com/AK/Kodiak/1015-Hemlock-St-99615/home/104745717,57.7967784,-152.3973738
Single Family Residential,3960 Spruce Cape Rd,Kodiak,AK,99615,670000,3,2,3700,15356,2004,0,http://www.redfin.com/AK/Kodiak/3960-Spruce-Cape-Rd-99615/home/104745712,57.8150123,-152.3359703
Single Family Residential,3031 Peninsula Rd,Kodiak,AK,99615,495000,5,2,2700,23522,1979,0,http://www.redfin.com/AK/Kodiak/3031-Peninsula-Rd-99615/home/104746445,57.8194773,-152.3706699
Single Family Residential,3922 Cliffside Rd,Kodiak,AK,99615,565000,2,1,1248,28314,1974,0,http://www.redfin.com/AK/Kodiak/3922-Cliffside-Rd-99615/home/104745243,57.822501,-152.3543699
Single Family Residential,6223 Cliff Point Rd,Kodiak,AK,99615,3295000,4,6,4600,101930,2019,100,http://www.redfin.com/AK/Kodiak/6223-Cliff-Point-RD-99615/home/172212060,57.724397,-152.447149
Single Family Residential,1218 Selief Ln,Kodiak,AK,99615,160000,2,2,1200,1008,1978,225,http://www.redfin.com/AK/Kodiak/1218-Selief-Ln-99615/unit-12/home/104736974,57.8004299,-152.3934789
Single Family Residential,1820 Larch St,Kodiak,AK,99615,80000,2,1,850,21780,1978,339,http://www.redfin.com/AK/Kodiak/1820-Lurch-Unknown/home/172230471,57.803755,-152.381942
Single Family Residential,51860 Kenai Spur Hwy,Nikiski/North Kenai,AK,99611,79900,7,3,4436,30492,1967,0,http://www.redfin.com/AK/Nikiski-North-Kenai/51860-Kenai-Spur-HWY-99635/home/172200672,60.731921,-151.294118
Single Family Residential,51890 Barksdale Dr,Nikiski/North Kenai,AK,99611,375000,4,3,3742,121968,1989,0,http://www.redfin.com/AK/Kenai/51890-Barksdale-Dr-99611/home/133222593,60.732318,-151.1973179
Single Family Residential,52833 Log Drive Ct,Nikiski/North Kenai,AK,99611,269000,3,3,2118,40075,1985,0,http://www.redfin.com/AK/Kenai/52833-Log-Dr-Ct-99611/home/133267779,60.673771,-151.3134859
Single Family Residential,52896 Tenakee Loop,Nikiski/North Kenai,AK,99635,349000,3,2,2800,32670,1976,0,http://www.redfin.com/AK/Nikiski-North-Kenai/52896-Tenakee-LOOP-99635/home/172487419,60.7304052,-151.3014239
Single Family Residential,54590 Kuskokwim Ave,Nikiski/North Kenai,AK,99635,259900,4,3,2632,56628,1984,0,http://www.redfin.com/AK/Nikiski-North-Kenai/54590-Kuskokwim-AVE-99635/home/172197279,60.716265,-151.364976
Single Family Residential,50445 Takoda St,Nikiski/North Kenai,AK,99611,179000,3,1,1958,164221,1998,0,http://www.redfin.com/AK/Kenai/50445-Takoda-St-99611/unit-8/home/133363995,60.711956,-151.332593
Single Family Residential,43825 Salamato St,Nikiski/North Kenai,AK,99611,469000,5,4,4122,87991,1993,0,http://www.redfin.com/AK/Kenai/43825-Salamato-St-99611/home/133366596,60.615978,-151.339598
Single Family Residential,51090 Osprey Ln,Nikiski/North Kenai,AK,99635,339000,3,2,1800,84070,1988,0,http://www.redfin.com/AK/Nikiski-North-Kenai/51090-Osprey-LN-99635/home/172271864,60.720115,-151.240556
Single Family Residential,47716 Interlake Dr,Nikiski/North Kenai,AK,99611,368000,4,3,3030,17424,1982,0,http://www.redfin.com/AK/Kenai/47716-Interlake-Dr-99611/home/133175605,60.6718385,-151.3292515
Single Family Residential,53540 Mark Blvd,Nikiski/North Kenai,AK,99611,464000,5,4,4569,112384,1980,0,http://www.redfin.com/AK/Kenai/53540-Mark-Blvd-99611/home/133710803,60.7045503,-151.3342035
Single Family Residential,49373 Windy Rd,Nikiski/North Kenai,AK,99611,249000,2,2,1984,227383,2013,0,http://www.redfin.com/AK/Kenai/49373-Windy-Rd-99611/home/133673194,60.6953915,-151.3516993
Single Family Residential,44025 Stipend Cir,Nikiski/North Kenai,AK,99611,465000,3,3,3051,40075,1981,0,http://www.redfin.com/AK/Kenai/44025-Stipend-Cir-99611/home/133567106,60.618497,-151.340442
Single Family Residential,51019 Eagle Ave,Nikiski/North Kenai,AK,99611,410000,4,4,3162,79714,2013,0,http://www.redfin.com/AK/Kenai/51019-Eagle-Ave-99611/home/133673944,60.719688,-151.273602
Single Family Residential,47727 Holt Lamplight Rd,Nikiski/North Kenai,AK,99611,365900,3,2,1742,92782,2003,0,http://www.redfin.com/AK/Kenai/47727-Holt-Lamplight-Rd-99611/home/133287850,60.67201,-151.241951
Single Family Residential,50605 Island Lake Rd,Nikiski/North Kenai,AK,99611,235000,3,2,3658,97574,1971,0,http://www.redfin.com/AK/Kenai/50605-Island-Lake-Rd-99611/home/133646256,60.7133515,-151.3227385
Single Family Residential,47539 Sunflower St,Nikiski/North Kenai,AK,99635,329000,4,3,2240,49223,1986,0,http://www.redfin.com/AK/Nikiski-North-Kenai/47539-Sunflower-ST-99635/home/172200301,60.669011,-151.301757
Single Family Residential,72625 Kenai Spur Hwy,Nikiski/North Kenai,AK,99611,114000,0,,420,163785,2007,0,http://www.redfin.com/AK/Nikiski/72625-Kenai-Spur-Hwy-99611/home/172232543,60.7973607,-151.0168534
Single Family Residential,52078 Marlene Ave,Nikiski/North Kenai,AK,99635,132900,5,2,2240,14810,1971,0,http://www.redfin.com/AK/Nikiski-North-Kenai/52078-Marlene-AVE-99635/home/172205966,60.729296,-151.291608
Single Family Residential,44421 Lake Vista Dr,Nikiski/North Kenai,AK,99611,648900,6,5,5880,216057,1992,0,http://www.redfin.com/AK/Kenai/44421-Lake-Vista-Dr-99611/home/133280729,60.624946,-151.31761
Single Family Residential,50065 Kivi Lake Dr,Nikiski/North Kenai,AK,99611,409000,3,3,2254,193842,1972,0,http://www.redfin.com/AK/Kenai/50065-Kivi-Lake-Dr-99611/home/133671610,60.72838,-151.232976
Single Family Residential,64912 Nikolaevsk Rd,Nikolaevsk,AK,99556,225000,3,2,1904,85377,1975,0,http://www.redfin.com/AK/Nikolaevsk/64912-Nikolaevsk-Rd-99556/home/133468236,59.8135925,-151.6122011
Single Family Residential,31512 Kalugin Pl,Nikolaevsk,AK,99556,310000,3,2,1825,116305,2007,0,http://www.redfin.com/AK/Nikolaevsk/31512-Kalugin-PL-99556/home/172232730,59.8119444,-151.6105557
Single Family Residential,64625 Nahodka,Nikolaevsk,AK,99556,165000,3,1,1118,27442,1972,0,http://www.redfin.com/AK/Nikolaevsk/64625-Nahodka-Rd-99556/home/172231110,59.8215207,-151.6041325
Single Family Residential,17277 Palmer Family Ln,Ninilchik,AK,99639,220000,3,2,1536,73180,2010,0,http://www.redfin.com/AK/Ninilchik/17277-Palmer-Family-Ln-99639/home/133436950,60.021298,-151.682853
Single Family Residential,20975 Sterling Hwy,Ninilchik,AK,99639,165000,1,1,709,148104,1960,0,http://www.redfin.com/AK/Ninilchik/20975-Sterling-Hwy-99639/home/133294203,59.9684698,-151.7275582
Single Family Residential,67470 Fishhook Rd,Ninilchik,AK,99639,79900,1,1,1004,88426,2013,0,http://www.redfin.com/AK/Ninilchik/67470-Fishhook-Rd-99639/home/133521660,59.9657922,-151.6939728
Single Family Residential,67425 Berussa St,Ninilchik,AK,99639,159900,2,2,1366,198633,1997,0,http://www.redfin.com/AK/Ninilchik/67425-Berussa-St-99639/home/133704071,60.0137014,-151.6960626
Single Family Residential,17135 Lunchbox Dr,Ninilchik,AK,99639,124500,2,1,961,43560,2011,0,http://www.redfin.com/AK/Ninilchik/17135-Lunchbox-Dr-99639/home/133518909,60.023437,-151.6012684
Single Family Residential,63540 Evergreen Loop,Ninilchik,AK,99639,99000,1,1,384,86684,1998,0,http://www.redfin.com/AK/Ninilchik/63540-Evergreen-Loop-99639/home/133422665,60.0237754,-151.5838231
Single Family Residential,67395 Kiana Dr,Ninilchik,AK,99639,230000,3,2,1632,43560,2001,0,http://www.redfin.com/AK/Ninilchik/67395-Kiana-Dr-99639/home/133697388,60.0189619,-151.6913391
Single Family Residential,19861 Sterling Hwy,Ninilchik,AK,99639,345000,4,3,2353,141134,2002,0,http://www.redfin.com/AK/Ninilchik/19861-Sterling-Hwy-99639/home/133302181,59.9850042,-151.7220025
Single Family Residential,12990 Sterling Hwy,Ninilchik,AK,99639,249900,2,1,2160,1742400,1983,0,http://www.redfin.com/AK/Ninilchik/12990-Sterling-Hwy-99639/home/133653995,60.081865,-151.610629
Single Family Residential,66365 Alder St,Ninilchik,AK,99639,134900,1,1,210,41382,1998,0,http://www.redfin.com/AK/Ninilchik/66365-Alder-St-99639/home/133594287,60.046392,-151.6607321
Single Family Residential,16424 Happy O Ave,Ninilchik,AK,99639,339900,7,2,2400,64904,2009,0,http://www.redfin.com/AK/Ninilchik/16424-Happy-O-AVE-99639/home/172204773,60.030163,-151.669537
Single Family Residential,14585 Barbara Dr,Ninilchik,AK,99639,319000,1,1,840,139392,2004,0,http://www.redfin.com/AK/Ninilchik/14585-Barbara-Dr-99639/home/133551485,60.059981,-151.652562
Single Family Residential,64405 Alice Ave,Ninilchik,AK,99639,178000,2,2,1430,194713,1999,0,http://www.redfin.com/AK/Ninilchik/64405-Alice-Ave-99639/home/133362998,60.0387532,-151.6030963
Single Family Residential,66425 Bluff Dr,Ninilchik,AK,99639,367900,2,3,3320,95832,1998,0,http://www.redfin.com/AK/Ninilchik/66425-Bluff-Dr-99639/home/133291865,60.037646,-151.662365
Single Family Residential,14845 Lobo Ln,Ninilchik,AK,99639,149500,2,1,992,486129,1990,0,http://www.redfin.com/AK/Ninilchik/14845-Lobo-Ln-99639/home/172232434,60.0503078,-151.2615025
Single Family Residential,65080 Oil Well Rd,Ninilchik,AK,99639,224999,2,2,2601,204993,1994,0,http://www.redfin.com/AK/Ninilchik/65080-Oil-Well-Rd-99639/home/133605148,60.036283,-151.625585
Mobile/Manufactured Home,66312 Alder St,Ninilchik,AK,99639,160000,5,3,1949,49658,2002,0,http://www.redfin.com/AK/Ninilchik/66312-Alder-St-99639/home/133596605,60.0466289,-151.6609468
Single Family Residential,66340 Alder St,Ninilchik,AK,99639,250000,2,2,2176,41817,1993,0,http://www.redfin.com/AK/Ninilchik/66340-Alder-St-99639/home/133712819,60.047228,-151.6601121
Single Family Residential,11831 Rachel Rd,Ninilchik,AK,99639,151000,4,3,2297,94960,1998,0,http://www.redfin.com/AK/Ninilchik/11831-Rachel-Rd-99639/home/133186226,60.0993864,-151.5854775
Single Family Residential,15832 Steelhead Ridge Rd,Ninilchik,AK,99639,97500,1,1,722,55756,1994,13,http://www.redfin.com/AK/Ninilchik/15832-Steelhead-Ridge-Rd-99639/home/133309931,60.041935,-151.6286591
Single Family Residential,523 N Evolyn Dr,North Pole,AK,99705,319900,4,2,2430,48111,1980,0,http://www.redfin.com/AK/North-Pole/523-N-Evolyn-Dr-99705/home/104567026,64.746329,-147.335508
Single Family Residential,935 N Stol Dr,North Pole,AK,99705,355500,4,3,2864,30655,1982,0,http://www.redfin.com/AK/North-Pole/935-Stol-Dr-99705/home/104661685,64.8258175,-147.5399364
Single Family Residential,3097 VFW St,North Pole,AK,99705,51900,1,,416,17500,2018,0,http://www.redfin.com/AK/North-Pole/3097-Vfw-St-99705/home/160483452,64.728468,-147.31339
Single Family Residential,2181 Badge Rd,North Pole,AK,99705,224900,2,1,1450,75707,1971,0,http://www.redfin.com/AK/North-Pole/2181-Badger-Rd-99705/home/104578121,64.812529,-147.426452
Single Family Residential,1775 Bobanna Ln,North Pole,AK,99705,224900,5,4,2304,40394,1975,0,http://www.redfin.com/AK/North-Pole/1775-Bobanna-Ln-99705/home/104621046,64.8272422,-147.4678129
Single Family Residential,871 Refinery Loop,North Pole,AK,99705,199900,3,2,1200,9690,1998,0,http://www.redfin.com/AK/North-Pole/871-Refinery-Loop-99705/home/104630965,64.7453281,-147.3538305
Single Family Residential,2798 W Third Ave,North Pole,AK,99705,331000,3,2,1560,22630,2020,0,http://www.redfin.com/AK/North-Pole/2798-W-Third-Ave-99705/home/172232077,64.7525837,-147.3581048
