PROPERTY TYPE,ADDRESS,CITY,STATE OR PROVINCE,ZIP OR POSTAL CODE,PRICE,BEDS,BATHS,SQUARE FEET,LOT SIZE,YEAR BUILT,HOA/MONTH,URL (SEE http://www.redfin.com/buy-a-home/comparative-market-analysis FOR INFO ON PRICING),LATITUDE,LONGITUDE
Single Family Residential,3755 W Strawberry Roan,Flagstaff,AZ,86005,749900,3,2.5,2308,2400,2015,279,http://www.redfin.com/AZ/Flagstaff/3755-W-Strawberry-Roan-86001/home/116132775,35.1725193,-111.7051756
Single Family Residential,2109 AMIEL WHIPPLE St,Flagstaff,AZ,86005,1199000,4,4.5,3200,18295,1991,950,http://www.redfin.com/AZ/Flagstaff/2109-Amiel-Whipple-86001/home/116184376,35.1057749,-111.7138558
Townhouse,4005 S Lake Mary Rd #4,Flagstaff,AZ,86005,260000,2,2.5,1275,793,1985,246,http://www.redfin.com/AZ/Flagstaff/4005-Lake-Mary-Rd-86001/unit-4/home/116212161,35.160388,-111.661891
Single Family Residential,1913 Bessie Kidd Best --,Flagstaff,AZ,86005,2650000,4,4.5,5557,55321,2004,950,http://www.redfin.com/AZ/Flagstaff/1913-Bessie-Kidd-Best-86001/home/116201756,35.1095517,-111.6959798
Condo/Co-op,3200 S Litzler Dr Unit 7-129,Flagstaff,AZ,86005,169000,1,1,562,435,1998,157,http://www.redfin.com/AZ/Flagstaff/3200-S-Litzler-Dr-86001/unit-7-129/home/116728460,35.1720759,-111.668305
Townhouse,4450 W Arabian Trl,Flagstaff,AZ,86005,685000,3,3,2506,4356,2017,281,http://www.redfin.com/AZ/Flagstaff/4450-W-Arabian-Trl-86001/home/117333564,35.177238,-111.711063
Single Family Residential,1695 Singletree Ct,Flagstaff,AZ,86005,850000,3,3.5,2706,13767,2005,200,http://www.redfin.com/AZ/Flagstaff/1695-Singletree-Ct-86005/home/116590233,35.1645559,-111.6427961
Single Family Residential,4115 S Pack Saddle,Flagstaff,AZ,86005,1800000,5,5,4000,17424,2011,750,http://www.redfin.com/AZ/Flagstaff/4115-Pack-Saddle-86001/home/116717871,35.1771594,-111.715623
Single Family Residential,2252 W Constitution Blvd,Flagstaff,AZ,86005,965000,3,2.5,3425,221720,2003,0,http://www.redfin.com/AZ/Flagstaff/2252-Constitution-Blvd-86005/home/116122154,35.158265,-111.700326
Single Family Residential,3775 Bridle Path,Flagstaff,AZ,86005,1600000,5,3.5,4571,45302,2014,750,http://www.redfin.com/AZ/Flagstaff/3775-Bridle-Path-86005/home/116889511,35.1761902,-111.7041508
Single Family Residential,2114 E Del Rae Dr,Flagstaff,AZ,86005,1325000,3,2.5,3130,18845,2006,200,http://www.redfin.com/AZ/Flagstaff/2114-E-del-Rae-Dr-86005/home/116382949,35.1529721,-111.6357946
Single Family Residential,2054 E Barranca Dr,Flagstaff,AZ,86005,3499000,4,4.5,5500,38768,2021,200,http://www.redfin.com/AZ/Flagstaff/2054-E-Barranca-86001/home/116806812,35.157282,-111.64165
Mobile/Manufactured Home,100 E Camille Dr,Flagstaff,AZ,86005,245000,3,2,1104,5227,1988,11,http://www.redfin.com/AZ/Flagstaff/100-E-Camille-Dr-86001/home/116113870,35.167785,-111.6596213
Condo/Co-op,3200 S Litzler Dr Unit 5-218,Flagstaff,AZ,86005,208900,2,2,776,871,1998,216,http://www.redfin.com/AZ/Flagstaff/3200-S-Litzler-Dr-86001/unit-5-218/home/116808215,35.1720759,-111.668305
Single Family Residential,3251 S Tehama Cir,Flagstaff,AZ,86005,1295000,5,4,3167,17860,2004,200,http://www.redfin.com/AZ/Flagstaff/3251-S-Tehama-Cir-86005/home/116550511,35.159203,-111.644891
Single Family Residential,1435 W Romney Dr,Flagstaff,AZ,86005,285000,4,2,993,5662,1940,0,http://www.redfin.com/AZ/Flagstaff/1435-Romney-Ave-86005/home/116825931,35.164309,-111.682948
Condo/Co-op,3017 S Tourmaline Dr #12,Flagstaff,AZ,86005,894800,3,3.5,1989,2178,2020,510,http://www.redfin.com/AZ/Flagstaff/3017-S-Tourmaline-Dr-86001/unit-12/home/161573318,35.1633442,-111.6413766
Condo/Co-op,3200 S Litzler Bld 5 Unit 120,Flagstaff,AZ,86005,221750,2,2,805,871,1998,216,http://www.redfin.com/AZ/Flagstaff/3200-S-Litzler-Dr-86001/unit-5-120/home/116712544,35.1720759,-111.668305
Single Family Residential,1915 E Bare Oak Loop,Flagstaff,AZ,86005,1495000,4,4.5,4313,18730,2005,400,http://www.redfin.com/AZ/Flagstaff/1915-E-Bare-Oak-Loop-86005/home/116285410,35.152825,-111.639549
Single Family Residential,3545 S LARIAT Loop,Flagstaff,AZ,86005,999000,4,3,2965,19106,2018,533,http://www.redfin.com/AZ/Flagstaff/3545-Lariat-Loop-86005/home/116894918,35.179178,-111.708811
Condo/Co-op,3200 S Litzler Unit 7-131,Flagstaff,AZ,86005,219900,2,2,776,871,1998,216,http://www.redfin.com/AZ/Flagstaff/3200-S-Litzler-Dr-86001/unit-7-131/home/116712579,35.1720759,-111.668305
Townhouse,3228 S MARRYVALE Ln,Flagstaff,AZ,86005,410000,2,2.5,1849,4814,2012,170,http://www.redfin.com/AZ/Flagstaff/3228-Merryvale-Ln-86001/home/116294487,35.1640011,-111.6494205
Single Family Residential,2616 E Telluride Dr,Flagstaff,AZ,86005,1250000,3,3.5,2779,14810,2014,200,http://www.redfin.com/AZ/Flagstaff/2616-Telluride-Dr-86005/home/116729165,35.1657098,-111.6347947
Single Family Residential,1848 E Sleeper Hollow Ct,Flagstaff,AZ,86005,1848000,3,3.5,3050,17309,2004,200,http://www.redfin.com/AZ/Flagstaff/1848-E-Sleeper-Hollow-Ct-86001/home/116141563,35.1523971,-111.6434817
Single Family Residential,2270 Isabella,Flagstaff,AZ,86005,619000,3,3.5,2380,17593,2000,950,http://www.redfin.com/AZ/Flagstaff/2270-Isabella-86001/home/116363040,35.1052018,-111.6907717
Condo/Co-op,4804 W Braided Rein #16,Flagstaff,AZ,86005,415900,3,2,1700,2398,2020,465,http://www.redfin.com/AZ/Flagstaff/4804-W-Braided-Rein-86001/unit-16/home/172131502,35.1791362,-111.7187712
Single Family Residential,2202 Platt Cline --,Flagstaff,AZ,86005,518000,2,2,1672,6970,1990,950,http://www.redfin.com/AZ/Flagstaff/2202-Platt-Cline-86001/home/116697175,35.1052397,-111.7030329
Single Family Residential,473 E Clover Creek Dr,Flagstaff,AZ,86005,570000,4,3,2326,9638,2016,13,http://www.redfin.com/AZ/Flagstaff/473-E-Clover-Creek-Dr-86005/home/116891503,35.1575786,-111.6636271
Townhouse,4365 W Arabian Trl #22,Flagstaff,AZ,86005,559900,3,3,2749,3800,2020,279,http://www.redfin.com/AZ/Flagstaff/4365-W-Arabian-Trl-86001/unit-22/home/171997406,35.1764158,-111.7106882
Townhouse,4415 W Arabian Trl #25,Flagstaff,AZ,86005,564900,3,3,2749,3800,2020,279,http://www.redfin.com/AZ/Flagstaff/4415-W-Arabian-Trl-86001/unit-25/home/171997349,35.176762,-111.7109343
Single Family Residential,3520 W Lead Rope,Flagstaff,AZ,86005,529000,3,3.5,2601,6098,2018,189,http://www.redfin.com/AZ/Flagstaff/3520-W-Lead-Rope-86005/home/116879036,35.174419,-111.703492
Single Family Residential,3769 W Strawberry Roan,Flagstaff,AZ,86005,550000,3,2.5,2132,2400,2010,750,http://www.redfin.com/AZ/Flagstaff/3769-W-Strawberry-Roan-86001/home/116513097,35.1723676,-111.7055482
Single Family Residential,4690 Lake Mary Rd,Flagstaff,AZ,86005,1795000,5,4.5,6049,544500,1992,100,http://www.redfin.com/AZ/Flagstaff/4690-Lake-Mary-Rd-86005/home/116762412,35.139915,-111.631285
Single Family Residential,2430 Polaris Way #1,Flagstaff,AZ,86005,786649,3,2.5,2521,12171,2020,70,http://www.redfin.com/AZ/Flagstaff/2430-S-Polaris-Way-86001/unit-1/home/171848678,35.1868036,-111.6969482
Condo/Co-op,1728 E Mossy Oak Ct #8,Flagstaff,AZ,86005,699000,3,2,1858,1742,2008,503,http://www.redfin.com/AZ/Flagstaff/1728-E-Mossy-Oak-Ct-86005/unit-8/home/116312146,35.163063,-111.640915
Single Family Residential,6037 S AMETHYST Rd,Flagstaff,AZ,86005,659999,4,3.5,2856,11326,2006,20,http://www.redfin.com/AZ/Flagstaff/6037-S-Amethyst-Rd-86005/home/116286077,35.152444,-111.67501
Condo/Co-op,3017 S Tourmaline Dr #11,Flagstaff,AZ,86005,914800,3,3.5,1989,2178,2020,510,http://www.redfin.com/AZ/Flagstaff/3017-S-Tourmaline-Dr-86001/unit-11/home/161573319,35.1634161,-111.6412836
Single Family Residential,990 Old Munds Hwy,Flagstaff,AZ,86005,875000,2,2,1559,326700,1958,0,http://www.redfin.com/AZ/Flagstaff/990-Old-Munds-Hwy-86001/home/116649444,35.1238155,-111.6862097
Single Family Residential,3560 Lariat Loop,Flagstaff,AZ,86005,995000,4,3,2900,13939,2020,533,http://www.redfin.com/AZ/Flagstaff/3560-Lariat-Loop-86005/home/116060127,35.179644,-111.707433
Condo/Co-op,3200 Litzler 23-241 Unit 23-241,Flagstaff,AZ,86005,214900,2,2,805,871,1999,216,http://www.redfin.com/AZ/Flagstaff/3200-S-Litzler-Dr-86001/unit-23-241/home/116297977,35.1720759,-111.668305
Single Family Residential,4420 W Braided Rein,Flagstaff,AZ,86005,849000,3,2.5,2829,12197,2011,189,http://www.redfin.com/AZ/Flagstaff/4420-W-Braided-Rein-86005/home/116809175,35.1800144,-111.7123487
Townhouse,4345 W Arabian Trl,Flagstaff,AZ,86005,509900,2,2.5,2356,4000,2020,279,http://www.redfin.com/AZ/Flagstaff/4345-W-Arabian-Trl-86001/home/117333838,35.1762247,-111.7105522
Single Family Residential,4720 W Braided Rein,Flagstaff,AZ,86005,697948,3,3,2322,12627,2020,189,http://www.redfin.com/AZ/Flagstaff/4720-W-Braided-Rein-86005/home/116667612,35.179451,-111.716898
Single Family Residential,3845 S Box Canyon Trl,Flagstaff,AZ,86005,560000,5,3.5,3192,6970,2002,14,http://www.redfin.com/AZ/Flagstaff/3845-S-Box-Canyon-Trl-86005/home/116380553,35.159782,-111.672219
Single Family Residential,4085 S Lariat Loop,Flagstaff,AZ,86005,980000,4,3.5,3110,27878,2020,189,http://www.redfin.com/AZ/Flagstaff/4085-Lariat-Loop-86005/home/116384160,35.173319,-111.704023
Single Family Residential,3443 S Pimlico Ct,Flagstaff,AZ,86005,3500000,4,6,5292,26752,2017,200,http://www.redfin.com/AZ/Flagstaff/3443-S-Pimlico-86005/home/116717672,35.1567754,-111.6415253
Townhouse,4315 W Arabian Trl,Flagstaff,AZ,86005,529900,3,2.5,2350,4390,2020,279,http://www.redfin.com/AZ/Flagstaff/4315-W-Arabian-Trl-86001/home/117333798,35.1758452,-111.7103818
Single Family Residential,2140 Amiel Whipple,Flagstaff,AZ,86005,1175000,4,4.5,4457,19166,1993,950,http://www.redfin.com/AZ/Flagstaff/2140-Amiel-Whipple-86001/home/116412530,35.1058176,-111.7148174
Single Family Residential,2140 Amiel Whipple -- #402,Flagstaff,AZ,86005,1175000,4,4.5,4457,19166,1993,950,http://www.redfin.com/AZ/Flagstaff/2140-Amiel-Whipple-86001/unit-402/home/170556554,35.1058176,-111.7148174
Single Family Residential,1701 E Mossy Oak Ct,Flagstaff,AZ,86005,800000,2,3.5,2310,11761,2005,200,http://www.redfin.com/AZ/Flagstaff/1701-E-Mossy-Oak-Ct-86005/home/116290576,35.162083,-111.641838
Townhouse,3165 S Salvestrin Ln,Flagstaff,AZ,86005,475000,3,3.5,2179,3800,2006,170,http://www.redfin.com/AZ/Flagstaff/3165-S-Salvestrin-Ln-86001/home/116682985,35.1647893,-111.6484889
Single Family Residential,3296 S Clubhouse Cir,Flagstaff,AZ,86005,1575000,4,4.5,4671,22651,2019,200,http://www.redfin.com/AZ/Flagstaff/3296-S-Clubhouse-Cir-86005/home/116285260,35.158947,-111.645412
Single Family Residential,4320 Lariat Loop,Flagstaff,AZ,86005,665369,4,3,2772,11761,2019,182,http://www.redfin.com/AZ/Flagstaff/4320-Lariat-Loop-86005/home/116309525,35.170178,-111.701834
Condo/Co-op,1709 E Bent Tree Cir #40,Flagstaff,AZ,86005,928000,3,3.5,1989,2178,2020,510,http://www.redfin.com/AZ/Flagstaff/1709-E-Bent-Tree-Cir-86001/unit-40/home/161573334,35.16518,-111.64167
Condo/Co-op,1749 E Bent Tree Cir #17,Flagstaff,AZ,86005,815500,3,2,1967,2178,2020,510,http://www.redfin.com/AZ/Flagstaff/1749-E-Bent-Tree-Cir-86001/unit-17/home/161671876,35.164184,-111.640665
Townhouse,4425 Arabian Trl,Flagstaff,AZ,86005,539740,3,3.5,2673,0,2020,0,http://www.redfin.com/AZ/Flagstaff/4425-W-Arabian-Trl-86001/home/117333926,35.1768361,-111.7110416
Townhouse,4375 W Arabian Trl,Flagstaff,AZ,86005,536057,4,3.5,2678,0,2020,0,http://www.redfin.com/AZ/Flagstaff/4375-W-Arabian-Trl-86001/home/117333884,35.1765208,-111.7107461
Townhouse,4415 Arabian Trl,Flagstaff,AZ,86005,514900,3,2.5,2350,0,2020,0,http://www.redfin.com/AZ/Flagstaff/4415-W-Arabian-Trl-86001/home/117333914,35.176762,-111.7109343
Single Family Residential,Aspen Shadows Plan 3405,Flagstaff,AZ,86005,715000,4,3.5,3405,0,unknown,0,http://www.redfin.com/AZ/Flagstaff/Capstone-Homes-at-Flagstaff-Ranch/Aspen-Shadows-Plan-3405/home/170351554,35.1805183,-111.7119528
Single Family Residential,Aspen Shadows Plan 2915,Flagstaff,AZ,86005,709900,3,2.5,2915,0,unknown,0,http://www.redfin.com/AZ/Flagstaff/Capstone-Homes-at-Flagstaff-Ranch/Aspen-Shadows-Plan-2915/home/170351555,35.1805183,-111.7119528
Single Family Residential,Aspen Shadows Plan 2834,Flagstaff,AZ,86005,669900,4,3.5,2834,0,unknown,0,http://www.redfin.com/AZ/Flagstaff/Capstone-Homes-at-Flagstaff-Ranch/Aspen-Shadows-Plan-2834/home/170351556,35.1805183,-111.7119528
Single Family Residential,Aspen Shadows Plan 2618,Flagstaff,AZ,86005,634900,3,2.5,2618,0,unknown,0,http://www.redfin.com/AZ/Flagstaff/Capstone-Homes-at-Flagstaff-Ranch/Aspen-Shadows-Plan-2618/home/170351557,35.1805183,-111.7119528
Single Family Residential,Aspen Shadows Plan 2413,Flagstaff,AZ,86005,589900,4,3,2413,0,unknown,0,http://www.redfin.com/AZ/Flagstaff/Capstone-Homes-at-Flagstaff-Ranch/Aspen-Shadows-Plan-2413/home/170351558,35.1805183,-111.7119528
Single Family Residential,Aspen Shadows Plan 2308,Flagstaff,AZ,86005,599900,3,2.5,2308,0,unknown,0,http://www.redfin.com/AZ/Flagstaff/Capstone-Homes-at-Flagstaff-Ranch/Aspen-Shadows-Plan-2308/home/170351559,35.1805183,-111.7119528
Townhouse,Aspen Ridge Plan 6,Flagstaff,AZ,86005,559900,3,3,2749,0,unknown,0,http://www.redfin.com/AZ/Flagstaff/Aspen-Ridge-at-Flagstaff-Ranch/Aspen-Ridge-Plan-6/home/170351560,35.1805183,-111.7119528
Townhouse,Aspen Ridge Plan 5,Flagstaff,AZ,86005,509900,3,2.5,2360,0,unknown,0,http://www.redfin.com/AZ/Flagstaff/Aspen-Ridge-at-Flagstaff-Ranch/Aspen-Ridge-Plan-5/home/170351561,35.1805183,-111.7119528
Single Family Residential,Flagstaff Ranch Custom Plan 2322,Flagstaff,AZ,86005,729653,3,3,2322,0,unknown,0,http://www.redfin.com/AZ/Flagstaff/Capstone-Homes-at-Flagstaff-Ranch/Flagstaff-Ranch-Custom-Plan-2322/home/172115879,35.1805183,-111.7119528
Townhouse,Aspen Ridge Plan 4,Flagstaff,AZ,86005,509900,2,2.5,2356,0,unknown,0,http://www.redfin.com/AZ/Flagstaff/Aspen-Ridge-at-Flagstaff-Ranch/Aspen-Ridge-Plan-4/home/170351562,35.1805183,-111.7119528
Townhouse,Aspen Ridge Plan 3,Flagstaff,AZ,86005,519900,3,3,2506,0,unknown,0,http://www.redfin.com/AZ/Flagstaff/Aspen-Ridge-at-Flagstaff-Ranch/Aspen-Ridge-Plan-3/home/170351563,35.1805183,-111.7119528
Townhouse,Aspen Ridge Plan 2,Flagstaff,AZ,86005,501900,3,2.5,2389,0,unknown,0,http://www.redfin.com/AZ/Flagstaff/Aspen-Ridge-at-Flagstaff-Ranch/Aspen-Ridge-Plan-2/home/170329773,35.1805183,-111.7119528
Townhouse,Aspen Ridge Plan 1,Flagstaff,AZ,86005,494900,2,2.5,2335,0,unknown,0,http://www.redfin.com/AZ/Flagstaff/Aspen-Ridge-at-Flagstaff-Ranch/Aspen-Ridge-Plan-1/home/170351564,35.1805183,-111.7119528
Condo/Co-op,2821 N Walnut Hills Dr #19,Flagstaff,AZ,86004,285000,2,2,1075,871,1987,330,http://www.redfin.com/AZ/Flagstaff/2821-N-Walnut-Hills-Dr-86004/unit-19/home/116836134,35.201823,-111.572332
Townhouse,3850 N Fanning Dr Unit E-4,Flagstaff,AZ,86004,235000,4,1.5,1441,1263,1979,106,http://www.redfin.com/AZ/Flagstaff/3850-N-Fanning-Dr-86004/unit-E4/home/170312385,35.2204151,-111.5955987
Single Family Residential,8320 Arroyo Trl,Flagstaff,AZ,86004,638800,3,2,2000,108900,2000,0,http://www.redfin.com/AZ/Flagstaff/8320-Arroyo-Trl-86004/home/116384096,35.252026,-111.5007869
Single Family Residential,5615 Scioto Rd,Flagstaff,AZ,86004,425000,3,2,1755,12938,1979,0,http://www.redfin.com/AZ/Flagstaff/5615-Scioto-Rd-86004/home/116410488,35.198448,-111.5774
Single Family Residential,2811 N Steves Blvd,Flagstaff,AZ,86004,344900,3,1.5,1361,7490,1957,0,http://www.redfin.com/AZ/Flagstaff/2811-N-Steves-Blvd-86004/home/116754845,35.2135627,-111.6070568
Townhouse,2621 E Jeffrey Loop,Flagstaff,AZ,86004,320000,3,2.5,1643,0,1988,138,http://www.redfin.com/AZ/Flagstaff/2621-Jeffrey-Loop-86004/home/116319957,35.2145158,-111.6097351
Single Family Residential,940 N Sinagua Heights Dr,Flagstaff,AZ,86004,690000,3,3,2880,7841,1998,0,http://www.redfin.com/AZ/Flagstaff/940-N-Sinagua-Heights-Dr-86004/home/116755156,35.1916895,-111.6024222
Single Family Residential,1087 N Marina Ln,Flagstaff,AZ,86004,950000,4,2.5,3621,35719,2000,30,http://www.redfin.com/AZ/Flagstaff/1087-N-Marina-Ln-86004/home/172626287,35.1890477,-111.5905883
Single Family Residential,2504 E Miller Dr,Flagstaff,AZ,86004,349999,3,1.5,1362,7485,1957,0,http://www.redfin.com/AZ/Flagstaff/2504-E-Miller-Dr-86004/home/116817330,35.2178224,-111.6082446
Single Family Residential,5116 E HAWTHORNE Dr,Flagstaff,AZ,86004,564599,3,2.5,2503,13268,1985,45,http://www.redfin.com/AZ/Flagstaff/5116-E-Hawthorne-Dr-86004/home/116363279,35.194276,-111.5878895
Single Family Residential,4530 E Coldstream Ln,Flagstaff,AZ,86004,979000,4,3.5,3906,15246,1979,30,http://www.redfin.com/AZ/Flagstaff/4530-E-Coldstream-Ln-86004/home/116493221,35.1957302,-111.5928269
Single Family Residential,5130 Bighorn Dr,Flagstaff,AZ,86004,925000,6,5,4479,111514,2001,0,http://www.redfin.com/AZ/Flagstaff/5130-Bighorn-Dr-86004/home/116445961,35.2443547,-111.5578926
Single Family Residential,1905 N Main St,Flagstaff,AZ,86004,299000,1,1,1115,5424,1968,0,http://www.redfin.com/AZ/Flagstaff/1905-N-Main-St-86004/home/116592144,35.2066717,-111.6182125
Single Family Residential,4774 E Linger Ln,Flagstaff,AZ,86004,550000,4,3,2670,12197,1992,46,http://www.redfin.com/AZ/Flagstaff/4774-E-Linger-Ln-86004/home/116633998,35.2041852,-111.5876566
Single Family Residential,4805 E Hightimber Ln,Flagstaff,AZ,86004,745000,5,3.25,3663,11761,1989,33,http://www.redfin.com/AZ/Flagstaff/4805-E-Hightimber-Ln-86004/home/116531324,35.1998262,-111.5879827
Single Family Residential,6650 Lynx Ln,Flagstaff,AZ,86004,800000,4,3,2926,216058,1984,0,http://www.redfin.com/AZ/Flagstaff/6650-Lynx-Ln-86004/home/116365193,35.246292,-111.5307804
Condo/Co-op,4343 E Soliere Ave #2007,Flagstaff,AZ,86004,269900,3,2,1397,2908,1999,242,http://www.redfin.com/AZ/Flagstaff/4343-Soliere-Ave-86004/unit-2007/home/116724703,35.2131744,-111.5883598
Condo/Co-op,4343 Soliere Ave #2047,Flagstaff,AZ,86004,224500,2,2,1046,2903,2001,231,http://www.redfin.com/AZ/Flagstaff/4343-Soliere-Ave-86004/unit-2047/home/116728961,35.2116486,-111.5884288
Single Family Residential,4525 N Doral Way,Flagstaff,AZ,86004,659000,4,2.5,2520,21649,1983,46,http://www.redfin.com/AZ/Flagstaff/4525-N-Doral-Way-86004/home/116633912,35.1982769,-111.5927803
Single Family Residential,4850 E Mount Pleasant Dr,Flagstaff,AZ,86004,1195000,4,3,4518,57064,1988,46,http://www.redfin.com/AZ/Flagstaff/4850-E-Mt-Pleasant-Dr-86004/home/116762170,35.1861007,-111.5951792
Single Family Residential,7535 N Rain Valley Rd,Flagstaff,AZ,86004,669000,3,2.5,1937,215186,1986,0,http://www.redfin.com/AZ/Flagstaff/7535-N-Rain-Valley-Rd-86004/home/116669735,35.248072,-111.54114
Single Family Residential,4241 E Broken Rock Loop Loop,Flagstaff,AZ,86004,995000,7,6.5,5860,18764,2001,30,http://www.redfin.com/AZ/Flagstaff/4241-E-Broken-Rock-Loop-86004/home/116153781,35.2087052,-111.5906377
Single Family Residential,931 N Hulet Ln,Flagstaff,AZ,86004,700000,5,3.5,4759,10567,1995,17,http://www.redfin.com/AZ/Flagstaff/931-N-Hulet-Ln-86004/home/116349942,35.1846869,-111.58039
Single Family Residential,3721 Kingswood Way,Flagstaff,AZ,86004,699900,4,2.5,3570,17424,1996,0,http://www.redfin.com/AZ/Flagstaff/3721-Kingswood-Way-86004/home/116383579,35.2237356,-111.6108763
Condo/Co-op,1401 N Fourth St #212,Flagstaff,AZ,86004,249900,2,1.25,996,871,1996,214,http://www.redfin.com/AZ/Flagstaff/1401-N-Fourth-St-86004/unit-212/home/116393489,35.1993708,-111.6088125
Condo/Co-op,3001 E Butler Ave #44,Flagstaff,AZ,86004,298000,2,2.5,1098,0,2020,175,http://www.redfin.com/AZ/Flagstaff/3001-E-Butler-Ave-86004/unit-44/home/172030081,35.1936032,-111.6138127
Single Family Residential,7600 N Pine Canyon Dr,Flagstaff,AZ,86004,1500000,4,2.5,3254,202118,1993,0,http://www.redfin.com/AZ/Flagstaff/7600-N-Pine-Canyon-Dr-86004/home/116554333,35.2485459,-111.5344738
Single Family Residential,401 N Sky View St,Flagstaff,AZ,86004,2800000,5,5.5,6260,147668,2008,46,http://www.redfin.com/AZ/Flagstaff/N-Sky-View-St-86004/home/116321296,35.182909,-111.589936
Single Family Residential,5705 Townsend-Winona Rd,Flagstaff,AZ,86004,850000,5,3.75,4320,276170,1992,0,http://www.redfin.com/AZ/Flagstaff/5705-Townsend-Winona-Rd-86004/home/116208909,35.246469,-111.547312
Single Family Residential,7299 Bullion Hill Rd,Flagstaff,AZ,86004,799900,5,4.5,3820,73180,1984,0,http://www.redfin.com/AZ/Flagstaff/7299-Bullion-Hill-Rd-86004/home/116570750,35.2460343,-111.5007636
Townhouse,3889 N Fanning Dr,Flagstaff,AZ,86004,429000,5,2.5,2261,3780,1973,50,http://www.redfin.com/AZ/Flagstaff/3889-N-Fanning-Dr-86004/home/116784166,35.22077,-111.5960642
Single Family Residential,5790 N Smoke Rise Dr,Flagstaff,AZ,86004,375000,4,2,1772,7073,1965,0,http://www.redfin.com/AZ/Flagstaff/5790-N-Smokerise-Dr-86004/home/116626036,35.2336063,-111.5736363
Condo/Co-op,3001 E Butler Ave #47,Flagstaff,AZ,86004,310000,3,1.5,1128,0,2020,175,http://www.redfin.com/AZ/Flagstaff/3001-E-Butler-Ave-86004/unit-47/home/170602467,35.1936032,-111.6138127
Condo/Co-op,3001 E Butler Ave,Flagstaff,AZ,86004,310000,3,1.5,1128,0,2020,175,http://www.redfin.com/AZ/Flagstaff/3001-E-Butler-Ave-86004/home/116104779,35.1936032,-111.6138127
Single Family Residential,6701 N N Rain Valley Rd Rd,Flagstaff,AZ,86004,1500000,4,2.5,3045,871636,1982,0,http://www.redfin.com/AZ/Flagstaff/6701-N-Rain-Valley-Rd-86004/home/116762084,35.229674,-111.539788
Single Family Residential,4972 E Retreat Cir Lot 4,Flagstaff,AZ,86004,360900,2,2.5,1248,3624,2020,25,http://www.redfin.com/AZ/Flagstaff/4972-Fourth-St-86004/unit-4/home/170310662,35.238561,-111.568682
Single Family Residential,4960 E Retreat Cir Lot 2,Flagstaff,AZ,86004,370900,3,2.5,1325,3615,2020,25,http://www.redfin.com/AZ/Flagstaff/4960-E-Retreat-CIR-86004/unit-2/home/170310661,35.238528,-111.568651
Single Family Residential,6900 N Rain Valley Rd Rd,Flagstaff,AZ,86004,725000,2,1,1930,1262804,1948,0,http://www.redfin.com/AZ/Flagstaff/6900-N-Rain-Valley-Rd-86004/home/116778941,35.236362,-111.540296
Single Family Residential,4966 E Retreat Cir Lot 3,Flagstaff,AZ,86004,392900,4,3.5,1678,3619,2020,25,http://www.redfin.com/AZ/Flagstaff/4966-E-Retreat-CIR-86004/unit-3/home/170306855,35.238433,-111.568059
Single Family Residential,4954 E Retreat Cir Lot 1,Flagstaff,AZ,86004,301400,2,1,1002,3592,2020,25,http://www.redfin.com/AZ/Flagstaff/4954-E-Retreat-CIR-86004/unit-1/home/170306791,35.238509,-111.568818
Single Family Residential,351 N Skyview St,Flagstaff,AZ,86004,1499980,3,3.75,4697,136778,1998,46,http://www.redfin.com/AZ/Flagstaff/N-Sky-View-St-86004/home/116175855,35.182465,-111.590506
Single Family Residential,3356 N King St,Flagstaff,AZ,86004,385000,4,2,1550,7405,1962,0,http://www.redfin.com/AZ/Flagstaff/3356-N-King-St-86004/home/116520587,35.2200601,-111.6109462
Single Family Residential,3468 S Del Mar Ct,Flagstaff,AZ,86003,1610000,5,4,4068,22216,2020,200,http://www.redfin.com/AZ/Flagstaff/3468-S-del-Mar-Ct-86005/home/116724239,35.152805,-111.636735
Single Family Residential,29 S Pinegrove Rd,Flagstaff,AZ,86001,309000,3,1,950,7000,1955,0,http://www.redfin.com/AZ/Flagstaff/29-S-Pinegrove-Rd-86001/home/116404034,35.1828769,-111.6476505
Single Family Residential,2750 W Darleen Dr,Flagstaff,AZ,86001,439000,3,2,2100,8000,1973,0,http://www.redfin.com/AZ/Flagstaff/2750-W-Darleen-Dr-86001/home/116631888,35.2312907,-111.6680754
Condo/Co-op,2495 W Washburn Ct,Flagstaff,AZ,86001,325000,3,2.5,1629,1069,2015,81,http://www.redfin.com/AZ/Flagstaff/2495-W-Washburn-Ct-86001/home/116385512,35.1893389,-111.683497
Condo/Co-op,3200 S Litzler Dr,Flagstaff,AZ,86001,215000,2,2,805,900,2000,216,http://www.redfin.com/AZ/Flagstaff/3200-S-Litzler-Dr-86001/unit-21-134/home/116720355,35.1720759,-111.668305
Townhouse,2547 S Sliding Rock Ln,Flagstaff,AZ,86001,347500,3,2.5,1345,2613,2002,100,http://www.redfin.com/AZ/Flagstaff/2547-S-Sliding-Rock-Ln-86001/home/116743710,35.17926,-111.678857
Townhouse,2558 S Sonoran Ln,Flagstaff,AZ,86001,349000,3,2.5,1355,2613,2002,100,http://www.redfin.com/AZ/Flagstaff/2558-S-Sonoran-Ln-86001/home/116472815,35.1793959,-111.679144
Single Family Residential,3340 N Estates St St,Flagstaff,AZ,86001,540000,4,2.5,2233,8276,1994,0,http://www.redfin.com/AZ/Flagstaff/3340-N-Estates-St-86001/home/116163951,35.2374555,-111.6662821
Single Family Residential,2931 S Pardo Calle,Flagstaff,AZ,86001,499950,4,3,2181,3920,2020,73,http://www.redfin.com/AZ/Flagstaff/2931-S-Pardo-Calle-86001/home/116928796,35.183755,-111.689039
Single Family Residential,119 S Agassiz St,Flagstaff,AZ,86001,429000,2,1,831,5604,1920,0,http://www.redfin.com/AZ/Flagstaff/119-S-Agassiz-St-86001/home/116391158,35.1945119,-111.6485238
Single Family Residential,2217 W Mission Timber Cir,Flagstaff,AZ,86001,425000,3,3,1975,2614,2016,24,http://www.redfin.com/AZ/Flagstaff/2217-W-Mission-Timber-Cir-86001/home/116930238,35.183669,-111.687446
Condo/Co-op,19 W Dale Ave #301,Flagstaff,AZ,86001,369000,1,1,764,436,2018,325,http://www.redfin.com/AZ/Flagstaff/19-W-Dale-Ave-86001/unit-301/home/170307026,35.2013061,-111.6483137
Single Family Residential,2290 Tom Mcmillan Cir,Flagstaff,AZ,86001,469850,3,2,2008,9583,1989,950,http://www.redfin.com/AZ/Flagstaff/2290-Tom-McMillan-Cir-86001/home/116092743,35.1062512,-111.7048495
Condo/Co-op,1200 S Riordan Ranch Bld 14-108,Flagstaff,AZ,86001,235000,2,2,827,0,1983,248,http://www.redfin.com/AZ/Flagstaff/1200-S-Riordan-Ranch-St-86001/unit-108/home/116619014,35.1886371,-111.6592257
Single Family Residential,3569 W Altair Way,Flagstaff,AZ,86001,479900,3,2.5,2303,6670,2020,60,http://www.redfin.com/AZ/Flagstaff/3569-W-Altair-Way-86001/home/172247619,35.188963,-111.6975793
Single Family Residential,3553 W Altair Way,Flagstaff,AZ,86001,429900,3,2,1569,6670,2020,60,http://www.redfin.com/AZ/Flagstaff/3553-W-Altair-Way-86001/home/172247199,35.1888688,-111.6972079
Single Family Residential,3548 W Altair Way,Flagstaff,AZ,86001,435000,3,2,1715,6677,2020,60,http://www.redfin.com/AZ/Flagstaff/3548-W-Altair-Way-86001/home/172246127,35.189271,-111.6968555
Single Family Residential,3544 W Electra Dr,Flagstaff,AZ,86001,479900,3,2,2245,6670,2020,60,http://www.redfin.com/AZ/Flagstaff/3544-W-Electra-Dr-86001/home/172243867,35.1885683,-111.697318
Single Family Residential,3041 N Boldt Dr,Flagstaff,AZ,86001,724900,3,2,1957,76666,2006,20,http://www.redfin.com/AZ/Flagstaff/3041-N-Boldt-Dr-86001/home/116216753,35.2385342,-111.6783228
Single Family Residential,3508 W Altair Way,Flagstaff,AZ,86001,444900,4,2.5,2196,8485,2020,60,http://www.redfin.com/AZ/Flagstaff/3508-W-Altair-Way-86001/home/172133396,35.1890358,-111.6958459
Condo/Co-op,1734 E Mossy Oak Ct #2,Flagstaff,AZ,86001,799000,3,2,1842,1742,2008,510,http://www.redfin.com/AZ/Flagstaff/1734-E-Mossy-Oak-Ct-86005/unit-2/home/116386346,35.163543,-111.64027
Single Family Residential,3529 W Altair Way,Flagstaff,AZ,86001,388000,3,2,1471,6670,2020,60,http://www.redfin.com/AZ/Flagstaff/3529-W-Altair-Way-86001/home/172053107,35.1886938,-111.6965177
Condo/Co-op,3200 S Litzler Unit 25-149,Flagstaff,AZ,86001,212400,2,2,912,871,1999,216,http://www.redfin.com/AZ/Flagstaff/3200-S-Litzler-Dr-86001/unit-25-149/home/116315181,35.1720759,-111.668305
Townhouse,574 N Otto Dr,Flagstaff,AZ,86001,629995,4,3.5,3066,1546,2015,52,http://www.redfin.com/AZ/Flagstaff/574-N-Otto-Dr-86001/home/117329494,35.1997059,-111.6379326
Single Family Residential,3561 W Altair Way Lot 38,Flagstaff,AZ,86001,482500,4,2.5,2196,6670,2020,60,http://www.redfin.com/AZ/Flagstaff/3561-W-Altair-Way-86001/unit-38/home/172000887,35.1889156,-111.6973926
Single Family Residential,3521 W Altair Way Lot 43,Flagstaff,AZ,86001,441400,3,2,1569,6670,2020,60,http://www.redfin.com/AZ/Flagstaff/3521-W-Altair-Way-86001/unit-43/home/172000835,35.1886466,-111.6963316
Single Family Residential,2988 N Kristin Dr,Flagstaff,AZ,86001,1600000,6,4.5,5200,46174,2007,20,http://www.redfin.com/AZ/Flagstaff/2988-N-Kristin-Dr-86001/home/116567576,35.2380431,-111.6797435
Condo/Co-op,3200 Litzler Dr Unit 11-245,Flagstaff,AZ,86001,210000,2,2,776,871,1989,216,http://www.redfin.com/AZ/Flagstaff/3200-S-Litzler-Dr-86001/unit-11-245/home/116074882,35.1720759,-111.668305
Single Family Residential,2033 N Cobblestone Cir,Flagstaff,AZ,86001,1195000,4,3.5,3150,25265,2020,17,http://www.redfin.com/AZ/Flagstaff/2033-N-Cobblestone-Cir-86001/home/116525632,35.225401,-111.663697
Townhouse,2493 W Clement Cir Unit 34e,Flagstaff,AZ,86001,434864,4,3,2243,3000,2019,23,http://www.redfin.com/AZ/Flagstaff/2493-W-Clement-Cir-86001/unit-34e/home/171597241,35.1818079,-111.687894
Townhouse,2489 W Clement Cir Unit 33e,Flagstaff,AZ,86001,448008,4,3,2243,3000,2019,23,http://www.redfin.com/AZ/Flagstaff/2489-W-Clement-Cir-86001/unit-33e/home/171597240,35.181712,-111.687894
Single Family Residential,385 N Bertrand St,Flagstaff,AZ,86001,625000,4,3,2843,9675,1966,0,http://www.redfin.com/AZ/Flagstaff/385-N-Bertrand-St-86001/home/116157638,35.1985039,-111.6395923
Townhouse,658 N FOREST VIEW Dr Unit SW6,Flagstaff,AZ,86001,578563,3,2.5,2421,3358,2020,52,http://www.redfin.com/AZ/Flagstaff/658-N-Forest-View-Dr-86001/unit-SW6/home/171250844,35.2004994,-111.6382652
Condo/Co-op,19 W Dale Ave Ave #102,Flagstaff,AZ,86001,434995,2,2,920,0,2018,325,http://www.redfin.com/AZ/Flagstaff/19-W-Dale-Ave-86001/unit-102/home/170309851,35.2013061,-111.6483137
Single Family Residential,Mile 6 Forest Rd 151,Flagstaff,AZ,86001,3750000,4,5,10000,1829520,2011,0,http://www.redfin.com/AZ/Flagstaff/151-W-Forest-Ave-86001/home/170309705,35.2107629,-111.6441393
Townhouse,2529 W Cripple Creek Dr,Flagstaff,AZ,86001,395900,4,3.5,1920,1200,2020,81,http://www.redfin.com/AZ/Flagstaff/2529-W-Cripple-Creek-Dr-86001/home/116486156,35.1882919,-111.684218
Townhouse,2537 W Cripple Creek Dr,Flagstaff,AZ,86001,395900,4,3.5,1920,1200,2020,81,http://www.redfin.com/AZ/Flagstaff/2537-W-Cripple-Creek-Dr-86001/home/116385418,35.1882919,-111.684306
Townhouse,2545 W Cripple Creek Dr,Flagstaff,AZ,86001,395900,4,3.5,1920,1200,2020,81,http://www.redfin.com/AZ/Flagstaff/2545-W-Cripple-Creek-Dr-86001/home/116575302,35.1882919,-111.684393
Townhouse,2521 W Cripple Creek Dr,Flagstaff,AZ,86001,399900,4,3.5,1920,1200,2020,81,http://www.redfin.com/AZ/Flagstaff/2521-W-Cripple-Creek-Dr-86001/home/116132389,35.1882919,-111.684131
Townhouse,2561 W Cripple Creek Dr,Flagstaff,AZ,86001,399900,4,3.5,1920,1200,2020,81,http://www.redfin.com/AZ/Flagstaff/2561-W-Cripple-Creek-Dr-86001/home/116296725,35.188293,-111.684568
Townhouse,658 N Forest View Dr #6,Flagstaff,AZ,86001,578563,3,2.5,2421,3358,2020,52,http://www.redfin.com/AZ/Flagstaff/658-N-Forest-View-Dr-86001/unit-6/home/170593263,35.2004994,-111.6382652
Single Family Residential,1080 N Turquoise Dr,Flagstaff,AZ,86001,599000,4,2.5,2941,11816,1973,0,http://www.redfin.com/AZ/Flagstaff/1080-N-Turquoise-Dr-86001/home/116575846,35.2055427,-111.6381716
Single Family Residential,1320 N Aztec St,Flagstaff,AZ,86001,800000,6,4,4514,12560,1974,0,http://www.redfin.com/AZ/Flagstaff/1320-N-Aztec-St-86001/home/116819673,35.2127109,-111.653566
Single Family Residential,3692 Griffiths,Flagstaff,AZ,86001,998000,4,3.5,3237,31799,1996,950,http://www.redfin.com/AZ/Flagstaff/3692-Griffiths-86001/home/170950734,35.106876,-111.713193
Single Family Residential,789 W Lone Star Trl,Flagstaff,AZ,86001,550000,4,3.5,3020,7848,2004,14,http://www.redfin.com/AZ/Flagstaff/789-W-Lone-Star-Trl-86001/home/116751845,35.1596907,-111.6731292
Townhouse,2406 W PIKES PEAK Dr,Flagstaff,AZ,86001,334900,4,2.75,1624,1151,2019,80,http://www.redfin.com/AZ/Flagstaff/2406-W-Pikes-Peak-Dr-86001/home/116893208,35.1891231,-111.6830073
Townhouse,580 N Forest View Dr #1,Flagstaff,AZ,86001,558493,3,2.5,2421,3080,2020,41,http://www.redfin.com/AZ/Flagstaff/580-N-Forest-View-Dr-86001/unit-1/home/170310664,35.2001185,-111.6377955
Townhouse,2414 W PIKES PEAK Dr,Flagstaff,AZ,86001,334900,4,2.75,1624,1151,2019,80,http://www.redfin.com/AZ/Flagstaff/2414-W-Pikes-Peak-Dr-86001/home/116895877,35.1890634,-111.6830371
Single Family Residential,3945 Saddle Blanket,Flagstaff,AZ,86001,1850000,5,3,3983,58370,2014,702,http://www.redfin.com/AZ/Flagstaff/3945-Saddle-Blanket-86005/home/116879077,35.1740208,-111.7090649
Single Family Residential,,Flagstaff,AZ,86001,2775000,4,3,6500,420354,1987,0,http://www.redfin.com/AZ/Flagstaff/Undisclosed-address-86001/home/116608296,35.244062,-111.69596
Townhouse,2422 W Pikes Peak Dr,Flagstaff,AZ,86001,334900,4,2.75,1624,1200,2019,81,http://www.redfin.com/AZ/Flagstaff/2422-W-Pikes-Peak-Dr-86001/home/116061063,35.189004,-111.6830659
Mobile/Manufactured Home,727 E Zuni Dr,Flagstaff,AZ,86001,410000,3,2,1696,0,1978,0,http://www.redfin.com/AZ/Flagstaff/727-E-Zuni-Dr-86001/home/116824503,35.1650583,-111.6544976
Single Family Residential,Crestview Plan 1701,Flagstaff,AZ,86001,408900,3,2,1701,0,unknown,0,http://www.redfin.com/AZ/Flagstaff/Crestview/Crestview-Plan-1701/home/170303924,35.192398,-111.685636
Single Family Residential,Timber Sky Plan 3222,Flagstaff,AZ,86001,544900,3,3,3222,0,unknown,0,http://www.redfin.com/AZ/Flagstaff/Orion-at-Timber-Sky/Timber-Sky-Plan-3222/home/172563293,35.1965685,-111.635243
Single Family Residential,Timber Sky Plan 2882,Flagstaff,AZ,86001,529900,4,3.5,2882,0,unknown,0,http://www.redfin.com/AZ/Flagstaff/Orion-at-Timber-Sky/Timber-Sky-Plan-2882/home/172544132,35.1965685,-111.635243
Single Family Residential,Timber Sky Plan 2467,Flagstaff,AZ,86001,494900,3,3.5,2467,0,unknown,0,http://www.redfin.com/AZ/Flagstaff/Orion-at-Timber-Sky/Timber-Sky-Plan-2467/home/172533322,35.1965685,-111.635243
Single Family Residential,Crestview Plan 1669,Flagstaff,AZ,86001,379900,2,2.5,1669,0,unknown,0,http://www.redfin.com/AZ/Flagstaff/Crestview/Crestview-Plan-1669/home/170351568,35.192398,-111.685636
Single Family Residential,Crestview Plan 1553,Flagstaff,AZ,86001,369900,3,2.5,1553,0,unknown,0,http://www.redfin.com/AZ/Flagstaff/Crestview/Crestview-Plan-1553/home/170351569,35.192398,-111.685636
Single Family Residential,Timber Sky Plan 2303,Flagstaff,AZ,86001,454900,3,2.5,2303,0,unknown,0,http://www.redfin.com/AZ/Flagstaff/Orion-at-Timber-Sky/Timber-Sky-Plan-2303/home/172611594,35.1965685,-111.635243
Single Family Residential,Crestview Plan 1958,Flagstaff,AZ,86001,411900,4,3,1958,0,unknown,0,http://www.redfin.com/AZ/Flagstaff/Crestview/Crestview-Plan-1958/home/170351571,35.192398,-111.685636
Single Family Residential,Crestview Plan 1720,Flagstaff,AZ,86001,399900,3,2,1720,0,unknown,0,http://www.redfin.com/AZ/Flagstaff/Crestview/Crestview-Plan-1720/home/170351572,35.192398,-111.685636
Single Family Residential,Timber Sky Plan 2299,Flagstaff,AZ,86001,469900,3,2.5,2299,0,unknown,0,http://www.redfin.com/AZ/Flagstaff/Orion-at-Timber-Sky/Timber-Sky-Plan-2299/home/172611595,35.1965685,-111.635243
Single Family Residential,Crestview Plan 1569,Flagstaff,AZ,86001,373900,3,2,1569,0,unknown,0,http://www.redfin.com/AZ/Flagstaff/Crestview/Crestview-Plan-1569/home/170351573,35.192398,-111.685636
Single Family Residential,Timber Sky Plan 2245,Flagstaff,AZ,86001,464900,3,2,2245,0,unknown,0,http://www.redfin.com/AZ/Flagstaff/Orion-at-Timber-Sky/Timber-Sky-Plan-2245/home/172611596,35.1965685,-111.635243
Single Family Residential,Timber Sky Plan 2196,Flagstaff,AZ,86001,444900,4,2.5,2196,0,unknown,0,http://www.redfin.com/AZ/Flagstaff/Orion-at-Timber-Sky/Timber-Sky-Plan-2196/home/172611597,35.1965685,-111.635243
Single Family Residential,Timber Sky Plan 1715,Flagstaff,AZ,86001,419900,3,2,1715,0,unknown,0,http://www.redfin.com/AZ/Flagstaff/Orion-at-Timber-Sky/Timber-Sky-Plan-1715/home/172611598,35.1965685,-111.635243
Single Family Residential,Timber Sky Plan 1569,Flagstaff,AZ,86001,404900,3,2,1569,0,unknown,0,http://www.redfin.com/AZ/Flagstaff/Orion-at-Timber-Sky/Timber-Sky-Plan-1569/home/172611599,35.1965685,-111.635243
Single Family Residential,Crestview Plan 1566,Flagstaff,AZ,86001,372900,3,2,1566,0,unknown,0,http://www.redfin.com/AZ/Flagstaff/Crestview/Crestview-Plan-1566/home/170351574,35.192398,-111.685636
Single Family Residential,Crestview Plan 2400,Flagstaff,AZ,86001,435900,4,2.5,2400,0,unknown,0,http://www.redfin.com/AZ/Flagstaff/Crestview/Crestview-Plan-2400/home/170351570,35.192398,-111.685636
Single Family Residential,Timber Sky Plan 1471,Flagstaff,AZ,86001,389900,3,2,1471,0,unknown,0,http://www.redfin.com/AZ/Flagstaff/Orion-at-Timber-Sky/Timber-Sky-Plan-1471/home/172082206,35.1965685,-111.635243
Single Family Residential,Crestview Plan 1424,Flagstaff,AZ,86001,369900,3,2,1424,0,unknown,0,http://www.redfin.com/AZ/Flagstaff/Crestview/Crestview-Plan-1424/home/170351575,35.192398,-111.685636
Single Family Residential,Crestview Plan 2090,Flagstaff,AZ,86001,419900,3,2.5,2090,0,unknown,0,http://www.redfin.com/AZ/Flagstaff/Crestview/Crestview-Plan-2090/home/170351565,35.192398,-111.685636
Single Family Residential,Crestview Affordable Plan 1158,Flagstaff,AZ,86001,319900,2,1.5,1158,0,unknown,0,http://www.redfin.com/AZ/Flagstaff/Crestview/Crestview-Affordable-Plan-1158/home/170351566,35.192398,-111.685636
Single Family Residential,Crestview Affordable Plan 1127,Flagstaff,AZ,86001,319900,2,1,1127,0,unknown,0,http://www.redfin.com/AZ/Flagstaff/Crestview/Crestview-Affordable-Plan-1127/home/170351567,35.192398,-111.685636
Single Family Residential,2149 N 213TH Dr,Buckeye,AZ,85396,264900,3,2,1400,5501,2018,91,http://www.redfin.com/AZ/Buckeye/2149-N-213th-Dr-85396/home/146065871,33.4709988,-112.5176461
Single Family Residential,25944 W TONTO Ln,Buckeye,AZ,85396,279900,3,2,1792,6668,2017,98,http://www.redfin.com/AZ/Buckeye/25944-W-Tonto-Ln-85396/home/39965928,33.663804,-112.6094591
Single Family Residential,3265 N 196TH Ave,Buckeye,AZ,85396,422990,4,3,2871,8925,2020,90,http://www.redfin.com/AZ/Buckeye/3265-N-196th-Ave-85396/home/167784532,33.484451,-112.48068
Single Family Residential,20744 W MINNEZONA Ave,Buckeye,AZ,85396,375000,2,2,1596,5238,2017,226,http://www.redfin.com/AZ/Buckeye/20744-W-Minnezona-Ave-85396/home/95463857,33.5020713,-112.5055
Single Family Residential,20760 W MINNEZONA Ave,Buckeye,AZ,85396,377000,3,2,1775,5217,2017,226,http://www.redfin.com/AZ/Buckeye/20760-W-Minnezona-Ave-85396/home/95464153,33.502176,-112.5057819
Single Family Residential,21120 W SAGE HILL Rd,Buckeye,AZ,85396,618000,5,3.5,3773,12334,2006,116,http://www.redfin.com/AZ/Buckeye/21120-W-Sage-Hill-Rd-85396/home/27359590,33.5021247,-112.5141259
Single Family Residential,2694 N SPRINGFIELD St,Buckeye,AZ,85396,384900,4,3,2233,6400,2017,114,http://www.redfin.com/AZ/Buckeye/2694-N-Springfield-St-85396/home/95466519,33.4772081,-112.5013384
Single Family Residential,3623 N 292ND Dr,Buckeye,AZ,85396,289000,5,2.5,3174,5161,2006,84,http://www.redfin.com/AZ/Buckeye/3623-N-292nd-Dr-85396/home/28395385,33.4879273,-112.6811109
Single Family Residential,2991 N 301ST Dr,Buckeye,AZ,85396,245000,4,2,1712,5811,2017,84,http://www.redfin.com/AZ/Buckeye/2991-N-301st-Dr-85396/home/28378364,33.4802709,-112.7006939
Single Family Residential,30121 W Mulberry Dr,Buckeye,AZ,85396,297500,5,3.5,3548,8980,2006,87,http://www.redfin.com/AZ/Buckeye/30121-W-Mulberry-Dr-85396/home/28252564,33.484738,-112.700159
Single Family Residential,25984 W ORAIBI Dr,Buckeye,AZ,85396,282500,3,2,1766,6668,2018,98,http://www.redfin.com/AZ/Buckeye/25984-W-Oraibi-Dr-85396/home/146067722,33.6622469,-112.6102563
Single Family Residential,25965 W ORAIBI Dr,Buckeye,AZ,85396,329900,3,2.5,2502,7016,2018,98,http://www.redfin.com/AZ/Buckeye/25965-W-Oraibi-Dr-85396/home/146067746,33.6618018,-112.6098454
Single Family Residential,20472 W HAMILTON St,Buckeye,AZ,85396,499900,5,4,3156,10296,2011,125,http://www.redfin.com/AZ/Buckeye/20472-W-Hamilton-St-85396/home/27856508,33.4827541,-112.4999475
Single Family Residential,21194 W GRANADA Rd,Buckeye,AZ,85396,315000,3,2,1905,5778,2017,91,http://www.redfin.com/AZ/Buckeye/21194-W-Granada-Rd-85396/home/137594873,33.468317,-112.5155887
Single Family Residential,21444 W TERRI LEE Dr,Buckeye,AZ,85396,340000,3,2.5,2406,6900,2014,91,http://www.redfin.com/AZ/Buckeye/21444-W-Terri-Lee-Dr-85396/home/56304875,33.4669133,-112.5209344
Single Family Residential,20837 W MINNEZONA Ave,Buckeye,AZ,85396,369888,2,2.5,1771,5243,2018,226,http://www.redfin.com/AZ/Buckeye/20837-W-Minnezona-Ave-85396/home/95463926,33.5022593,-112.5074268
Single Family Residential,20589 W WALTON Dr,Buckeye,AZ,85396,425000,3,2,2409,7944,2004,116,http://www.redfin.com/AZ/Buckeye/20589-W-Walton-Dr-85396/home/28022934,33.494443,-112.5025783
Single Family Residential,20945 W WHITE ROCK Rd,Buckeye,AZ,85396,365000,4,3,2516,4338,2015,116,http://www.redfin.com/AZ/Buckeye/20945-W-White-Rock-Rd-85396/home/27332111,33.47607,-112.5099172
Single Family Residential,21284 W ALMERIA Rd,Buckeye,AZ,85396,419999,5,4,3098,7304,2014,91,http://www.redfin.com/AZ/Buckeye/21284-W-Almeria-Rd-85326/home/49763277,33.466376,-112.517042
Single Family Residential,21115 W ELM Way,Buckeye,AZ,85396,295000,2,2.5,1540,6108,2006,116,http://www.redfin.com/AZ/Buckeye/21115-W-Elm-Way-85396/home/28332176,33.4984064,-112.5139164
Single Family Residential,20752 W HAMILTON St,Buckeye,AZ,85396,499950,4,2.5,3290,7501,2011,116,http://www.redfin.com/AZ/Buckeye/20752-W-Hamilton-St-85396/home/28362289,33.4804105,-112.5061404
Single Family Residential,2376 N HERITAGE St,Buckeye,AZ,85396,343500,3,2.5,2278,8808,2013,116,http://www.redfin.com/AZ/Buckeye/2376-N-Heritage-St-85396/home/28395463,33.4728746,-112.5068854
Single Family Residential,20608 W HAMILTON St,Buckeye,AZ,85396,399900,3,2.5,2341,9040,2008,116,http://www.redfin.com/AZ/Buckeye/20608-W-Hamilton-St-85396/home/28303815,33.4820199,-112.5029276
Single Family Residential,20938 W BERKELEY Rd,Buckeye,AZ,85396,369990,5,3,2685,5000,2020,116,http://www.redfin.com/AZ/Buckeye/20938-W-Berkeley-Rd-85396/home/172641420,33.4673928,-112.5141634
Single Family Residential,20773 W MINNEZONA Ave,Buckeye,AZ,85396,325000,2,2,1539,5170,2018,226,http://www.redfin.com/AZ/Buckeye/20773-W-Minnezona-Ave-85396/home/95463935,33.5018504,-112.5062353
Single Family Residential,15571 W Piccadilly Rd,Goodyear,AZ,85395,379900,2,2,1829,8650,1999,227,http://www.redfin.com/AZ/Goodyear/15571-Piccadilly-Rd-85395/home/27100049,33.4916758,-112.3940122
Condo/Co-op,2801 N Litchfield Rd,Goodyear,AZ,85395,210000,2,2,1125,1268,1997,350,http://www.redfin.com/AZ/Goodyear/2801-N-Litchfield-Rd-85395/home/27101727,33.4783929,-112.356699
Single Family Residential,15664 W PICCADILLY Rd,Goodyear,AZ,85395,359000,2,2,2154,7583,1995,227,http://www.redfin.com/AZ/Goodyear/15664-Piccadilly-Rd-85395/home/27727750,33.4917178,-112.3962009
Single Family Residential,15226 W EDGEMONT Ave,Goodyear,AZ,85395,285000,4,2,1870,6935,2006,46,http://www.redfin.com/AZ/Goodyear/15226-W-Edgemont-Ave-85395/home/28408680,33.4769131,-112.3866081
Single Family Residential,15673 W CORONADO Rd,Goodyear,AZ,85395,439000,3,2.5,2384,8010,2008,55,http://www.redfin.com/AZ/Goodyear/15673-W-Coronado-Rd-85395/home/28355673,33.4677345,-112.3957818
Condo/Co-op,14870 W ENCANTO Blvd #1073,Goodyear,AZ,85395,299999,3,3,1499,899,2019,277,http://www.redfin.com/AZ/Goodyear/14870-W-Encanto-Blvd-85395/unit-1073/home/28411431,33.474089,-112.3794917
Single Family Residential,16144 W BERKELEY Rd,Goodyear,AZ,85395,520000,4,2.5,2713,10580,2011,67,http://www.redfin.com/AZ/Goodyear/16144-W-Berkeley-Rd-85395/home/28424972,33.4681384,-112.4058169
Single Family Residential,14999 W CRENSHAW Dr,Goodyear,AZ,85395,555100,3,2.5,3161,8692,1999,227,http://www.redfin.com/AZ/Goodyear/14999-W-Crenshaw-Dr-85395/home/27027070,33.4846154,-112.3816021
Single Family Residential,15825 W VALE Dr,Goodyear,AZ,85395,345000,3,2,2207,7808,1998,227,http://www.redfin.com/AZ/Goodyear/15825-W-Vale-Dr-85395/home/27397173,33.4928207,-112.4001357
Single Family Residential,14481 W AVALON Dr,Goodyear,AZ,85395,499900,5,3,2974,10000,2000,57,http://www.redfin.com/AZ/Goodyear/14481-W-Avalon-Dr-85395/home/28180654,33.4823698,-112.3710779
Single Family Residential,4881 N 150TH Dr,Goodyear,AZ,85395,730000,4,3,3932,25048,2007,66,http://www.redfin.com/AZ/Goodyear/4881-N-150th-Dr-85395/home/28271585,33.5069901,-112.3807406
Townhouse,16411 W PICCADILLY Rd,Goodyear,AZ,85395,345000,2,2,1623,3887,2015,377,http://www.redfin.com/AZ/Goodyear/16411-Piccadilly-Rd-85395/home/95458187,33.4907989,-112.4123647
Single Family Residential,3116 N 148th Ave,Goodyear,AZ,85395,420000,3,3,2405,8952,2002,227,http://www.redfin.com/AZ/Goodyear/3116-N-148th-Ave-85395/home/27515009,33.4821955,-112.377155
Single Family Residential,15441 W PICCADILLY Rd,Goodyear,AZ,85395,414900,2,2,2154,8048,1997,227,http://www.redfin.com/AZ/Goodyear/15441-Piccadilly-Rd-85395/home/27630558,33.4917383,-112.3913812
Townhouse,14870 W ENCANTO Blvd #2096,Goodyear,AZ,85395,282088,1,2,1339,1146,2018,277,http://www.redfin.com/AZ/Goodyear/14870-W-Encanto-Blvd-85395/unit-2096/home/28411767,33.4732775,-112.3802748
Single Family Residential,3162 N 150TH Dr,Goodyear,AZ,85395,510000,3,2.5,3161,7604,2001,227,http://www.redfin.com/AZ/Goodyear/3162-N-150th-Dr-85395/home/27809856,33.4829804,-112.3836511
Single Family Residential,16044 W HARVARD St,Goodyear,AZ,85395,725000,4,3.5,4653,12439,2011,168,http://www.redfin.com/AZ/Goodyear/16044-W-Harvard-St-85395/home/28413806,33.4715496,-112.4040473
Townhouse,14870 W ENCANTO Blvd #2117,Goodyear,AZ,85395,249900,2,2,1329,1158,2019,277,http://www.redfin.com/AZ/Goodyear/14870-W-Encanto-Blvd-85395/unit-2117/home/28411763,33.4733555,-112.379495
Townhouse,14870 W ENCANTO Blvd #1095,Goodyear,AZ,85395,302795,2,2.5,1339,821,2018,277,http://www.redfin.com/AZ/Goodyear/14870-W-Encanto-Blvd-85395/unit-1095/home/28411441,33.4733619,-112.3802717
Single Family Residential,15374 W MONTECITO Ave,Goodyear,AZ,85395,404900,3,2.5,2664,8505,2006,66,http://www.redfin.com/AZ/Goodyear/15374-W-Montecito-Ave-85395/home/28198741,33.4978384,-112.3898911
Townhouse,14870 W ENCANTO Blvd #1094,Goodyear,AZ,85395,304379,2,2.5,1499,821,2018,277,http://www.redfin.com/AZ/Goodyear/14870-W-Encanto-Blvd-85395/unit-1094/home/28411444,33.4733233,-112.3802
Single Family Residential,14883 W CRENSHAW Dr,Goodyear,AZ,85395,549900,3,2,2961,7605,2002,227,http://www.redfin.com/AZ/Goodyear/14883-W-Crenshaw-Dr-85395/home/27913247,33.4860113,-112.3786218
Single Family Residential,2745 N 164TH Ave,Goodyear,AZ,85395,695000,2,2.5,2226,12282,2007,227,http://www.redfin.com/AZ/Goodyear/2745-N-164th-Ave-85395/home/28253930,33.4774061,-112.4095422
Single Family Residential,15621 W MONTECITO Ave,Goodyear,AZ,85395,320000,4,2,1952,7200,2009,66,http://www.redfin.com/AZ/Goodyear/15621-W-Montecito-Ave-85395/home/28412341,33.4972725,-112.3951764
Single Family Residential,14978 W VIRGINIA Ave,Goodyear,AZ,85395,293900,3,3,1673,3622,2019,122,http://www.redfin.com/AZ/Goodyear/14978-W-Virginia-Ave-85395/home/27856550,33.475012,-112.381514
Single Family Residential,14773 W PICCADILLY Rd,Goodyear,AZ,85395,589900,3,2.5,3161,10178,1998,227,http://www.redfin.com/AZ/Goodyear/14773-Piccadilly-Rd-85395/home/26963967,33.4880367,-112.3765962
Single Family Residential,13960 W WOODBRIDGE Ave,Goodyear,AZ,85395,450000,4,2.75,2986,14093,2004,86,http://www.redfin.com/AZ/Goodyear/13960-W-Woodbridge-Ave-85395/home/28039025,33.4832722,-112.3625116
Single Family Residential,14732 W EDGEMONT Ave,Goodyear,AZ,85395,319900,3,2,2147,6900,2005,46,http://www.redfin.com/AZ/Goodyear/14732-W-Edgemont-Ave-85395/home/27749466,33.4785254,-112.3760141
Single Family Residential,4150 N 162ND Ave,Goodyear,AZ,85395,399900,4,2.5,2399,14686,2007,60,http://www.redfin.com/AZ/Goodyear/4150-N-162nd-Ave-85395/home/28307983,33.4943989,-112.4075864
Single Family Residential,3068 N 157TH Dr,Goodyear,AZ,85395,529000,3,3,2622,7280,2003,227,http://www.redfin.com/AZ/Goodyear/3068-N-157th-Dr-85395/home/27718859,33.4811031,-112.3970623
Single Family Residential,3220 N Couples Dr,Goodyear,AZ,85395,595000,3,2.5,2962,8073,2002,214,http://www.redfin.com/AZ/Goodyear/3220-N-Couples-Dr-85395/home/27900653,33.4834949,-112.3791806
Townhouse,3962 N 164TH Dr,Goodyear,AZ,85395,370000,2,2,1739,3924,2015,391,http://www.redfin.com/AZ/Goodyear/3962-N-164th-Dr-85395/home/95467762,33.4922228,-112.4122852
Single Family Residential,14260 W ROANOKE Ave,Goodyear,AZ,85395,699900,5,4,4637,23961,2003,185,http://www.redfin.com/AZ/Goodyear/14260-W-Roanoke-Ave-85395/home/27786640,33.476314,-112.3653036
Single Family Residential,15812 W FAIRMOUNT Ave,Goodyear,AZ,85395,374999,3,2,1826,10315,1995,227,http://www.redfin.com/AZ/Goodyear/15812-W-Fairmount-Ave-85395/home/27689100,33.4908035,-112.3999262
Single Family Residential,16177 W WHITTON Ave,Goodyear,AZ,85395,449900,4,3,2612,7728,2004,227,http://www.redfin.com/AZ/Goodyear/16177-W-Whitton-Ave-85395/home/28018146,33.4884789,-112.4063756
Single Family Residential,16325 W INDIANOLA Ave,Goodyear,AZ,85395,639000,2,2.5,2262,9304,2013,227,http://www.redfin.com/AZ/Goodyear/16325-W-Indianola-Ave-85395/home/56304921,33.4896782,-112.4105666
Single Family Residential,15751 W Merrell St,Goodyear,AZ,85395,475000,3,3,2756,7729,2005,227,http://www.redfin.com/AZ/Goodyear/15751-W-Merrell-St-85395/home/28079859,33.4802262,-112.3981799
Single Family Residential,3323 N 153RD Dr,Goodyear,AZ,85395,519900,3,2.5,3420,7295,1999,227,http://www.redfin.com/AZ/Goodyear/3323-N-153rd-Dr-85395/home/28004866,33.4841052,-112.3886803
Single Family Residential,3696 N HOGAN Dr,Goodyear,AZ,85395,529000,2,2.5,2810,8228,1994,227,http://www.redfin.com/AZ/Goodyear/3696-N-Hogan-Dr-85395/home/27332841,33.4887433,-112.3931507
Single Family Residential,14875 W PICCADILLY Rd,Goodyear,AZ,85395,399900,2,2,2154,8007,1998,227,http://www.redfin.com/AZ/Goodyear/14875-Piccadilly-Rd-85395/home/26955399,33.4899166,-112.3787383
Single Family Residential,15390 W EDGEMONT Ave,Goodyear,AZ,85395,353990,3,2,1988,5815,2020,115,http://www.redfin.com/AZ/Goodyear/15390-W-Edgemont-Ave-85395/home/167780088,33.478082,-112.390072
Single Family Residential,2441 N 149TH Ln,Goodyear,AZ,85395,330000,3,2.5,1674,2684,2018,122,http://www.redfin.com/AZ/Goodyear/2441-N-149th-Ln-85395/home/28411750,33.4735713,-112.3805544
Single Family Residential,3187 N COUPLES Dr,Goodyear,AZ,85395,527000,3,2,2362,9446,1999,227,http://www.redfin.com/AZ/Goodyear/3187-N-Couples-Dr-85395/home/27746851,33.4833565,-112.3781562
Single Family Residential,15251 W VERDE Ln,Goodyear,AZ,85395,279594,2,2,1641,4399,1995,227,http://www.redfin.com/AZ/Goodyear/15251-W-Verde-Ln-85395/home/28263457,33.4792518,-112.3870971
Single Family Residential,16184 W MULBERRY Dr,Goodyear,AZ,85395,375000,2,2,1989,7355,2005,227,http://www.redfin.com/AZ/Goodyear/16184-W-Mulberry-Dr-85395/home/27348771,33.4880103,-112.406655
Single Family Residential,15979 W MULBERRY Dr,Goodyear,AZ,85395,619000,3,3,2621,7580,2006,227,http://www.redfin.com/AZ/Goodyear/15979-W-Mulberry-Dr-85395/home/28189524,33.4877479,-112.4019053
Single Family Residential,16697 W ALVARADO Dr,Goodyear,AZ,85395,627000,2,2.5,2400,8375,2015,227,http://www.redfin.com/AZ/Goodyear/16697-W-Alvarado-Dr-85395/home/95467982,33.4704077,-112.4183897
Single Family Residential,16950 W EDGEMONT Ave,Goodyear,AZ,85395,544861,2,2.5,2386,8968,2020,227,http://www.redfin.com/AZ/Goodyear/16950-W-Edgemont-Ave-85395/home/172484608,33.4779129,-112.4210291
Single Family Residential,3351 N 153RD Dr,Goodyear,AZ,85395,512000,4,2.5,3401,7227,1999,227,http://www.redfin.com/AZ/Goodyear/3351-N-153rd-Dr-85395/home/28265818,33.4845031,-112.3887735
Single Family Residential,15402 W EDGEMONT Ave,Goodyear,AZ,85395,334990,3,2,1672,5750,2020,115,http://www.redfin.com/AZ/Goodyear/15402-W-Edgemont-Ave-85395/home/167780091,33.478085,-112.390375
Single Family Residential,2668 N 161ST Ave,Goodyear,AZ,85395,385000,2,2,1829,7280,2003,454,http://www.redfin.com/AZ/Goodyear/2668-N-161st-Ave-85395/home/27973016,33.4772149,-112.4058401
Single Family Residential,16086 W SHEILA Ln,Goodyear,AZ,85395,535000,3,3,2624,7800,2003,227,http://www.redfin.com/AZ/Goodyear/16086-W-Sheila-Ln-85395/home/28249477,33.4874247,-112.4040473
Single Family Residential,3331 N 162ND Dr,Goodyear,AZ,85395,579000,3,3.5,2232,7800,2007,227,http://www.redfin.com/AZ/Goodyear/3331-N-162nd-Dr-85395/home/28241298,33.4839534,-112.4060264
Single Family Residential,3179 N 150TH Dr,Goodyear,AZ,85395,385000,2,2,2362,8541,2002,227,http://www.redfin.com/AZ/Goodyear/3179-N-150th-Dr-85395/home/27418312,33.4833003,-112.3832786
Single Family Residential,15802 W AVALON Dr,Goodyear,AZ,85395,545850,3,3,3401,8058,2000,227,http://www.redfin.com/AZ/Goodyear/15802-W-Avalon-Dr-85395/home/27804542,33.4825358,-112.3982731
Single Family Residential,14304 W CORONADO Rd,Goodyear,AZ,85395,448900,4,2.5,3020,8400,2011,195,http://www.redfin.com/AZ/Goodyear/14304-W-Coronado-Rd-85395/home/28427225,33.4666776,-112.3661418
Single Family Residential,3641 N 161ST Ave,Goodyear,AZ,85395,565900,3,3,2621,7800,2005,227,http://www.redfin.com/AZ/Goodyear/3641-N-161st-Ave-85395/home/28110230,33.488155,-112.4041405
Single Family Residential,14266 W WILSHIRE Dr,Goodyear,AZ,85395,485000,4,3.5,3322,6344,2007,170,http://www.redfin.com/AZ/Goodyear/14266-W-Wilshire-Dr-85395/home/28258967,33.4733425,-112.3648612
Single Family Residential,15962 W SHEILA Ln,Goodyear,AZ,85395,575000,3,2.5,3161,9602,2003,227,http://www.redfin.com/AZ/Goodyear/15962-W-Sheila-Ln-85395/home/27607809,33.4867381,-112.4015327
Single Family Residential,16136 W INDIANOLA Ave,Goodyear,AZ,85395,382900,2,2,2238,7458,2004,227,http://www.redfin.com/AZ/Goodyear/16136-W-Indianola-Ave-85395/unit-39/home/28188527,33.4898721,-112.4051649
Townhouse,14870 W ENCANTO Blvd #1119,Goodyear,AZ,85395,258810,2,2.5,1339,821,2019,277,http://www.redfin.com/AZ/Goodyear/14870-W-Encanto-Blvd-85395/unit-1119/home/28411452,33.4735628,-112.379415
Single Family Residential,2034 N 141st Ave,Goodyear,AZ,85395,438400,5,3,2977,0,2020,0,http://www.redfin.com/AZ/Goodyear/2034-N-141st-Ave-85395/home/172589764,33.470985,-112.359155
Single Family Residential,14023 W Monte Vista Rd,Goodyear,AZ,85395,420020,5,3,2977,0,2020,0,http://www.redfin.com/AZ/Goodyear/14023-W-Monte-Vista-Rd-85395/home/172589763,33.470985,-112.359155
Single Family Residential,14044 W Monte Vista Rd,Goodyear,AZ,85395,422020,5,3,2977,0,2020,0,http://www.redfin.com/AZ/Goodyear/14044-W-Monte-Vista-Rd-85395/home/172589761,33.470985,-112.359155
Single Family Residential,14032 W Monte Vista Rd,Goodyear,AZ,85395,409527,4,3,2563,0,2020,0,http://www.redfin.com/AZ/Goodyear/14032-W-Monte-Vista-Rd-85395/home/172589760,33.470985,-112.359155
Single Family Residential,2028 N 141st Ave,Goodyear,AZ,85395,460020,6,4,3628,0,2020,0,http://www.redfin.com/AZ/Goodyear/2028-N-141st-Ave-85395/home/172589759,33.470985,-112.359155
Single Family Residential,Jubilee,Goodyear,AZ,85395,315990,4,3,2022,0,unknown,0,http://www.redfin.com/AZ/Goodyear/Montego-at-Sedella-Classic-Series/Jubilee/home/172001235,33.4946321,-112.4521764
Single Family Residential,Mason,Goodyear,AZ,85395,299990,4,2,1810,0,unknown,0,http://www.redfin.com/AZ/Goodyear/Montego-at-Sedella-Classic-Series/Mason/home/172001236,33.4946321,-112.4521764
Single Family Residential,Leslie,Goodyear,AZ,85395,284990,3,2,1531,0,unknown,0,http://www.redfin.com/AZ/Goodyear/Montego-at-Sedella-Classic-Series/Leslie/home/172001237,33.4946321,-112.4521764
Single Family Residential,Mayfair,Goodyear,AZ,85395,269990,3,2,1296,0,unknown,0,http://www.redfin.com/AZ/Goodyear/Montego-at-Sedella-Classic-Series/Mayfair/home/172001238,33.4946321,-112.4521764
Single Family Residential,Bailey,Goodyear,AZ,85395,352990,5,3,2528,0,unknown,0,http://www.redfin.com/AZ/Goodyear/Montego-at-Sedella-Estate-Series/Bailey/home/172487376,33.4946321,-112.4521764
Single Family Residential,Lark,Goodyear,AZ,85395,337990,4,3,2342,0,unknown,0,http://www.redfin.com/AZ/Goodyear/Montego-at-Sedella-Estate-Series/Lark/home/172506936,33.4946321,-112.4521764
Single Family Residential,Amber,Goodyear,AZ,85395,337990,4,2.5,2343,0,unknown,0,http://www.redfin.com/AZ/Goodyear/Montego-at-Sedella-Estate-Series/Amber/home/172487378,33.4946321,-112.4521764
Single Family Residential,Tonto,Goodyear,AZ,85395,327990,3,2,2106,0,unknown,0,http://www.redfin.com/AZ/Goodyear/Montego-at-Sedella-Estate-Series/Tonto/home/169868922,33.4946328,-112.4521729
Single Family Residential,Onyx - RV Garage Included,Goodyear,AZ,85395,392990,4,2,2139,0,unknown,0,http://www.redfin.com/AZ/Goodyear/Alicante-at-Sedella-Reserve-Series/Onyx-RV-Garage-Included/home/172001230,33.4946321,-112.4521764
Single Family Residential,Madison,Goodyear,AZ,85395,433990,5,3,3428,0,unknown,0,http://www.redfin.com/AZ/Goodyear/Alicante-at-Sedella-Reserve-Series/Madison/home/172001231,33.4946321,-112.4521764
Single Family Residential,Austin,Goodyear,AZ,85395,433990,4,3,3240,0,unknown,0,http://www.redfin.com/AZ/Goodyear/Alicante-at-Sedella-Reserve-Series/Austin/home/172001232,33.4946321,-112.4521764
Single Family Residential,Shasta,Goodyear,AZ,85395,412990,4,2.5,3122,0,unknown,0,http://www.redfin.com/AZ/Goodyear/Alicante-at-Sedella-Reserve-Series/Shasta/home/172001233,33.4946321,-112.4521764
Single Family Residential,11107 W DANA Ln,Avondale,AZ,85392,359555,4,3.5,3169,7836,1996,60,http://www.redfin.com/AZ/Avondale/11107-W-Dana-Ln-85392/home/26916870,33.4925197,-112.2993624
Single Family Residential,12534 W CAMBRIDGE Ave,Avondale,AZ,85392,319900,4,2.5,2038,5715,1996,45,http://www.redfin.com/AZ/Avondale/12534-W-Cambridge-Ave-85392/home/27720925,33.4760039,-112.3294693
Single Family Residential,11951 W Lewis Ave,Avondale,AZ,85392,329000,4,2,2169,7470,2006,78,http://www.redfin.com/AZ/Avondale/11951-W-Lewis-Ave-85392/home/28233054,33.4720768,-112.3160342
Single Family Residential,3713 N 127TH Dr,Avondale,AZ,85392,319900,3,2,2011,6049,2002,34,http://www.redfin.com/AZ/AVONDALE/3713-N-127TH-DR-85392/home/27869300,33.490505,-112.333475
Single Family Residential,11114 W OLIVE Dr,Avondale,AZ,85392,339900,5,2.5,2507,7680,1990,57,http://www.redfin.com/AZ/Avondale/11114-W-Olive-Dr-85392/home/27957991,33.481794,-112.299184
Single Family Residential,12621 W CHEERY LYNN Rd,Avondale,AZ,85392,265000,3,2,1383,7022,2000,52,http://www.redfin.com/AZ/Avondale/12621-W-Cheery-Lynn-Rd-85392/home/27613626,33.4836699,-112.330261
Single Family Residential,12563 W OSBORN Rd,Avondale,AZ,85392,310000,4,2,2155,6050,2001,52,http://www.redfin.com/AZ/Avondale/12563-W-Osborn-Rd-85392/home/28051206,33.4870617,-112.328701
Single Family Residential,13507 W MERRELL St,Avondale,AZ,85392,584900,6,3.5,4014,8769,2006,75,http://www.redfin.com/AZ/Avondale/13507-W-Merrell-St-85392/home/28154473,33.4800788,-112.3506812
Single Family Residential,12691 W MULBERRY Dr,Avondale,AZ,85392,265000,3,2,1376,5614,2001,52,http://www.redfin.com/AZ/Avondale/12691-W-Mulberry-Dr-85392/home/28012397,33.4871863,-112.3318909
Single Family Residential,11006 W ALVARADO Rd,Avondale,AZ,85392,390000,4,2,2743,8089,1999,43,http://www.redfin.com/AZ/Avondale/11006-W-Alvarado-Rd-85392/home/27728290,33.4710845,-112.2974996
Single Family Residential,12642 W AVALON Dr,Avondale,AZ,85392,325000,5,2.5,2494,7792,2001,40,http://www.redfin.com/AZ/Avondale/12642-W-Avalon-Dr-85392/home/28069254,33.4817758,-112.3317046
Single Family Residential,2502 N 106TH Ave,Avondale,AZ,85392,340000,3,2,1950,16853,1999,59,http://www.redfin.com/AZ/Avondale/2502-N-106th-Ave-85392/home/27429899,33.4729186,-112.2887678
Single Family Residential,11213 W SUNFLOWER Pl,Avondale,AZ,85392,330000,3,2,2064,7218,1988,58,http://www.redfin.com/AZ/Avondale/11213-W-Sunflower-Pl-85392/home/27779475,33.4869702,-112.3013416
Single Family Residential,3023 N MEADOW Ln,Avondale,AZ,85392,373000,5,3,2869,7000,1994,60,http://www.redfin.com/AZ/Avondale/3023-N-Meadow-Ln-85392/home/27693045,33.481013,-112.2934713
Single Family Residential,645 N SIERRA VISTA Dr,Wickenburg,AZ,85390,475000,3,2,2094,16619,2020,0,http://www.redfin.com/AZ/Wickenburg/645-Sierra-Vista-Dr-85390/home/28353239,33.973886,-112.74597
Single Family Residential,560 W TOPEKA Dr,Wickenburg,AZ,85390,325000,3,2,1740,25302,2000,0,http://www.redfin.com/AZ/Wickenburg/560-N-Topeka-Dr-85390/home/27826190,33.9723419,-112.7486845
Single Family Residential,161 E CAVANESS Ave,Wickenburg,AZ,85390,249900,3,1.75,1484,10500,1976,0,http://www.redfin.com/AZ/Wickenburg/161-Cavaness-Ave-85390/home/27550536,33.9745849,-112.7332056
Single Family Residential,11108 N 190TH Ln,Surprise,AZ,85388,425000,3,2,1988,6360,2018,0,http://www.redfin.com/AZ/SURPRISE/11108-N-190TH-LN-85388/home/146067537,33.585228,-112.4695
Single Family Residential,17009 W Marconi Ave,Surprise,AZ,85388,242000,3,2,1419,4400,2004,72,http://www.redfin.com/AZ/Surprise/17009-W-Marconi-Ave-85388/home/28407007,33.6281952,-112.4246528
Single Family Residential,17624 W MAUI Ln,Surprise,AZ,85388,320000,3,2,2064,6584,2005,60,http://www.redfin.com/AZ/Surprise/17624-W-Maui-Ln-85388/home/28135707,33.6223111,-112.4376912
Single Family Residential,17570 W CHARTER OAK Rd,Surprise,AZ,85388,296000,3,2,2155,5943,2008,70,http://www.redfin.com/AZ/Surprise/17570-W-Charter-Oak-Rd-85388/home/28323315,33.5966158,-112.4370858
Single Family Residential,17406 W Andora St,Surprise,AZ,85388,426444,5,3.5,3551,6000,2020,99,http://www.redfin.com/AZ/Surprise/17406-W-Andora-St-85388/home/170074106,33.606299,-112.433487
Single Family Residential,17639 W EVANS Dr,Surprise,AZ,85388,334900,3,2,2416,7975,2003,60,http://www.redfin.com/AZ/Surprise/17639-W-Evans-Dr-85388/home/28092243,33.6156625,-112.4385061
Single Family Residential,17675 W CHARTER OAK Rd,Surprise,AZ,85388,325000,3,2,2155,5830,2008,70,http://www.redfin.com/AZ/Surprise/17675-W-Charter-Oak-Rd-85388/home/28341332,33.5962048,-112.4388087
Single Family Residential,16605 N 169TH Ave,Surprise,AZ,85388,279900,3,2,1430,6717,2003,44,http://www.redfin.com/AZ/Surprise/16605-N-169th-Ave-85388/home/27257677,33.6351166,-112.4225108
Single Family Residential,17642 W CROCUS Dr,Surprise,AZ,85388,369900,5,3.5,2401,8283,2004,60,http://www.redfin.com/AZ/Surprise/17642-W-Crocus-Dr-85388/home/27326056,33.6145794,-112.4388553
Single Family Residential,14225 N 181ST Ave,Surprise,AZ,85388,525000,3,3,2717,43230,1997,0,http://www.redfin.com/AZ/Surprise/14225-N-181st-Ave-85388/home/27863498,33.6138238,-112.4477259
Single Family Residential,15871 N 182ND Ave,Surprise,AZ,85388,390000,3,2.5,2715,11308,2006,60,http://www.redfin.com/AZ/Surprise/15871-N-182nd-Ave-85388/home/28264601,33.6283477,-112.4508691
Single Family Residential,17743 W EVANS Dr,Surprise,AZ,85388,369000,4,2.5,3336,6380,2004,60,http://www.redfin.com/AZ/Surprise/17743-W-Evans-Dr-85388/home/28025470,33.615942,-112.4400893
Single Family Residential,16536 N 181ST Ave,Surprise,AZ,85388,379900,4,3.5,3064,5750,2018,60,http://www.redfin.com/AZ/Surprise/16536-N-181st-Ave-85388/home/27126230,33.6346078,-112.4493886
Single Family Residential,11267 N 187TH Dr,Surprise,AZ,85388,374500,4,2.75,2313,7321,2017,89,http://www.redfin.com/AZ/Surprise/11267-N-187th-Dr-85388/home/145074562,33.5865871,-112.4621925
Single Family Residential,14204 N 183RD Ave,Surprise,AZ,85388,375000,3,2,1344,43230,1982,0,http://www.redfin.com/AZ/Surprise/14204-N-183rd-Ave-85388/home/28373175,33.6133708,-112.4521729
Single Family Residential,15937 N CRISTINE Ln,Surprise,AZ,85388,309000,4,3,2379,5500,2004,72,http://www.redfin.com/AZ/Surprise/15937-N-Cristine-Ln-85388/home/28049423,33.6292686,-112.4305667
Single Family Residential,16862 W POST Dr,Surprise,AZ,85388,285000,4,2,1756,7328,2003,44,http://www.redfin.com/AZ/Surprise/16862-W-Post-Dr-85388/home/27570430,33.6352926,-112.4213557
Single Family Residential,17685 W STATLER Dr,Surprise,AZ,85388,379900,4,2.5,3435,6325,2005,50,http://www.redfin.com/AZ/Surprise/17685-W-Statler-Dr-85388/home/27591304,33.6323477,-112.4393442
Single Family Residential,19010 W YUCATAN Dr,Surprise,AZ,85388,369900,3,2,1988,6358,2018,89,http://www.redfin.com/AZ/SURPRISE/19010-W-YUCATAN-DR-85388/home/146067511,33.587714,-112.468359
Single Family Residential,17634 W Ironwood St,Surprise,AZ,85388,379999,5,3,3438,6900,2005,60,http://www.redfin.com/AZ/Surprise/17634-W-Ironwood-St-85388/home/28178704,33.6301114,-112.4383431
Single Family Residential,11709 N LUCKENBACH St,Surprise,AZ,85388,339995,2,2,1942,4700,2020,120,http://www.redfin.com/AZ/Surprise/11709-N-Luckenbach-St-85388/home/172430113,33.590897,-112.427374
Single Family Residential,11703 N LUCKENBACH St,Surprise,AZ,85388,379995,3,2.75,2505,4680,2020,120,http://www.redfin.com/AZ/Surprise/11703-N-Luckenbach-St-85388/home/172430111,33.590718,-112.427335
Single Family Residential,17377 W WILDWOOD St,Surprise,AZ,85388,420995,2,2.5,2004,5500,2020,120,http://www.redfin.com/AZ/Surprise/17377-W-Wildwood-St-85388/home/172377550,33.588992,-112.432856
Single Family Residential,11497 N LUCKENBACH St,Surprise,AZ,85388,321995,2,2,1529,4680,2020,245,http://www.redfin.com/AZ/Surprise/11497-N-Luckenbach-St-85388/home/172245272,33.588881,-112.427631
Single Family Residential,11471 N LUCKENBACH St,Surprise,AZ,85388,355995,3,2.5,1818,5504,2020,245,http://www.redfin.com/AZ/Surprise/11471-N-Luckenbach-St-85388/home/172240619,33.5886,-112.42765
Single Family Residential,18810 W YUCATAN Dr,Surprise,AZ,85388,370000,3,2,2156,7149,2017,89,http://www.redfin.com/AZ/Surprise/18810-W-Yucatan-Dr-85388/home/143928657,33.5877133,-112.4641008
Single Family Residential,17191 W THOUSAND OAKS St,Surprise,AZ,85388,744995,4,3.5,3254,7700,2020,245,http://www.redfin.com/AZ/Surprise/17191-W-Thousand-Oaks-St-85388/home/171300473,33.594637,-112.428132
Single Family Residential,17191 W SAN MARCOS St,Surprise,AZ,85388,784154,4,3.5,3741,6600,2020,245,http://www.redfin.com/AZ/Surprise/17191-W-San-Marcos-St-85388/home/171280161,33.594637,-112.447028
Single Family Residential,17183 W SAN MARCOS St,Surprise,AZ,85388,609561,3,3.5,2220,6600,2020,245,http://www.redfin.com/AZ/Surprise/17183-W-San-Marcos-St-85388/home/171260216,33.594637,-112.428132
Single Family Residential,17175 W SAN MARCOS St,Surprise,AZ,85388,513250,2,2,2004,5500,2020,245,http://www.redfin.com/AZ/Surprise/17175-W-San-Marcos-St-85388/home/171259917,33.594637,-112.428132
Single Family Residential,17163 W THOUSAND OAKS St,Surprise,AZ,85388,402995,3,2,1520,5500,2020,245,http://www.redfin.com/AZ/Surprise/17163-W-Thousand-Oaks-St-85388/home/171250511,33.594637,-112.428132
Single Family Residential,17166 W THOUSAND OAKS St,Surprise,AZ,85388,481497,2,2,1520,5500,2020,245,http://www.redfin.com/AZ/Surprise/17166-W-Thousand-Oaks-St-85388/home/171249945,33.594637,-112.428132
Single Family Residential,13351 N 174th Ave,Surprise,AZ,85388,332650,3,3,1964,6000,2020,99,http://www.redfin.com/AZ/Surprise/13351-N-174th-Ave-85388/home/170074111,33.605736,-112.433053
Single Family Residential,18379 W STATLER St,Surprise,AZ,85388,353000,4,2.5,2604,7800,2009,65,http://www.redfin.com/AZ/Surprise/18379-W-Statler-St-85388/home/27861774,33.6317788,-112.4545244
Single Family Residential,16301 W KEARNEY Ln,Surprise,AZ,85387,309900,3,2,1427,6600,2004,133,http://www.redfin.com/AZ/Surprise/16301-W-Kearney-Ln-85387/home/27685015,33.6788406,-112.4091929
Single Family Residential,26114 N 155th Ln,Surprise,AZ,85387,334990,3,2,1658,56760,2020,0,http://www.redfin.com/AZ/Surprise/26114-N-155th-Ln-85374/home/172554656,33.6270408,-112.3951639
Single Family Residential,16783 W ROMERO Ln,Surprise,AZ,85387,379000,3,2,1950,8597,2004,133,http://www.redfin.com/AZ/Surprise/16783-W-Romero-Ln-85387/home/27617472,33.6684512,-112.4197634
Single Family Residential,17248 W MOLLY Ln,Surprise,AZ,85387,306015,4,2.5,1889,5857,2020,75,http://www.redfin.com/AZ/Surprise/17248-W-Molly-Ln-85387/home/170642256,33.7275264,-112.4414862
Single Family Residential,16822 W Rancho Laredo Dr,Surprise,AZ,85387,649000,5,3,2820,54625,2020,0,http://www.redfin.com/AZ/Surprise/16822-W-Rancho-Laredo-Dr-85387/home/172663049,33.7622002,-112.424532
Mobile/Manufactured Home,22050 W ADOBE Rte,Surprise,AZ,85387,659000,3,2,1928,299257,1997,0,http://www.redfin.com/AZ/Surprise/22050-W-Adobe-Rd-85387/home/28129729,33.6866556,-112.5331
Single Family Residential,14432 W Honeysuckle Dr,Surprise,AZ,85387,329594,3,2,1700,4699,2020,79,http://www.redfin.com/AZ/Surprise/14432-W-Honeysuckle-Dr-85387/home/172659884,33.718136,-112.371657
Single Family Residential,17246 W HERMOSA Dr,Surprise,AZ,85387,678900,2,2.5,2650,10994,2002,133,http://www.redfin.com/AZ/Surprise/17246-W-Hermosa-Dr-85387/home/28054308,33.6591624,-112.429775
Single Family Residential,29409 N 182ND Ave,Surprise,AZ,85387,305500,3,2,1465,52154,2020,0,http://www.redfin.com/AZ/Surprise/29409-N-182nd-Ave-85387/home/172652379,33.749866,-112.453214
Single Family Residential,28615 N 153RD Ave,Surprise,AZ,85387,469800,3,2,2350,44386,2006,0,http://www.redfin.com/AZ/Surprise/28615-N-153rd-Ave-85387/home/27423043,33.7428886,-112.3901705
Single Family Residential,19105 N HAWTHORN Dr,Surprise,AZ,85387,399000,2,2,2014,9174,2002,133,http://www.redfin.com/AZ/Surprise/19105-N-Hawthorn-Dr-85387/home/27885577,33.6579316,-112.4300312
Single Family Residential,20936 N CANYON WHISPER Dr,Surprise,AZ,85387,268500,2,2,1330,6600,2005,133,http://www.redfin.com/AZ/Surprise/20936-N-Canyon-Whisper-Dr-85387/home/27334313,33.6756661,-112.4232558
Single Family Residential,14947 W RED FOX Rd,Surprise,AZ,85387,549777,3,2.5,2558,87280,2006,0,http://www.redfin.com/AZ/Surprise/14947-W-Red-Fox-Rd-85387/home/28182519,33.7373665,-112.3834648
Single Family Residential,16946 W SAGUARO PARK Ln,Surprise,AZ,85387,436490,3,3,2594,8750,2020,75,http://www.redfin.com/AZ/Surprise/16946-W-Saguaro-Park-Ln-85387/home/27380420,33.7066153,-112.4237162
Single Family Residential,18229 W VIA MONTOYA Dr,Surprise,AZ,85387,389500,4,3.5,3198,6095,2018,62,http://www.redfin.com/AZ/Surprise/18229-W-Via-Montoya-Dr-85387/home/146068403,33.6866009,-112.4509942
Single Family Residential,26798 N 175TH Ln,Surprise,AZ,85387,349999,4,2.5,2902,6600,2006,82,http://www.redfin.com/AZ/Surprise/26798-N-175th-Ln-85387/home/27462230,33.7262902,-112.4402057
Single Family Residential,26835 N 176TH Dr,Surprise,AZ,85387,294000,4,2,1950,6875,2006,82,http://www.redfin.com/AZ/Surprise/26835-N-176th-Dr-85387/home/27060283,33.7265833,-112.4406248
Single Family Residential,18902 N SUNSITES Dr,Surprise,AZ,85387,354000,2,2,1972,9125,2002,133,http://www.redfin.com/AZ/Surprise/18902-N-Sunsites-Dr-85387/home/27917900,33.6563567,-112.4366667
Single Family Residential,20965 N SEQUOIA CREST Dr,Surprise,AZ,85387,265500,2,2,1166,7200,2004,133,http://www.redfin.com/AZ/Sun-City-West/20965-N-Sequoia-Crest-Dr-85387/home/27998615,33.6748571,-112.4107296
Single Family Residential,16811 W CAMINO VIVAZ --,Surprise,AZ,85387,425000,4,3,2599,8688,2018,75,http://www.redfin.com/AZ/Surprise/16811-W-Camino-Vivaz-85387/home/27215935,33.6976755,-112.4223617
Single Family Residential,19620 N MAJESTIC VISTA Ct,Surprise,AZ,85387,368000,2,1.75,1872,9251,2004,133,http://www.redfin.com/AZ/Surprise/19620-N-Majestic-Vista-Ct-85387/home/27031585,33.6628529,-112.4278193
Single Family Residential,16590 W Calle Lejos St,Surprise,AZ,85387,397000,5,3,2660,10159,2017,69,http://www.redfin.com/AZ/Surprise/16590-Calle-Lejos-85387/home/27381978,33.7037247,-112.4155958
Single Family Residential,21203 N REDINGTON POINT Dr,Surprise,AZ,85387,320000,2,2,1688,7102,2004,133,http://www.redfin.com/AZ/Surprise/21203-N-Redington-Point-Dr-85387/home/27626058,33.676735,-112.4158984
Single Family Residential,26553 N 167TH Ave,Surprise,AZ,85387,382908,4,2.5,2800,11312,2020,66,http://www.redfin.com/AZ/Surprise/26553-N-167th-Ave-85387/home/27307345,33.724216,-112.42049
Single Family Residential,16722 W ROWEL Rd,Surprise,AZ,85387,379413,3,2,2078,6905,2016,66,http://www.redfin.com/AZ/Surprise/16722-W-Rowel-Rd-85387/home/27307351,33.7242764,-112.4217425
Single Family Residential,20525 N VERMILLION CLIFFS Dr,Surprise,AZ,85387,350000,2,2.5,2185,11924,2003,133,http://www.redfin.com/AZ/Surprise/20525-N-Vermillion-Cliffs-Dr-85387/home/27956468,33.6710953,-112.4266784
Single Family Residential,17531 W FETLOCK Trl,Surprise,AZ,85387,309990,3,2,2126,7637,2015,82,http://www.redfin.com/AZ/Surprise/17531-W-Fetlock-Trl-85387/home/27384675,33.7306321,-112.4392983
Single Family Residential,24228 N 173RD Ave,Surprise,AZ,85387,442990,3,3,2559,7137,2020,178,http://www.redfin.com/AZ/Surprise/24228-N-173rd-Ave-85387/home/172346934,33.7067,-112.432
Single Family Residential,19607 N CRESCENT RIDGE Dr,Surprise,AZ,85387,464400,2,2,2194,8800,2003,133,http://www.redfin.com/AZ/Surprise/19607-N-Crescent-Ridge-Dr-85387/home/27947117,33.6625404,-112.4297224
Single Family Residential,24145 N 172ND Ln,Surprise,AZ,85387,397990,2,2,2113,6696,2020,178,http://www.redfin.com/AZ/Surprise/24145-N-172nd-Ln-85387/home/171562271,33.7067,-112.432
Single Family Residential,27313 N 148TH Dr,Surprise,AZ,85387,484900,3,2,2542,59048,2005,0,http://www.redfin.com/AZ/Surprise/27313-N-148th-Dr-85387/home/28102927,33.7310059,-112.3801818
Single Family Residential,17222 W CAVEDALE Dr,Surprise,AZ,85387,325950,4,2.5,3166,5750,2020,75,http://www.redfin.com/AZ/Surprise/17222-W-Cavedale-Dr-85387/home/172355346,33.7267692,-112.4411839
Single Family Residential,17230 W CAVEDALE Dr,Surprise,AZ,85387,292150,4,3,2183,5750,2020,75,http://www.redfin.com/AZ/Surprise/17230-W-Cavedale-Dr-85387/home/172355181,33.7267692,-112.4411839
Single Family Residential,17238 W CAVEDALE Dr,Surprise,AZ,85387,274950,3,2.5,1889,5750,2020,75,http://www.redfin.com/AZ/Surprise/17238-W-Cavedale-Dr-85387/home/172354760,33.7267692,-112.4411839
Single Family Residential,17246 W CAVEDALE Dr,Surprise,AZ,85387,260950,3,2,1546,5750,2020,75,http://www.redfin.com/AZ/Surprise/17246-W-Cavedale-Dr-85387/home/172354084,33.7267692,-112.4411839
Single Family Residential,24038 N 165TH Ln,Surprise,AZ,85387,375900,4,2.5,2325,7200,2018,75,http://www.redfin.com/AZ/Surprise/24038-N-165th-Ln-85387/home/27381943,33.7024786,-112.4158866
Single Family Residential,16040 W DALE Ln,Surprise,AZ,85387,499900,5,2.5,3861,108900,2000,7,http://www.redfin.com/AZ/Surprise/16040-W-Dale-Ln-85387/home/27609602,33.7429611,-112.4064455
Single Family Residential,21385 N CLOUDCROFT Ln,Surprise,AZ,85387,368000,2,1.75,1852,7935,2004,133,http://www.redfin.com/AZ/Surprise/21385-N-Cloudcroft-Ln-85387/home/28061193,33.6782434,-112.4112418
Single Family Residential,19626 N CANYON WHISPER Dr,Surprise,AZ,85387,315000,2,2,1500,6844,2003,133,http://www.redfin.com/AZ/Surprise/19626-N-Canyon-Whisper-Dr-85387/home/27940113,33.6627244,-112.4321964
Single Family Residential,16905 W ARTESIA Dr,Surprise,AZ,85387,629500,2,2.5,2628,15591,2002,125,http://www.redfin.com/AZ/Surprise/16905-W-Artesia-Dr-85387/home/27906105,33.6560077,-112.4218356
Single Family Residential,19531 N REGENTS PARK Dr,Surprise,AZ,85387,575000,3,2,2414,9535,2004,133,http://www.redfin.com/AZ/Surprise/19531-N-Regents-Park-Dr-85387/home/28003888,33.6622185,-112.4206947
Single Family Residential,19416 N REGENTS PARK Dr,Surprise,AZ,85387,719000,3,2.5,3389,13859,2003,133,http://www.redfin.com/AZ/Surprise/19416-N-Regents-Park-Dr-85387/home/27964713,33.6609972,-112.4222081
Single Family Residential,18036 W TIERRA DEL SOL Dr,Surprise,AZ,85387,395000,2,2,2075,8709,2003,125,http://www.redfin.com/AZ/Surprise/18036-W-Tierra-Del-Sol-Dr-85387/home/27953201,33.6541502,-112.4473767
Mobile/Manufactured Home,15710 W REMUDA Dr,Surprise,AZ,85387,269900,4,3,1904,51848,2000,0,http://www.redfin.com/AZ/Surprise/15710-W-Remuda-Dr-85387/home/27407282,33.721481,-112.399817
Single Family Residential,27053 N 172ND Ln,Surprise,AZ,85387,409000,5,4,3897,7973,2006,82,http://www.redfin.com/AZ/Surprise/27053-N-172nd-Ln-85387/home/28359144,33.7286553,-112.4341056
Single Family Residential,16853 W CORTARO POINT Dr,Surprise,AZ,85387,315900,2,2,1184,6364,2003,133,http://www.redfin.com/AZ/Surprise/16853-W-Cortaro-Point-Dr-85387/home/28083631,33.6651909,-112.4225108
Mobile/Manufactured Home,16531 W DALE Ln,Surprise,AZ,85387,525000,3,2,1625,217800,1980,0,http://www.redfin.com/AZ/Sun-City-West/16531-W-Dale-Ln-85387/home/27940953,33.7413034,-112.4182356
Single Family Residential,27611 N 146th Ave,Surprise,AZ,85387,643000,4,3.5,3640,43616,2007,0,http://www.redfin.com/AZ/Surprise/27611-N-146th-Ave-85387/home/27331831,33.7337904,-112.3748033
Single Family Residential,17739 W CANTO BONITO Ln,Surprise,AZ,85387,289499,3,2,1427,7528,2002,125,http://www.redfin.com/AZ/Surprise/17739-W-Canto-Bonito-Ln-85387/home/27906623,33.6546519,-112.4410439
Single Family Residential,18715 N Poppy Ct,Surprise,AZ,85387,389900,2,2,2008,10071,2003,125,http://www.redfin.com/AZ/Surprise/18715-N-Poppy-Ct-85387/home/27939755,33.6543308,-112.4341289
Single Family Residential,18948 N ALAMEDA Dr,Surprise,AZ,85387,324500,2,2,1706,6820,2002,125,http://www.redfin.com/AZ/Surprise/18948-N-Alameda-Dr-85387/home/27523565,33.6570916,-112.4369461
Single Family Residential,21235 N MARIPOSA GROVE Ln,Surprise,AZ,85387,321900,2,2,1435,7200,2005,133,http://www.redfin.com/AZ/Surprise/21235-N-Mariposa-Grove-Ln-85387/home/28368462,33.6770527,-112.4088902
Single Family Residential,20419 N FOUNTAIN CREST Ct,Surprise,AZ,85387,428900,2,1.75,1870,14369,1997,125,http://www.redfin.com/AZ/Surprise/20419-N-Fountain-Crest-Ct-85374/home/26909225,33.6719437,-112.3950833
Single Family Residential,20143 N CACTUS FOREST Dr,Surprise,AZ,85387,314999,2,1.75,1854,6600,2003,125,http://www.redfin.com/AZ/Surprise/20143-N-Cactus-Forest-Dr-85387/home/27369584,33.6673453,-112.4240475
Single Family Residential,17426 W Hermosa Dr,Surprise,AZ,85387,320000,2,2,2167,8319,2002,133,http://www.redfin.com/AZ/Surprise/17426-W-Hermosa-Dr-85387/home/27932205,33.6603017,-112.4335934
Single Family Residential,16780 W DESERT BLOSSOM Way,Surprise,AZ,85387,305000,2,2,1482,6589,2003,125,http://www.redfin.com/AZ/Surprise/16780-W-Desert-Blossom-Way-85387/home/27963638,33.6671655,-112.4197634
Single Family Residential,17967 W Pradera Ln,Surprise,AZ,85387,429000,2,2.5,2539,9900,2003,251,http://www.redfin.com/AZ/Surprise/17967-W-Pradera-Ln-85387/home/27923002,33.6544654,-112.4460496
Single Family Residential,20747 N ENCHANTMENT Dr,Surprise,AZ,85387,439000,3,3,2019,9056,2004,133,http://www.redfin.com/AZ/Surprise/20747-N-Enchantment-Dr-85387/home/28018496,33.6724536,-112.4200894
Single Family Residential,19115 N ALAMEDA Dr,Surprise,AZ,85387,329000,2,1.75,1706,6600,2002,125,http://www.redfin.com/AZ/Surprise/19115-N-Alameda-Dr-85387/home/27318583,33.6584355,-112.4342453
Single Family Residential,19450 N PONDEROSA Ct,Surprise,AZ,85387,444000,2,2,1894,13151,2003,125,http://www.redfin.com/AZ/Surprise/19450-N-Ponderosa-Ct-85387/home/28076002,33.6615853,-112.4295106
Mobile/Manufactured Home,23812 N 191ST Ave,Surprise,AZ,85387,148000,1,,600,48287,1985,0,http://www.redfin.com/AZ/Surprise/23812-N-191st-Ave-85387/home/27563020,33.701742,-112.471022
Single Family Residential,20903 N BARBERRY Ln N,Surprise,AZ,85387,685000,2,2.5,3066,9900,2004,125,http://www.redfin.com/AZ/Surprise/20903-N-Barberry-Ln-85387/home/28074406,33.6740993,-112.414385
Single Family Residential,14711 W PINNACLE VISTA Rd,Surprise,AZ,85387,529900,4,3.5,2605,44569,2006,0,http://www.redfin.com/AZ/Surprise/14711-W-Pinnacle-Vista-Rd-85387/home/28294311,33.7309363,-112.3777138
Single Family Residential,0 N 169th Ave,Surprise,AZ,85387,575000,4,2,2617,48025,2020,0,http://www.redfin.com/AZ/Surprise/N-169th-Ave-85387/home/144110799,33.77113,-112.426918
Single Family Residential,0 W Peak View Rd,Surprise,AZ,85387,680000,4,2.5,2800,207922,2020,0,http://www.redfin.com/AZ/Surprise/0-W-Peak-View-RD-85387/home/169242465,33.746623,-112.409985
Single Family Residential,9731 W Los Gatos Dr,Peoria,AZ,85383,470000,4,3,2223,6127,2015,80,http://www.redfin.com/AZ/Peoria/9731-W-Los-Gatos-Dr-85383/home/95458311,33.6854444,-112.2689289
Single Family Residential,9311 W PARKSIDE Ln,Peoria,AZ,85383,699500,4,3.5,3003,10981,2018,80,http://www.redfin.com/AZ/Peoria/9311-W-Parkside-Ln-85383/home/147877692,33.6918485,-112.2595211
Single Family Residential,10565 W VIA DEL SOL --,Peoria,AZ,85383,314900,3,2,1388,7623,1999,0,http://www.redfin.com/AZ/Peoria/10565-W-Via-Del-Sol-85383/home/27724072,33.6822342,-112.2878829
Single Family Residential,10023 W WIZARD Ln,Peoria,AZ,85383,465000,3,2,2142,8154,2013,70,http://www.redfin.com/AZ/Peoria/10023-W-Wizard-Ln-85383/home/49717669,33.6893322,-112.2750576
Single Family Residential,7726 W LOUISE Dr,Peoria,AZ,85383,432400,4,2.5,2162,7157,2001,40,http://www.redfin.com/AZ/Peoria/7726-W-Louise-Dr-85383/home/27362069,33.6832779,-112.2256644
Single Family Residential,10618 W DALEY Ln,Peoria,AZ,85383,294900,2,2,1358,8050,1999,0,http://www.redfin.com/AZ/Peoria/10618-W-Daley-Ln-85383/home/28127886,33.6905301,-112.2881158
Single Family Residential,22516 N 95TH Dr,Peoria,AZ,85383,395000,3,2,1790,5582,2019,80,http://www.redfin.com/AZ/Peoria/22516-N-95th-Dr-85383/home/147705620,33.689296,-112.264744
Single Family Residential,9266 W LOUISE Dr,Peoria,AZ,85383,720423,4,2.5,2685,10755,2016,85,http://www.redfin.com/AZ/Peoria/9266-W-Louise-Dr-85383/home/120123648,33.6838875,-112.2589233
Single Family Residential,9254 W LOUISE Dr,Peoria,AZ,85383,678569,3,2.5,2519,10982,2017,85,http://www.redfin.com/AZ/Peoria/9254-W-Louise-Dr-85383/home/120123638,33.6839102,-112.258664
Single Family Residential,9244 W LOUISE Dr,Peoria,AZ,85383,694796,4,3.5,3023,10905,2017,85,http://www.redfin.com/AZ/Peoria/9244-W-Louise-Dr-85383/home/120123630,33.683909,-112.2584034
Single Family Residential,8136 W CIELO GRANDE Ave,Peoria,AZ,85383,629000,5,3.5,4707,18455,2000,100,http://www.redfin.com/AZ/Peoria/8136-W-Cielo-Grande-Ave-85383/home/27864152,33.6994806,-112.2336049
Single Family Residential,10144 W EL CORTEZ Pl,Peoria,AZ,85383,630000,5,4,3418,9600,2015,137,http://www.redfin.com/AZ/Peoria/10144-W-El-Cortez-Pl-85383/home/27206876,33.7171475,-112.2775677
Single Family Residential,31071 N 117TH Dr,Peoria,AZ,85383,1159000,4,4.5,4074,18218,2019,188,http://www.redfin.com/AZ/Peoria/31071-N-117th-Dr-85383/home/147863993,33.7643893,-112.3129882
Single Family Residential,30754 N 138TH Ave N,Peoria,AZ,85383,525000,4,3,2537,6959,2014,82,http://www.redfin.com/AZ/Peoria/30754-N-138th-Ave-85383/home/56310066,33.76189,-112.359258
Single Family Residential,25818 N 68TH Ave,Peoria,AZ,85383,435500,4,2.5,2866,7500,2000,26,http://www.redfin.com/AZ/Peoria/25818-N-68th-Ave-85383/home/27819936,33.7202954,-112.206407
Single Family Residential,12717 W AUBURN Dr,Peoria,AZ,85383,549000,2,2.5,2120,7107,2013,259,http://www.redfin.com/AZ/Peoria/12717-W-Auburn-Dr-85383/home/40416075,33.7420007,-112.3341961
Single Family Residential,13165 W CRESTVALE Dr,Peoria,AZ,85383,395990,3,2,1779,6600,2020,72,http://www.redfin.com/AZ/Peoria/13165-W-Crestvale-Dr-85383/home/167817846,33.742543,-112.344273
Single Family Residential,11541 W ASHBY Dr,Peoria,AZ,85383,372990,3,2,1680,5727,2020,86,http://www.redfin.com/AZ/Peoria/11541-W-Ashby-Dr-85383/home/147835040,33.753017,-112.30916
Single Family Residential,28590 N 123RD Ln,Peoria,AZ,85383,379000,2,2,1635,7354,2004,259,http://www.redfin.com/AZ/Peoria/28590-N-123rd-Ln-85383/home/27331598,33.7422147,-112.3279326
Single Family Residential,30800 N 137TH Ln,Peoria,AZ,85383,450000,2,2,1800,5760,2016,86,http://www.redfin.com/AZ/Peoria/30800-N-137th-Ln-85383/home/56310096,33.7622306,-112.357876
Single Family Residential,26127 N 121ST Ave,Peoria,AZ,85383,315000,3,2,1671,4950,2017,50,http://www.redfin.com/AZ/Peoria/26127-N-121st-Ave-85383/home/27355426,33.7211266,-112.3206213
Single Family Residential,12642 W MORNING VISTA Dr,Peoria,AZ,85383,398000,5,3,2725,8069,2005,86,http://www.redfin.com/AZ/Peoria/12642-W-Morning-Vista-Dr-85383/home/28216143,33.7502664,-112.3335674
Single Family Residential,9568 W JJ Ranch Rd,Peoria,AZ,85383,615000,4,3.5,2844,16285,2018,108,http://www.redfin.com/AZ/Peoria/9568-W-Jj-Ranch-Rd-85383/home/145341945,33.7063272,-112.2653875
Single Family Residential,27270 N WHITEHORN Trl,Peoria,AZ,85383,435000,4,2,2561,7776,2004,62,http://www.redfin.com/AZ/Peoria/27270-N-Whitehorn-Trl-85383/home/27648421,33.7319377,-112.2488103
Single Family Residential,29030 N 125TH Ln,Peoria,AZ,85383,285000,3,2.5,1687,2550,2015,174,http://www.redfin.com/AZ/Peoria/29030-N-125th-Ln-85383/home/27448394,33.7470819,-112.3308528
Single Family Residential,28078 N 123RD Ln,Peoria,AZ,85383,624900,2,2.5,2610,8786,2004,259,http://www.redfin.com/AZ/Peoria/28078-N-123rd-Ln-85383/home/27612621,33.7379373,-112.3270943
Single Family Residential,8771 W Brooklite Ln,Peoria,AZ,85383,757628,4,3.5,3752,12000,2020,199,http://www.redfin.com/AZ/Peoria/8771-W-Brooklite-Ln-85383/home/147799120,33.709259,-112.248254
Single Family Residential,6822 W ROWEL Rd,Peoria,AZ,85383,459900,5,3,3272,9081,2000,26,http://www.redfin.com/AZ/Peoria/6822-W-Rowel-Rd-85383/home/27779696,33.7246616,-112.2078973
Single Family Residential,9837 W LARIAT Ln,Peoria,AZ,85383,710000,4,2.5,3199,10430,2016,135,http://www.redfin.com/AZ/Peoria/9837-W-Lariat-Ln-85383/home/105586400,33.722051,-112.2715978
Single Family Residential,8449 W Andrea Dr,Peoria,AZ,85383,425000,4,3,2640,6730,2003,62,http://www.redfin.com/AZ/Peoria/8449-W-Andrea-Dr-85383/home/27304968,33.7251781,-112.2424301
Single Family Residential,29079 N 124TH Dr,Peoria,AZ,85383,310000,3,3,2418,2760,2014,174,http://www.redfin.com/AZ/Peoria/29079-N-124th-Dr-85383/home/27282712,33.7488232,-112.3286194
Single Family Residential,8969 W SIERRA PINTA Dr,Peoria,AZ,85382,378000,2,2,1699,8973,1994,54,http://www.redfin.com/AZ/Peoria/8969-W-Sierra-Pinta-Dr-85382/home/27870972,33.6662234,-112.2514882
Single Family Residential,7211 W KINGS Ave,Peoria,AZ,85382,444900,5,3,2556,6170,2002,46,http://www.redfin.com/AZ/Peoria/7211-W-Kings-Ave-85382/home/27906514,33.6339619,-112.2135092
Single Family Residential,8716 W MEADOW Dr,Peoria,AZ,85382,270000,3,2,1332,3610,1988,0,http://www.redfin.com/AZ/Peoria/8716-W-Meadow-Dr-85382/home/28062369,33.6433728,-112.2468544
Single Family Residential,20450 N 92ND Ln,Peoria,AZ,85382,384990,4,2.5,2403,6007,2000,45,http://www.redfin.com/AZ/Peoria/20450-N-92nd-Ln-85382/home/27816454,33.6703304,-112.2579848
Single Family Residential,7313 W MONTE CRISTO Ave,Peoria,AZ,85382,399000,4,4,2200,6030,2012,126,http://www.redfin.com/AZ/Peoria/7313-W-Monte-Cristo-Ave-85382/home/27069883,33.6311954,-112.2160707
Single Family Residential,8633 W GROVERS Ave,Peoria,AZ,85382,324900,3,2,1991,7300,1991,4,http://www.redfin.com/AZ/Peoria/8633-W-Grovers-Ave-85382/home/28022148,33.6448783,-112.2458065
Townhouse,9447 W MORROW Dr,Peoria,AZ,85382,290000,2,2,1938,215,1984,294,http://www.redfin.com/AZ/Peoria/9447-W-Morrow-Dr-85382/home/27899289,33.6539209,-112.263664
Single Family Residential,8931 W LONE CACTUS Dr,Peoria,AZ,85382,389900,4,2,1984,6438,1998,40,http://www.redfin.com/AZ/Peoria/8931-W-Lone-Cactus-Dr-85382/home/27492741,33.6781546,-112.252047
Single Family Residential,9173 W ROSS Ave,Peoria,AZ,85382,279900,3,2,1272,5770,1999,45,http://www.redfin.com/AZ/Peoria/9173-W-Ross-Ave-85382/home/27748630,33.6735763,-112.2564014
Townhouse,18837 N 94TH Ave,Peoria,AZ,85382,354900,2,2,1483,202,1986,289,http://www.redfin.com/AZ/Peoria/18837-N-94th-Ave-85382/home/28195776,33.656069,-112.262663
Single Family Residential,10630 W POTTER Dr,Peoria,AZ,85382,249000,2,2,1176,6310,1999,106,http://www.redfin.com/AZ/Peoria/10630-W-Potter-Dr-85382/home/28298373,33.6733275,-112.2880226
Single Family Residential,8784 W Fargo Dr,Peoria,AZ,85382,329900,3,2,2048,7320,1995,0,http://www.redfin.com/AZ/Peoria/8784-W-Fargo-Dr-85382/home/27791594,33.6294382,-112.2476461
Mobile/Manufactured Home,7001 W PATRICIA ANN Ln,Peoria,AZ,85382,140000,2,2,1345,8451,1972,0,http://www.redfin.com/AZ/Peoria/7001-W-Patricia-Ann-Ln-85382/home/27229438,33.629055,-112.2091315
Single Family Residential,7321 W PHELPS Rd,Peoria,AZ,85382,399000,3,2.5,2250,3600,2019,96,http://www.redfin.com/AZ/Peoria/7321-W-Phelps-Rd-85382/home/167679708,33.634836,-112.216179
Single Family Residential,9017 W YUKON Dr,Peoria,AZ,85382,479000,5,3.5,4011,7259,2001,52,http://www.redfin.com/AZ/Peoria/9017-W-Yukon-Dr-85382/home/28055617,33.6680802,-112.252536
Single Family Residential,10391 W RUNION Dr,Peoria,AZ,85382,275000,3,2,1734,4950,2000,106,http://www.redfin.com/AZ/Peoria/10391-W-Runion-Dr-85382/home/27918437,33.669896,-112.2837848
Single Family Residential,20508 N 90TH Ln,Peoria,AZ,85382,365000,3,2,1770,5988,2002,52,http://www.redfin.com/AZ/Peoria/20508-N-90th-Ln-85382/home/27770137,33.6716189,-112.2546783
Single Family Residential,7467 W MARY JANE Ln,Peoria,AZ,85382,480000,5,3.5,4032,11680,2000,64,http://www.redfin.com/AZ/Peoria/7467-W-Mary-Jane-Ln-85382/home/27796779,33.6265102,-112.2194471
Single Family Residential,19833 N 90TH Ave,Peoria,AZ,85382,336900,2,2,1495,403,1993,314,http://www.redfin.com/AZ/Peoria/19833-N-90th-Ave-85382/home/27282276,33.664488,-112.251369
Mobile/Manufactured Home,6935 W ZOE ELLA Way,Peoria,AZ,85382,150000,3,2,1344,9640,1973,0,http://www.redfin.com/AZ/Peoria/6935-W-Zoe-Ella-Way-85382/home/27228467,33.6256234,-112.2083863
Townhouse,8826 W RIMROCK Dr,Peoria,AZ,85382,365000,2,2,1495,397,1992,334,http://www.redfin.com/AZ/Peoria/8826-W-Rimrock-Dr-85382/home/27345029,33.663528,-112.250294
Mobile/Manufactured Home,16007 N 70TH Ln,Peoria,AZ,85382,188000,3,2,1400,8272,1973,0,http://www.redfin.com/AZ/Peoria/16007-N-70th-Ln-85382/home/28142523,33.6310053,-112.2101328
Mobile/Manufactured Home,16021 N 69th Ln,Peoria,AZ,85382,160000,3,2,960,8451,1973,0,http://www.redfin.com/AZ/Peoria/16021-N-69th-Ln-85382/home/27572292,33.6315102,-112.2077811
Condo/Co-op,7905 W THUNDERBIRD Rd #316,Peoria,AZ,85381,149900,1,1,560,0,1984,187,http://www.redfin.com/AZ/Peoria/7905-W-Thunderbird-Rd-85381/unit-316/home/28018697,33.6094623,-112.2293828
Single Family Residential,8422 W DREYFUS Dr,Peoria,AZ,85381,323000,4,2,1673,6991,1989,0,http://www.redfin.com/AZ/Peoria/8422-W-Dreyfus-Dr-85381/home/27539858,33.6036117,-112.2405673
Single Family Residential,7517 W CORRINE Dr,Peoria,AZ,85381,345000,4,2,2078,8681,1993,0,http://www.redfin.com/AZ/Peoria/7517-W-Corrine-Dr-85381/home/27516134,33.5996282,-112.2210306
Single Family Residential,8026 W CHARTER OAK Rd,Peoria,AZ,85381,339000,4,3,1816,9004,1985,0,http://www.redfin.com/AZ/Peoria/8026-W-Charter-Oak-Rd-85381/home/27353863,33.5971392,-112.2323707
Townhouse,9013 W PORT ROYALE Ln,Peoria,AZ,85381,335000,2,2,1319,3014,1994,275,http://www.redfin.com/AZ/Peoria/9013-W-Port-Royale-Ln-85381/home/27668985,33.619964,-112.252644
Single Family Residential,13825 N 74TH Ave,Peoria,AZ,85381,1099900,4,4.5,4596,18007,2015,250,http://www.redfin.com/AZ/Peoria/13825-N-74th-Ave-85381/home/28593809,33.6119435,-112.217398
Single Family Residential,13651 N 82ND Ave,Peoria,AZ,85381,339900,4,3,2070,4953,1995,0,http://www.redfin.com/AZ/Peoria/13651-N-82nd-Ave-85381/home/27545401,33.6080037,-112.2342336
Single Family Residential,7583 W BLOOMFIELD Rd,Peoria,AZ,85381,324000,4,2.5,2050,3863,2010,55,http://www.redfin.com/AZ/Peoria/7583-W-Bloomfield-Rd-85381/home/27194761,33.597756,-112.2221483
Single Family Residential,13263 N 76TH Dr,Peoria,AZ,85381,325000,3,3,1772,8303,1986,0,http://www.redfin.com/AZ/Peoria/13263-N-76th-Dr-85381/home/27617405,33.6056625,-112.2232893
Single Family Residential,8439 W LARKSPUR Dr,Peoria,AZ,85381,272000,3,2,1152,10228,1985,0,http://www.redfin.com/AZ/Peoria/8439-W-Larkspur-Dr-85381/home/26995996,33.59895,-112.2414987
Single Family Residential,6803 W EVANS Dr,Peoria,AZ,85381,624900,3,2,2552,48695,1984,0,http://www.redfin.com/AZ/Peoria/6803-W-Evans-Dr-85381/home/28196338,33.6165407,-112.204451
Single Family Residential,6826 W CHARTER OAK Rd,Peoria,AZ,85381,330000,4,2,1847,6048,2015,55,http://www.redfin.com/AZ/Peoria/6826-W-Charter-Oak-Rd-85381/home/110189082,33.5978386,-112.205266
Single Family Residential,8013 W Caribbean Ln,Peoria,AZ,85381,489000,4,2.5,3131,10000,1998,76,http://www.redfin.com/AZ/Peoria/8013-W-Caribbean-Ln-85381/home/28070673,33.6238735,-112.2313667
Single Family Residential,7732 W CALAVAR Rd,Peoria,AZ,85381,565000,6,3.5,3243,10123,1989,0,http://www.redfin.com/AZ/Peoria/7732-W-Calavar-Rd-85381/home/27841460,33.6119033,-112.2247796
Single Family Residential,9175 W BOCA RATON Rd,Peoria,AZ,85381,299995,3,2,1304,9898,1996,67,http://www.redfin.com/AZ/Peoria/9175-W-Boca-Raton-Rd-85381/home/27638420,33.6100492,-112.2568671
Single Family Residential,7035 W COUNTRY GABLES Dr,Peoria,AZ,85381,550000,3,2,1820,47381,1975,0,http://www.redfin.com/AZ/Peoria/7035-W-Country-Gables-Dr-85381/home/27229452,33.6210361,-112.2102492
Single Family Residential,7116 W CALAVAR Rd,Peoria,AZ,85381,565125,3,2.5,2800,10206,2020,148,http://www.redfin.com/AZ/Peoria/7116-W-Calavar-Rd-85381/home/167584129,33.611696,-112.211707
Single Family Residential,15995 N 74TH Ln,Peoria,AZ,85381,334900,3,2.5,1975,3500,2020,125,http://www.redfin.com/AZ/Peoria/15995-N-74th-Ln-85381/home/172494306,33.6225651,-112.2192469
Single Family Residential,15989 N 74TH Ln,Peoria,AZ,85381,344900,4,2.5,1975,3500,2020,125,http://www.redfin.com/AZ/Peoria/15989-N-74th-Ln-85381/home/172494282,33.6225651,-112.2192469
Single Family Residential,15939 N 74TH Ln,Peoria,AZ,85381,362400,4,3,2196,3488,2020,125,http://www.redfin.com/AZ/Peoria/15939-N-74th-Ln-85381/home/172494028,33.6225651,-112.2192469
Single Family Residential,15983 N 74TH Ln,Peoria,AZ,85381,324900,3,2.5,1808,3740,2020,125,http://www.redfin.com/AZ/Peoria/15983-N-74th-Ln-85381/home/172494027,33.6225651,-112.2192469
Single Family Residential,15977 N 74TH Ln,Peoria,AZ,85381,344900,4,2.5,1975,3500,2020,125,http://www.redfin.com/AZ/Peoria/15977-N-74th-Ln-85381/home/172493981,33.6225651,-112.2192469
Single Family Residential,15205 W WETHERSFIELD Rd,Surprise,AZ,85379,565000,5,5,3505,12743,2012,117,http://www.redfin.com/AZ/Surprise/15205-W-Wethersfield-Rd-85379/home/28416460,33.5955443,-112.3857253
Single Family Residential,11794 N 161ST Ave,Surprise,AZ,85379,495000,3,2,2309,9000,2013,75,http://www.redfin.com/AZ/Surprise/11794-N-161st-Ave-85379/home/28385306,33.5914654,-112.4060031
Single Family Residential,15826 W MERCER Ln,Surprise,AZ,85379,450000,4,3,3905,8999,2005,66,http://www.redfin.com/AZ/Surprise/15826-W-Mercer-Ln-85379/home/28324647,33.5841558,-112.4011244
Single Family Residential,11580 N 162ND Ln,Surprise,AZ,85379,320000,3,2,2085,7197,2015,75,http://www.redfin.com/AZ/Surprise/11580-N-162nd-Ln-85379/home/28359934,33.5895125,-112.409184
Single Family Residential,14876 W HEARN Rd,Surprise,AZ,85379,239900,3,2,1248,5520,2003,65,http://www.redfin.com/AZ/Surprise/14876-W-Hearn-Rd-85379/home/26863905,33.6135003,-112.3801353
Single Family Residential,14380 W JENAN Dr,Surprise,AZ,85379,439900,4,3.5,2950,9375,2005,98,http://www.redfin.com/AZ/Surprise/14380-W-Jenan-Dr-85379/home/27501718,33.5913637,-112.3702397
Single Family Residential,14326 W CHOLLA St,Surprise,AZ,85379,550000,6,4.5,4111,9375,2006,98,http://www.redfin.com/AZ/Surprise/14326-W-Cholla-St-85379/home/27772592,33.5891306,-112.3684776
Single Family Residential,12676 N 153RD Ave,Surprise,AZ,85379,635000,4,3.5,3416,14400,2017,117,http://www.redfin.com/AZ/Surprise/12676-N-153rd-Ave-85379/home/27308014,33.5993505,-112.3890761
Single Family Residential,14860 N 135TH Ln,Surprise,AZ,85379,415000,4,3,3409,7245,2004,50,http://www.redfin.com/AZ/Surprise/14860-N-135th-Ln-85379/home/27315199,33.6188739,-112.3522935
Single Family Residential,14860 W ALEXANDRIA Way,Surprise,AZ,85379,365000,4,2.5,2567,8113,2014,117,http://www.redfin.com/AZ/Surprise/14860-W-Alexandria-Way-85379/home/28416116,33.6066835,-112.3795299
Single Family Residential,14940 W GEORGIA Dr,Surprise,AZ,85379,299999,3,2,1766,5400,2013,117,http://www.redfin.com/AZ/Surprise/14940-W-Georgia-Dr-85379/home/39965768,33.6090151,-112.3817884
Single Family Residential,15644 W Cameron Dr,Surprise,AZ,85379,433807,4,2.5,3024,7338,2007,75,http://www.redfin.com/AZ/Surprise/15644-W-Cameron-Dr-85379/home/27335965,33.5887088,-112.3970288
Single Family Residential,14220 N 133RD Dr,Surprise,AZ,85379,299900,4,2,2038,7746,2001,36,http://www.redfin.com/AZ/Surprise/14220-N-133rd-Dr-85379/home/27851254,33.6127981,-112.3470722
Single Family Residential,15444 W CHRISTY Dr,Surprise,AZ,85379,550000,5,3.5,4464,15500,2005,83,http://www.redfin.com/AZ/Surprise/15444-W-Christy-Dr-85379/home/27441891,33.5828395,-112.3924057
Single Family Residential,14843 N 142ND Ave,Surprise,AZ,85379,379000,5,3,4068,8432,2005,55,http://www.redfin.com/AZ/Surprise/14843-N-142nd-Ave-85379/home/28128976,33.6186575,-112.365669
Single Family Residential,15998 W DESERT MIRAGE Dr,Surprise,AZ,85379,369900,5,3,3451,6380,2007,66,http://www.redfin.com/AZ/Surprise/15998-W-Desert-Mirage-Dr-85379/home/28277113,33.5848154,-112.4038611
Single Family Residential,14602 W ASTER Dr,Surprise,AZ,85379,342990,3,2,1680,6000,2020,117,http://www.redfin.com/AZ/Surprise/14602-W-Aster-Dr-85379/home/167816753,33.6008178,-112.3742557
Single Family Residential,15416 W MESCAL St,Surprise,AZ,85379,304999,4,2.5,2336,5520,2003,55,http://www.redfin.com/AZ/Surprise/15416-W-Mescal-St-85379/home/27980831,33.585727,-112.3904266
Single Family Residential,14634 W ASTER Dr,Surprise,AZ,85379,340990,3,2,1680,6000,2020,117,http://www.redfin.com/AZ/Surprise/14634-Aster-Dr-85379/home/120104586,33.6008155,-112.3749125
Single Family Residential,15025 W ASTER Dr,Surprise,AZ,85379,290000,3,2,2137,7245,2004,50,http://www.redfin.com/AZ/Surprise/15025-W-Aster-Dr-85379/home/28016562,33.6007805,-112.3831886
Single Family Residential,11925 N 143RD Dr,Surprise,AZ,85379,495000,3,3.5,4242,9376,2005,98,http://www.redfin.com/AZ/Surprise/11925-N-143rd-Dr-85379/home/27609251,33.5920916,-112.369029
Single Family Residential,14316 W ST MORITZ Ln,Surprise,AZ,85379,440000,5,3,3521,9450,2005,65,http://www.redfin.com/AZ/Surprise/14316-W-St-Moritz-Ln-85379/home/28129724,33.6168679,-112.3688427
Single Family Residential,14518 W PORT ROYALE Ln,Surprise,AZ,85379,277000,3,2.5,1754,3701,2007,65,http://www.redfin.com/AZ/Surprise/14518-W-Port-Royale-Ln-85379/home/28380075,33.6211245,-112.3718929
Single Family Residential,14603 W HOPE Dr,Surprise,AZ,85379,625000,4,2.5,4255,43054,2004,98,http://www.redfin.com/AZ/Surprise/14603-W-Hope-Dr-85379/home/28329596,33.584811,-112.3754553
Single Family Residential,14351 W CAMERON Dr,Surprise,AZ,85379,487000,4,3.5,4242,9375,2006,98,http://www.redfin.com/AZ/Surprise/14351-W-Cameron-Dr-85379/home/28212150,33.5894345,-112.369029
Single Family Residential,15623 W SIERRA St,Surprise,AZ,85379,410000,4,3.5,3950,7511,2014,75,http://www.redfin.com/AZ/Surprise/15623-W-Sierra-St-85379/home/27824325,33.5896891,-112.3960146
Single Family Residential,14424 W ST MORITZ Ln,Surprise,AZ,85379,419900,5,3,3521,9445,2004,65,http://www.redfin.com/AZ/Surprise/14424-W-St-Moritz-Ln-85379/home/27484808,33.6171539,-112.3707978
Single Family Residential,15647 W SIERRA St,Surprise,AZ,85379,379500,5,3,3225,7511,2014,75,http://www.redfin.com/AZ/Surprise/15647-W-Sierra-St-85379/home/27824321,33.5897789,-112.3966614
Single Family Residential,13887 N 148TH Ln N,Surprise,AZ,85379,240000,3,2,1190,5665,2003,65,http://www.redfin.com/AZ/Surprise/13887-N-148th-Ln-85379/home/27334423,33.6107248,-112.3796696
Single Family Residential,13429 N 151ST Dr,Surprise,AZ,85379,290000,4,3,2349,4125,2005,215,http://www.redfin.com/AZ/Surprise/13429-N-151st-Dr-85379/home/28132653,33.606253,-112.385348
Single Family Residential,12802 N 145TH Ln,Surprise,AZ,85379,368490,3,3,1953,6600,2020,117,http://www.redfin.com/AZ/Surprise/12802-N-145th-Ln-85379/home/167816788,33.6002478,-112.3741543
Single Family Residential,14082 W SURREY Dr,Surprise,AZ,85379,361390,5,3,2377,5310,2020,98,http://www.redfin.com/AZ/Surprise/14082-W-Surrey-Dr-85379/home/170102334,33.603965,-112.363131
Single Family Residential,14329 W LISBON Ln,Surprise,AZ,85379,425000,5,3,3521,9859,2004,65,http://www.redfin.com/AZ/Surprise/14329-W-Lisbon-Ln-85379/home/28052006,33.6172776,-112.3693084
Single Family Residential,14223 W VOLTAIRE St,Surprise,AZ,85379,282490,3,2,1325,3600,2020,98,http://www.redfin.com/AZ/Surprise/14223-W-Voltaire-St-85379/home/170102167,33.607832,-112.366452
Single Family Residential,16713 N 113TH Dr,Surprise,AZ,85378,199900,2,2,883,4410,2000,50,http://www.redfin.com/AZ/Surprise/16713-N-113th-Dr-85378/home/27798497,33.6353352,-112.3039029
Single Family Residential,11526 W SONORAN Ct,Surprise,AZ,85378,292000,3,2,1672,8251,1998,25,http://www.redfin.com/AZ/Surprise/11526-W-Sonoran-Ct-85378/home/26976768,33.65399,-112.3083037
