SALE TYPE,SOLD DATE,PROPERTY TYPE,ADDRESS,CITY,STATE OR PROVINCE,ZIP OR POSTAL CODE,PRICE,BEDS,BATHS,LOCATION,SQUARE FEET,LOT SIZE,YEAR BUILT,DAYS ON MARKET,$/SQUARE FEET,HOA/MONTH,STATUS,NEXT OPEN HOUSE START TIME,NEXT OPEN HOUSE END TIME,URL (SEE http://www.redfin.com/buy-a-home/comparative-market-analysis FOR INFO ON PRICING),SOURCE,MLS#,FAVORITE,INTERESTED,LATITUDE,LONGITUDE
MLS Listing,,Condo/Co-op,901 Bayshore Blvd #308,San Francisco,CA,94124,196842,1,1.0,Silver Terrace,530,,2003,88,371,382,Active,,,http://www.redfin.com/CA/San-Francisco/901-Bayshore-Blvd-94124/unit-308/home/12402033,San Francisco MLS,497735,N,Y,37.732633,-122.4042121
MLS Listing,,Condo/Co-op,901 Bayshore Blvd #206,San Francisco,CA,94124,240000,1,1.0,Silver Terrace,506,,2003,88,474,374,Active,,,http://www.redfin.com/CA/San-Francisco/901-Bayshore-Blvd-94124/unit-206/home/12402030,San Francisco MLS,497737,N,Y,37.732633,-122.4042121
MLS Listing,,Condo/Co-op,1220 La Playa St #206,San Francisco,CA,94122,275800,1,1.0,Outer Sunset,606,,1961,55,455,257,Active,,,http://www.redfin.com/CA/San-Francisco/1220-La-Playa-St-94122/unit-206/home/1619696,San Francisco MLS,499430,N,Y,37.763504,-122.5090359
MLS Listing,,Condo/Co-op,1400 Mission St #310,San Francisco,CA,94103,335920,1,1.0,South of Market,631,,2015,14,532,435,Active,,,http://www.redfin.com/CA/San-Francisco/1400-Mission-St-94103/unit-310/home/109315221,San Francisco MLS,499135,N,Y,37.7752826,-122.4164899
MLS Listing,,Condo/Co-op,83 Mcallister St #310,San Francisco,CA,94102,349900,0,1.0,San Francisco,264,,2007,1,1325,390,Active,,,http://www.redfin.com/CA/San-Francisco/83-McAllister-St-94102/unit-310/home/21967093,"bridgeMLS, Bay East AOR, or Contra Costa AOR",40915211,N,Y,37.7806999,-122.4132699
MLS Listing,,Condo/Co-op,1400 Mission St #906,San Francisco,CA,94103,355072,1,1.0,South of Market,635,,2015,26,559,436,Active,,,http://www.redfin.com/CA/San-Francisco/1400-Mission-St-94103/unit-906/home/109315192,San Francisco MLS,501286,N,Y,37.7752826,-122.4164899
MLS Listing,,Condo/Co-op,380 14th St #205,San Francisco,CA,94103,366537,1,1.0,Inner Mission,455,,2012,2,806,571,Active,,,http://www.redfin.com/CA/San-Francisco/380-14th-St-94103/unit-205/home/40625774,San Francisco MLS,502888,N,Y,37.7683409,-122.4217428
MLS Listing,,Condo/Co-op,55 Page St #315,SAN FRANCISCO,CA,94102,371490,1,1.0,SAN FRANCISCO,750,,2008,21,495,542,Active,,,http://www.redfin.com/CA/San-Francisco/55-Page-St-94102/unit-315/home/17304804,MLSListings,ML81801001,N,Y,37.7738899,-122.4218771
MLS Listing,,Condo/Co-op,1160 Mission St #809,San Francisco,CA,94103,372540,1,1.0,South of Market,764,,2008,7,488,781,Active,,,http://www.redfin.com/CA/San-Francisco/1160-Mission-St-94103/unit-809/home/17304458,San Francisco MLS,502563,N,Y,37.7787037,-122.4126341
MLS Listing,,Condo/Co-op,1400 Mission St #313,San Francisco,CA,94103,376375,2,2.0,South of Market,940,,2015,8,400,523,Active,,,http://www.redfin.com/CA/San-Francisco/1400-Mission-St-94103/unit-313/home/109278528,San Francisco MLS,502143,N,Y,37.7752826,-122.4164899
MLS Listing,,Condo/Co-op,855 Folsom St #941,San Francisco,CA,94107,395000,0,1.0,Yerba Buena,503,,2001,208,785,479,Active,,,http://www.redfin.com/CA/San-Francisco/855-Folsom-St-94107/unit-941/home/12397900,San Francisco MLS,493168,N,Y,37.7807672,-122.4021418
MLS Listing,,Condo/Co-op,776 Tehama St #9,San Francisco,CA,94103,398000,1,1.0,South of Market,418,,2006,204,952,533,Active,,,http://www.redfin.com/CA/San-Francisco/776-Tehama-St-94103/unit-9/home/22886346,San Francisco MLS,493637,N,Y,37.775022,-122.4124606
MLS Listing,,Condo/Co-op,1535 Buchanan St #5,San Francisco,CA,94115,399000,3,2.0,Lower Pacific Height,1050,,,18,380,959,Active,,,http://www.redfin.com/CA/San-Francisco/1535-Buchanan-St-94115/unit-5/home/12401127,San Francisco MLS,501324,N,Y,37.784068,-122.4301069
MLS Listing,,Condo/Co-op,666 Post St #904,San Francisco,CA,94109,400000,1,1.0,Downtown,775,,1926,179,516,934,Active,,,http://www.redfin.com/CA/San-Francisco/666-Post-St-94109/unit-904/home/12400764,San Francisco MLS,494683,N,Y,37.7879056,-122.4129007
MLS Listing,,Condo/Co-op,520 Natoma St #11,San Francisco,CA,94103,410000,0,1.0,South of Market,350,,1911,49,1171,404,Active,,,http://www.redfin.com/CA/San-Francisco/520-Natoma-St-94103/unit-11/home/172079691,San Francisco MLS,499799,N,Y,37.779856,-122.4083003
MLS Listing,,Condo/Co-op,195 7th St #309,San Francisco,CA,94103,425000,0,1.0,South of Market,,,1991,46,,370,Active,,,http://www.redfin.com/CA/San-Francisco/195-7th-St-94103/unit-309/home/1272601,San Francisco MLS,499890,N,Y,37.7782751,-122.4094319
MLS Listing,,Condo/Co-op,1415 Indiana St #202,San Francisco,CA,94107,431873,1,1.0,Central Waterfront,1459,,2000,36,296,767,Active,,,http://www.redfin.com/CA/San-Francisco/1415-Indiana-St-94107/unit-202/home/12396884,San Francisco MLS,500481,N,Y,37.75236,-122.3901722
MLS Listing,,Vacant Land,000 Avenue Balboa,EL GRANADA,CA,94018,444000,,,EL GRANADA,,5000,,413,,,Active,,,http://www.redfin.com/CA/El-Granada/Avenue-Balboa-94019/home/167106425,MLSListings,ML81757031,N,Y,37.772385,-122.439064
MLS Listing,,Condo/Co-op,1155 Leavenworth St #2,San Francisco,CA,94109,449000,0,1.0,Nob Hill,305,,1911,66,1472,360,Active,,,http://www.redfin.com/CA/San-Francisco/1155-Leavenworth-St-94109/unit-2/home/102819850,San Francisco MLS,498886,N,Y,37.7919759,-122.4161542
MLS Listing,,Condo/Co-op,766 Harrison St #403,San Francisco,CA,94107,449000,0,1.0,Yerba Buena,,,2008,6,,281,Active,,,http://www.redfin.com/CA/San-Francisco/766-Harrison-St-94107/unit-403/home/39915205,San Francisco MLS,502418,N,Y,37.7816504,-122.3991169
MLS Listing,,Condo/Co-op,83 McAllister St #109,San Francisco,CA,94102,449000,1,1.0,Van Ness/Civic Center,398,,2007,18,1128,427,Active,,,http://www.redfin.com/CA/San-Francisco/83-McAllister-St-94102/unit-109/home/12277380,San Francisco MLS,501859,N,Y,37.7806999,-122.4132699
MLS Listing,,Condo/Co-op,501 Beale St Unit 11F,San Francisco,CA,94105,449449,2,1.0,South Beach,852,,2006,29,528,1044,Active,,,http://www.redfin.com/CA/San-Francisco/501-Beale-St-94105/unit-11F/home/22854534,San Francisco MLS,500893,N,Y,37.7862533,-122.3891164
MLS Listing,,Condo/Co-op,2363 Larkin St #1,San Francisco,CA,94109,453854,1,1.0,Russian Hill,617,,1923,6,736,680,Active,,,http://www.redfin.com/CA/San-Francisco/2363-Larkin-St-94109/unit-1/home/1243585,San Francisco MLS,498049,N,Y,37.799705,-122.4211375
MLS Listing,,Condo/Co-op,601 Van Ness Ave #328,San Francisco,CA,94102,459000,0,1.0,Van Ness/Civic Center,470,,1982,74,977,820,Active,,,http://www.redfin.com/CA/San-Francisco/601-Van-Ness-Ave-94102/unit-328/home/1948245,San Francisco MLS,498577,N,Y,37.7813857,-122.4214063
MLS Listing,,Condo/Co-op,766 Harrison St #201,San Francisco,CA,94107,469000,0,1.0,Yerba Buena,425,,2008,1,1104,281,Active,,,http://www.redfin.com/CA/San-Francisco/766-Harrison-St-94107/unit-201/home/40142658,San Francisco MLS,502955,N,Y,37.7816504,-122.3991169
MLS Listing,,Condo/Co-op,1373 A Masonic Ave,San Francisco,CA,94117,469000,0,1.0,San Francisco County,380,,1906,18,1234,75,Active,,,http://www.redfin.com/CA/San-Francisco/1373A-Masonic-Ave-94117/unit-A/home/172516007,BAREIS,22016524,N,Y,37.767966,-122.445143
MLS Listing,,Condo/Co-op,55 Red Rock Way Unit 110O,San Francisco,CA,94131,489000,0,1.0,Diamond Heights,474,,1972,39,1032,491,Active,,,http://www.redfin.com/CA/San-Francisco/55-Red-Rock-Way-94131/unit-110O/home/1284154,San Francisco MLS,500321,N,Y,37.7459864,-122.4410176
MLS Listing,,Condo/Co-op,1441 Jones St #301,San Francisco,CA,94109,489560,1,1.0,Nob Hill,938,,1916,25,522,807,Active,,,http://www.redfin.com/CA/San-Francisco/1441-Jones-St-94109/unit-301/home/1226209,San Francisco MLS,500731,N,Y,37.7945639,-122.4151035
MLS Listing,,Condo/Co-op,725 Pine St #306,SAN FRANCISCO,CA,94108,495000,0,1.0,SAN FRANCISCO,354,,1920,94,1398,619,Active,,,http://www.redfin.com/CA/San-Francisco/725-Pine-St-94108/unit-306/home/17305249,MLSListings,ML81791047,N,Y,37.7910138,-122.4076967
MLS Listing,,Condo/Co-op,15 Red Rock Way Unit 210N,SAN FRANCISCO,CA,94131,499000,0,1.0,SAN FRANCISCO,474,,1972,30,1053,520,Active,,,http://www.redfin.com/CA/San-Francisco/15-Red-Rock-Way-94131/unit-210N/home/1536247,MLSListings,ML81799646,N,Y,37.7464971,-122.4409269
MLS Listing,,Condo/Co-op,750 Van Ness Ave #604,San Francisco,CA,94102,499000,0,1.0,Van Ness/Civic Center,,,2008,59,,610,Active,,,http://www.redfin.com/CA/San-Francisco/750-Van-Ness-Ave-94102/unit-604/home/17305208,San Francisco MLS,499038,N,Y,37.7823788,-122.4201632
MLS Listing,,Condo/Co-op,201 Harrison St #600,San Francisco,CA,94105,499000,0,1.0,South Beach,432,,1991,75,1155,575,Active,,,http://www.redfin.com/CA/San-Francisco/201-Harrison-St-94105/unit-600/home/727121,San Francisco MLS,498554,N,Y,37.7875875,-122.3904715
Redfin Data,,Condo/Co-op,201 Harrison St #108,San Francisco,CA,94105,499000,0,1.0,San Francisco,347,,1991,15,1438,563,Pre On-Market,,,http://www.redfin.com/CA/San-Francisco/201-Harrison-St-94105/unit-108/home/1960910,Coming Soon,59693,N,Y,37.7875875,-122.3904715
MLS Listing,,Condo/Co-op,601 Van Ness Ave #728,San Francisco,CA,94102,499000,0,1.0,Van Ness/Civic Center,490,,1982,10,1018,820,Active,,,http://www.redfin.com/CA/San-Francisco/601-Van-Ness-Ave-94102/unit-728/home/1483740,San Francisco MLS,502404,N,Y,37.7813857,-122.4214063
MLS Listing,,Condo/Co-op,323 29th St Unit C101,San Francisco,CA,94131,499500,2,1.0,Noe Valley,610,,1922,286,819,515,Active,,,http://www.redfin.com/CA/San-Francisco/323-29th-St-94131/unit-C101/home/1615871,San Francisco MLS,491432,N,Y,37.7433749,-122.4274672
MLS Listing,,Condo/Co-op,83 McAllister St #204,San Francisco,CA,94102,500000,1,1.0,Van Ness/Civic Center,408,,2007,25,1225,430,Active,,,http://www.redfin.com/CA/San-Francisco/83-McAllister-St-94102/unit-204/home/21967095,San Francisco MLS,495513,N,Y,37.7806999,-122.4132699
MLS Listing,,Condo/Co-op,750 Van Ness Ave #302,San Francisco,CA,94102,515000,0,1.0,Van Ness/Civic Center,391,,2008,85,1317,621,Active,,,http://www.redfin.com/CA/San-Francisco/750-Van-Ness-Ave-94102/unit-302/home/17305210,San Francisco MLS,496672,N,Y,37.7823788,-122.4201632
MLS Listing,,Condo/Co-op,725 Pine St #203,San Francisco,CA,94108,515000,0,1.0,Downtown,,,1920,69,,618,Active,,,http://www.redfin.com/CA/San-Francisco/725-Pine-St-94108/unit-203/home/17306983,San Francisco MLS,498794,N,Y,37.7910138,-122.4076967
MLS Listing,,Condo/Co-op,201 Harrison #122,San Francisco,CA,94105,519000,0,1.0,Soma,347,,1991,61,1496,563,Active,,,http://www.redfin.com/CA/San-Francisco/201-Harrison-St-94105/unit-122/home/1791736,"bridgeMLS, Bay East AOR, or Contra Costa AOR",40907258,N,Y,37.7875875,-122.3904715
MLS Listing,,Single Family Residential,450 Fell St,San Francisco,CA,94102,539000,1,1.0,San Francisco,466,1398,1900,21,1157,575,Active,,,http://www.redfin.com/CA/San-Francisco/450-Fell-St-94102/home/172494457,"bridgeMLS, Bay East AOR, or Contra Costa AOR",40912316,N,Y,37.7757544,-122.4253228
MLS Listing,,Condo/Co-op,446-452 Fell St #450,San Francisco,CA,94102,539000,1,1.0,Hayes Valley,466,,1900,25,1157,575,Active,,,http://www.redfin.com/CA/San-Francisco/446-Fell-St-94102/unit-450/home/12298192,San Francisco MLS,501361,N,Y,37.775798,-122.425287
MLS Listing,,Condo/Co-op,388 Fulton St #607,SAN FRANCISCO,CA,94102,549000,0,1.0,SAN FRANCISCO,371,,2016,58,1480,446,Active,,,http://www.redfin.com/CA/San-Francisco/388-Fulton-St-94102/unit-607/home/111102349,MLSListings,ML81795671,N,Y,37.7790409,-122.4231102
MLS Listing,,Condo/Co-op,99 Rausch St #320,San Francisco,CA,94103,549000,0,1.0,South of Market,,,2017,40,,515,Active,,,http://www.redfin.com/CA/San-Francisco/99-Rausch-St-94103/unit-320/home/145368141,San Francisco MLS,500222,N,Y,37.7762348,-122.4090223
MLS Listing,,Condo/Co-op,601 Van Ness Ave #448,San Francisco,CA,94102,555600,0,1.0,Van Ness/Civic Center,,,1982,138,,820,Active,,,http://www.redfin.com/CA/San-Francisco/601-Van-Ness-Ave-94102/unit-448/home/578773,San Francisco MLS,496233,N,Y,37.7813857,-122.4214063
MLS Listing,,Condo/Co-op,15 Red Rock Way Unit 205N,San Francisco,CA,94131,559000,0,1.0,Diamond Heights,650,,1972,4,860,491,Active,,,http://www.redfin.com/CA/San-Francisco/15-Red-Rock-Way-94131/unit-205N/home/1656574,San Francisco MLS,502718,N,Y,37.7464971,-122.4409269
MLS Listing,,Condo/Co-op,1075 Market St #211,SAN FRANCISCO,CA,94103,569998,0,1.0,SAN FRANCISCO,423,,2018,34,1348,626,Active,,,http://www.redfin.com/CA/San-Francisco/1075-Market-St-94103/unit-211/home/146122166,MLSListings,ML81799086,N,Y,37.7807996,-122.4118342
MLS Listing,,Condo/Co-op,631 Ofarrell St #507,San Francisco,CA,94109,570000,0,1.0,Downtown,520,,1930,123,1096,586,Active,,,http://www.redfin.com/CA/San-Francisco/631-O-Farrell-St-94109/unit-507/home/1882327,San Francisco MLS,496617,N,Y,37.7852399,-122.4151204
MLS Listing,,Townhouse,900 Gilman Ave #12,San Francisco,CA,94124,573649,2,1.0,Bayview,882,,2006,14,650,231,Active,,,http://www.redfin.com/CA/San-Francisco/900-Gilman-Ave-94124/unit-12/home/22887294,San Francisco MLS,500738,N,Y,37.7175681,-122.3864356
MLS Listing,,Townhouse,2956 Arelious Walker Dr,San Francisco,CA,94124,573649,2,1.0,Bayview,882,,2006,14,650,231,Active,,,http://www.redfin.com/CA/San-Francisco/2956-Arelious-Walker-Dr-94124/home/171944997,San Francisco MLS,502137,N,Y,37.71757,-122.386641
MLS Listing,,Condo/Co-op,240 Lombard St #835,San Francisco,CA,94111,575000,0,1.0,North Waterfront,477,,1993,21,1205,900,Active,,,http://www.redfin.com/CA/San-Francisco/240-Lombard-St-94111/unit-835/home/2002834,San Francisco MLS,501610,N,Y,37.8042439,-122.4055041
MLS Listing,,Condo/Co-op,551 Hudson Ave #101,San Francisco,CA,94124,577000,1,1.0,Hunters Point,558,,2015,11,1034,386,Active,,,http://www.redfin.com/CA/San-Francisco/551-Hudson-Ave-94124/unit-101/home/105308598,San Francisco MLS,502279,N,Y,37.7275689,-122.3672585
MLS Listing,,Condo/Co-op,555 Innes Ave #311,SAN FRANCISCO,CA,94124,588000,1,1.0,SAN FRANCISCO,611,,2016,179,962,401,Active,,,http://www.redfin.com/CA/San-Francisco/555-Innes-Ave-94124/unit-311/home/113532981,MLSListings,ML81781910,N,Y,37.7275889,-122.369723
MLS Listing,,Condo/Co-op,240 Lombard St #229,San Francisco,CA,94111,599000,1,1.0,North Waterfront,580,,1993,46,1033,945,Active,,,http://www.redfin.com/CA/San-Francisco/240-Lombard-St-94111/unit-229/home/542333,San Francisco MLS,499563,N,Y,37.8042439,-122.4055041
MLS Listing,,Condo/Co-op,900 Bush St #310,San Francisco,CA,94109,599000,1,1.0,Downtown,528,,1982,14,1134,945,Active,,,http://www.redfin.com/CA/San-Francisco/900-Bush-St-94109/unit-310/home/102816964,"bridgeMLS, Bay East AOR, or Contra Costa AOR",40913334,N,Y,37.7898391,-122.4124276
MLS Listing,,Condo/Co-op,35 Western Shore Ln #6,San Francisco,CA,94115,599000,2,1.0,Western Addition,850,,1964,26,705,761,Active,,,http://www.redfin.com/CA/San-Francisco/35-Western-Shore-Ln-94115/unit-6/home/12401321,San Francisco MLS,501289,N,Y,37.7842428,-122.4286183
MLS Listing,,Condo/Co-op,1000 North Point St #203,SAN FRANCISCO,CA,94109,599000,1,1.0,SAN FRANCISCO,582,,1963,6,1029,792,Active,,,http://www.redfin.com/CA/San-Francisco/1000-N-Point-St-94109/unit-203/home/12395474,MLSListings,ML81803405,N,Y,37.8055099,-122.4241573
MLS Listing,,Condo/Co-op,2025 Ofarrell St #4,San Francisco,CA,94115,599999,1,1.0,Western Addition,600,,1914,19,1000,275,Active,,,http://www.redfin.com/CA/San-Francisco/2025-O-Farrell-St-94115/unit-4/home/12107835,San Francisco MLS,501521,N,Y,37.7824791,-122.4381015
MLS Listing,,Condo/Co-op,135 Red Rock Way Unit 107L,San Francisco,CA,94131-3502,614900,0,1.0,Diamond Heights,592,,1972,33,1039,494,Active,,,http://www.redfin.com/CA/San-Francisco/135-Red-Rock-Way-94131/unit-107L/home/1008075,"bridgeMLS, Bay East AOR, or Contra Costa AOR",40910752,N,Y,37.7461571,-122.4420357
MLS Listing,,Condo/Co-op,1483 Sutter St #723,San Francisco,CA,94109,618000,0,1.0,Van Ness/Civic Center,530,,1993,14,1166,650,Active,,,http://www.redfin.com/CA/San-Francisco/1483-Sutter-St-94109/unit-723/home/891416,San Francisco MLS,502040,N,Y,37.7867158,-122.4242025
MLS Listing,,Condo/Co-op,1238 Sutter St #302,San Francisco,CA,94109,618000,0,1.0,Van Ness/Civic Center,,,2018,77,,503,Active,,,http://www.redfin.com/CA/San-Francisco/1238-Sutter-St-94109/unit-302/home/169566013,San Francisco MLS,497188,N,Y,37.7880028,-122.4208442
MLS Listing,,Condo/Co-op,451 Donahue St #205,San Francisco,CA,94124,618888,1,1.0,Hunters Point,743,,2016,5,833,465,Active,,,http://www.redfin.com/CA/San-Francisco/451-Donahue-St-94124/unit-205/home/109278395,San Francisco MLS,502576,N,Y,37.7290014,-122.3696392
MLS Listing,,Condo/Co-op,300 3rd St #1203,San Francisco,CA,94107,619000,0,1.0,Yerba Buena,478,,1990,62,1295,540,Active,,,http://www.redfin.com/CA/San-Francisco/300-3rd-St-94107/unit-1203/home/720672,San Francisco MLS,499175,N,Y,37.7831802,-122.3990823
MLS Listing,,Condo/Co-op,988 Fulton St #325,San Francisco,CA,94117,619000,1,1.0,Western Addition,,,1999,14,,413,Active,,,http://www.redfin.com/CA/San-Francisco/988-Fulton-St-94117/unit-325/home/22043745,San Francisco MLS,500458,N,Y,37.778036,-122.4325115
MLS Listing,,Condo/Co-op,52 Innes Ct #203,San Francisco,CA,94124,619900,1,1.0,Hunters Point,670,,2017,41,925,460,Active,,,http://www.redfin.com/CA/San-Francisco/52-Innes-Ct-94124/unit-203/home/160918376,San Francisco MLS,500421,N,Y,37.7276224,-122.3674287
MLS Listing,,Condo/Co-op,240 Lombard St #437,San Francisco,CA,94111,624900,1,1.0,North Waterfront,566,,1993,82,1104,953,Active,,,http://www.redfin.com/CA/San-Francisco/240-Lombard-St-94111/unit-437/home/1466262,San Francisco MLS,498073,N,Y,37.8042439,-122.4055041
MLS Listing,,Condo/Co-op,333 Grant Ave #408,San Francisco,CA,94108,625000,0,1.0,Financial District,446,,1908,81,1401,839,Active,,,http://www.redfin.com/CA/San-Francisco/333-Grant-Ave-94108/unit-408/home/1432478,San Francisco MLS,497522,N,Y,37.7901504,-122.4058696
MLS Listing,,Condo/Co-op,900 Bush St #319,San Francisco,CA,94109,625000,1,1.0,Downtown,631,,1982,19,990,990,Active,,,http://www.redfin.com/CA/San-Francisco/900-Bush-St-94109/unit-319/home/2030375,San Francisco MLS,500987,N,Y,37.7899451,-122.4127266
MLS Listing,,Condo/Co-op,74 New Montgomery St #304,San Francisco,CA,94105,625000,0,1.0,Yerba Buena,498,,1914,26,1255,857,Active,,,http://www.redfin.com/CA/San-Francisco/74-New-Montgomery-St-94105/unit-304/home/17304419,San Francisco MLS,500656,N,Y,37.7874578,-122.4013098
MLS Listing,,Condo/Co-op,900 Bush St #518,San Francisco,CA,94109,625000,1,1.0,Downtown,643,,1982,20,972,969,Active,,,http://www.redfin.com/CA/San-Francisco/900-Bush-St-94109/unit-518/home/554300,San Francisco MLS,500829,N,Y,37.7899451,-122.4127266
MLS Listing,,Condo/Co-op,1932 Fell St #10,San Francisco,CA,94117,625000,1,1.0,North Panhandle,426,,1905,87,1467,421,Active,,,http://www.redfin.com/CA/San-Francisco/1932-Fell-St-94117/unit-10/home/12434417,San Francisco MLS,496814,N,Y,37.7727316,-122.4498877
MLS Listing,,Condo/Co-op,388 Fulton St #603,San Francisco,CA,94102,630000,0,1.0,Hayes Valley,326,,2016,11,1933,445,Active,,,http://www.redfin.com/CA/San-Francisco/388-Fulton-St-94102/unit-603/home/109464798,San Francisco MLS,502330,N,Y,37.7790409,-122.4231102
MLS Listing,,Condo/Co-op,1001 Pine St #412,San Francisco,CA,94109,635000,0,1.0,Downtown,459,,1963,27,1383,385,Active,,,http://www.redfin.com/CA/San-Francisco/1001-Pine-St-94109/unit-412/home/890736,San Francisco MLS,501088,N,Y,37.7903477,-122.4125675
MLS Listing,,Condo/Co-op,1177 California St #1703,San Francisco,CA,94108,638000,0,1.0,Nob Hill,411,,1978,42,1552,932,Active,,,http://www.redfin.com/CA/San-Francisco/1177-California-St-94108/unit-1703/home/1514246,San Francisco MLS,500180,N,Y,37.7910262,-122.4136476
MLS Listing,,Condo/Co-op,875 Vermont St #202,San Francisco,CA,94107,639000,0,1.0,Potrero Hill,318,,1965,1,2009,109,Active,,,http://www.redfin.com/CA/San-Francisco/875-Vermont-St-94107/unit-202/home/1024960,San Francisco MLS,502866,N,Y,37.7585747,-122.403605
MLS Listing,,Condo/Co-op,601 Van Ness Ave #230,San Francisco,CA,94102,647000,1,1.0,Van Ness/Civic Center,677,,1982,34,956,909,Active,,,http://www.redfin.com/CA/San-Francisco/601-Van-Ness-Ave-94102/unit-230/home/578119,San Francisco MLS,499621,N,Y,37.7813857,-122.4214063
MLS Listing,,Condo/Co-op,8300 Oceanview Ter #111,San Francisco,CA,94132,648000,1,1.0,Ingleside Heights,665,,2002,21,974,547,Active,,,http://www.redfin.com/CA/San-Francisco/8300-Oceanview-Ter-94132/unit-111/home/1795379,San Francisco MLS,501613,N,Y,37.7104174,-122.4677028
MLS Listing,,Condo/Co-op,1075 Market St #805,San Francisco,CA,94103,649000,0,1.0,South of Market,453,,2018,29,1433,650,Active,,,http://www.redfin.com/CA/San-Francisco/1075-Market-St-94103/unit-805/home/145502203,San Francisco MLS,501013,N,Y,37.7807996,-122.4118342
MLS Listing,,Condo/Co-op,601 Van Ness Ave #132,San Francisco,CA,94102,649000,1,1.0,Van Ness/Civic Center,720,,1982,67,901,909,Active,,,http://www.redfin.com/CA/San-Francisco/601-Van-Ness-Ave-94102/unit-132/home/1198942,San Francisco MLS,498911,N,Y,37.7813857,-122.4214063
MLS Listing,,Condo/Co-op,3981 Alemany Blvd #207,SAN FRANCISCO,CA,94132,649000,1,1.0,SAN FRANCISCO,747,,2002,15,869,579,Active,,,http://www.redfin.com/CA/San-Francisco/3981-Alemany-Blvd-94132/unit-207/home/977037,MLSListings,ML81801935,N,Y,37.7104174,-122.4677028
MLS Listing,,Condo/Co-op,1325 Divisadero St #205,San Francisco,CA,94115,649000,1,1.0,Anza Vista,605,,1925,53,1073,274,Active,,,http://www.redfin.com/CA/San-Francisco/1325-Divisadero-St-94115/unit-205/home/1659760,San Francisco MLS,499585,N,Y,37.7818978,-122.4395431
MLS Listing,,Condo/Co-op,74 New Montgomery St #704,San Francisco,CA,94105,649000,0,1.0,Yerba Buena,527,,1914,4,1231,851,Active,,,http://www.redfin.com/CA/San-Francisco/74-New-Montgomery-St-94105/unit-704/home/17305102,San Francisco MLS,502530,N,Y,37.7874578,-122.4013098
MLS Listing,,Condo/Co-op,8400 Oceanview Ter #120,San Francisco,CA,94132,649000,1,1.0,Ingleside Heights,669,,2002,5,970,549,Active,,,http://www.redfin.com/CA/San-Francisco/8400-Oceanview-Ter-94132/unit-120/home/1569219,San Francisco MLS,501800,N,Y,37.7104174,-122.4677028
MLS Listing,,Condo/Co-op,45 Bartlett St #416,San Francisco,CA,94110,649000,1,1.0,Inner Mission,517,,2014,46,1255,540,Active,,,http://www.redfin.com/CA/San-Francisco/45-Bartlett-St-94110/unit-416/home/109315242,San Francisco MLS,499671,N,Y,37.7559364,-122.419286
MLS Listing,,Condo/Co-op,555 Innes Ave #309,SAN FRANCISCO,CA,94124,649888,1,1.0,SAN FRANCISCO,790,,2016,83,823,425,Active,,,http://www.redfin.com/CA/San-Francisco/555-Innes-Ave-94124/unit-309/home/114010587,MLSListings,ML81792310,N,Y,37.7275689,-122.3672585
MLS Listing,,Condo/Co-op,240 Lombard St #429,San Francisco,CA,94111,649950,1,1.0,North Waterfront,580,,1993,148,1121,956,Active,,,http://www.redfin.com/CA/San-Francisco/240-Lombard-St-94111/unit-429/home/1578063,San Francisco MLS,495693,N,Y,37.8042439,-122.4055041
MLS Listing,,Single Family Residential,1246 47th Ave,San Francisco,CA,94122,650000,1,1.0,Outer Sunset,550,1450,1923,45,1182,,Active,,,http://www.redfin.com/CA/San-Francisco/1246-47th-Ave-94122/home/1872671,San Francisco MLS,500161,N,Y,37.7632964,-122.5067807
MLS Listing,,Condo/Co-op,260 King St #511,San Francisco,CA,94107,650000,1,1.0,Mission Bay,868,,2004,88,749,850,Active,,,http://www.redfin.com/CA/San-Francisco/260-King-St-94107/unit-511/home/8191006,San Francisco MLS,497776,N,Y,37.7776422,-122.3934181
MLS Listing,,Single Family Residential,625 Girard St,San Francisco,CA,94134,650000,0,1.0,Portola,750,2495,1900,274,867,,Active,,,http://www.redfin.com/CA/San-Francisco/625-Girard-St-94134/home/1966476,"bridgeMLS, Bay East AOR, or Contra Costa AOR",40888000,N,Y,37.724653,-122.4032557
MLS Listing,,Condo/Co-op,1400 Webster St #1,San Francisco,CA,94115,650000,2,1.0,Western Addition,850,,,82,765,761,Active,,,http://www.redfin.com/CA/San-Francisco/1400-Webster-St-94115/unit-1/home/12401242,San Francisco MLS,494098,N,Y,37.784068,-122.4301069
MLS Listing,,Multi-Family (2-4 Unit),1919 Oakdale Ave,San Francisco,CA,94124,655000,4,2.0,Bayview,1750,2495,1900,60,374,,Active,,,http://www.redfin.com/CA/San-Francisco/1919-Oakdale-Ave-94124/home/1193308,San Francisco MLS,499283,N,Y,37.7380072,-122.3967264
MLS Listing,,Condo/Co-op,555 4th St #447,San Francisco,CA,94107,658000,0,1.0,South Beach,504,,2006,4,1306,571,Active,,,http://www.redfin.com/CA/San-Francisco/555-4th-St-94107/unit-447/home/12402457,San Francisco MLS,501555,N,Y,37.7794218,-122.3967124
MLS Listing,,Condo/Co-op,16 Jessie St #207,SAN FRANCISCO,CA,94105,659000,0,1.0,SAN FRANCISCO,444,,1906,17,1484,494,Active,,,http://www.redfin.com/CA/San-Francisco/16-Jessie-94105/unit-207/home/40138701,MLSListings,ML81801811,N,Y,37.7899062,-122.3989561
MLS Listing,,Condo/Co-op,950 Tennessee St #208,San Francisco,CA,94107,659000,0,1.0,Central Waterfront,472,,2020,47,1396,435,Active,,,http://www.redfin.com/CA/San-Francisco/950-Tennessee-St-94107/unit-208/home/170136638,San Francisco MLS,500067,N,Y,37.7596747,-122.3898245
MLS Listing,,Condo/Co-op,888 7th St Unit LL-8,San Francisco,CA,94107,659000,0,1.0,Potrero Hill,495,,2007,6,1331,374,Active,,,http://www.redfin.com/CA/San-Francisco/888-7th-St-94107/unit-LL-8/home/17306001,San Francisco MLS,502260,N,Y,37.770553,-122.4004052
MLS Listing,,Condo/Co-op,1075 Market St #301,San Francisco,CA,94103,665000,0,1.0,South of Market,544,,2018,24,1222,665,Active,,,http://www.redfin.com/CA/San-Francisco/1075-Market-St-94103/unit-301/home/144240890,San Francisco MLS,501319,N,Y,37.7807996,-122.4118342
MLS Listing,,Condo/Co-op,58 Varennes St Unit A,San Francisco,CA,94131,669000,2,1.0,Telegraph Hill,,,1906,32,,185,Active,,,http://www.redfin.com/CA/San-Francisco/58-Varennes-St-94133/unit-A/home/146993334,San Francisco MLS,500921,N,Y,37.8005638,-122.4067219
MLS Listing,,Condo/Co-op,950 Tennessee St #116,San Francisco,CA,94107,669000,0,1.0,Central Waterfront,472,,2020,47,1417,435,Active,,,http://www.redfin.com/CA/San-Francisco/950-Tennessee-St-94107/unit-116/home/172132136,San Francisco MLS,500064,N,Y,37.7596747,-122.3898245
MLS Listing,,Condo/Co-op,250 King St #1504,San Francisco,CA,94107,669000,0,1.0,Mission Bay,595,,2004,47,1124,799,Active,,,http://www.redfin.com/CA/San-Francisco/250-King-St-94107/unit-1504/home/22889814,San Francisco MLS,499550,N,Y,37.7781222,-122.3932903
MLS Listing,,Condo/Co-op,3615 Irving St,San Francisco,CA,94122,669000,2,2.0,Outer Sunset,1128,,1945,5,593,,Active,,,http://www.redfin.com/CA/San-Francisco/3615-Irving-St-94122/home/1899785,San Francisco MLS,502349,N,Y,37.7625444,-122.4967677
MLS Listing,,Condo/Co-op,1635 10th Ave #1,San Francisco,CA,94122,670000,1,1.0,Inner Sunset,632,,1961,60,1060,340,Active,,,http://www.redfin.com/CA/San-Francisco/1635-10th-Ave-94122/unit-1/home/171009479,San Francisco MLS,499309,N,Y,37.7577286,-122.4672681
MLS Listing,,Condo/Co-op,5853 Mission St #7,San Francisco,CA,94112,670000,2,1.0,Crocker Amazon,780,,1980,20,859,280,Active,,,http://www.redfin.com/CA/San-Francisco/5853-Mission-St-94112/unit-7/home/1807961,San Francisco MLS,501129,N,Y,37.7088126,-122.451422
MLS Listing,,Condo/Co-op,501 Hudson Ave #302,SAN FRANCISCO,CA,94124,678000,1,1.0,SAN FRANCISCO,811,,2016,55,836,425,Active,,,http://www.redfin.com/CA/San-Francisco/501-Hudson-Ave-94124/unit-302/home/105306840,MLSListings,ML81796150,N,Y,37.728502326,-122.3683957
MLS Listing,,Condo/Co-op,3415 Cesar Chavez Unit A,San Francisco,CA,94110,678000,1,1.0,Bernal Heights,585,,1991,4,1159,126,Active,,,http://www.redfin.com/CA/San-Francisco/3415-Cesar-Chavez-94110/unit-A/home/17304591,San Francisco MLS,499544,N,Y,37.7479505,-122.4188311
MLS Listing,,Condo/Co-op,601 Van Ness Ave #543,San Francisco,CA,94102,679000,1,1.0,Van Ness/Civic Center,709,,1982,67,958,909,Active,,,http://www.redfin.com/CA/San-Francisco/601-Van-Ness-Ave-94102/unit-543/home/1340580,San Francisco MLS,497440,N,Y,37.7813857,-122.4214063
MLS Listing,,Condo/Co-op,900 Bush St #402,San Francisco,CA,94109,679000,1,1.0,Downtown,,,1982,11,,967,Active,,,http://www.redfin.com/CA/San-Francisco/900-Bush-St-94109/unit-402/home/12546183,San Francisco MLS,501961,N,Y,37.7898391,-122.4124276
MLS Listing,,Condo/Co-op,1000 North Point St #405,San Francisco,CA,94109,679000,0,1.0,Russian Hill,,,1965,47,,504,Active,,,http://www.redfin.com/CA/San-Francisco/1000-N-Point-St-94109/unit-405/home/12395483,San Francisco MLS,500086,N,Y,37.8055099,-122.4241573
MLS Listing,,Condo/Co-op,601 Van Ness Ave #726,San Francisco,CA,94102,682000,1,1.0,Van Ness/Civic Center,718,,1982,25,950,901,Active,,,http://www.redfin.com/CA/San-Francisco/601-Van-Ness-Ave-94102/unit-726/home/1305305,San Francisco MLS,501395,N,Y,37.7813857,-122.4214063
MLS Listing,,Condo/Co-op,260 King St #753,San Francisco,CA,94107,685000,0,1.0,Mission Bay,556,,2004,26,1232,794,Active,,,http://www.redfin.com/CA/San-Francisco/260-King-St-94107/unit-753/home/11743416,San Francisco MLS,501133,N,Y,37.7776422,-122.3934181
MLS Listing,,Condo/Co-op,601 Van Ness Ave #602,San Francisco,CA,94102,685000,1,1.0,Van Ness/Civic Center,676,,1982,21,1013,909,Active,,,http://www.redfin.com/CA/San-Francisco/601-Van-Ness-Ave-94102/unit-602/home/2030621,San Francisco MLS,501612,N,Y,37.7813857,-122.4214063
MLS Listing,,Condo/Co-op,115 Carl St #3,San Francisco,CA,94117,685000,1,1.0,Parnassus/Ashbury Heights,572,,1964,64,1198,360,Active,,,http://www.redfin.com/CA/San-Francisco/115-Carl-St-94117/unit-3/home/169630912,San Francisco MLS,498923,N,Y,37.7655847,-122.4504283
MLS Listing,,Condo/Co-op,1000 North Point St #704,San Francisco,CA,94109,688000,0,1.0,Russian Hill,443,,1963,151,1553,527,Active,,,http://www.redfin.com/CA/San-Francisco/1000-N-Point-St-94109/unit-704/home/12395413,San Francisco MLS,495893,N,Y,37.8055099,-122.4241573
New Construction Plan,,Condo/Co-op,10 Kennedy Pl #203,San Francisco,CA,94124,690000,1,1.0,The San Francisco Shipyard - Landing,613,,,,1126,,Active,,,http://www.redfin.com/CA/San-Francisco/The-San-Francisco-Shipyard-Landing/10-Kennedy-Pl-203/home/170916575,NewHomeSource.com,Plan-131777457,N,Y,37.7273365,-122.3683576
MLS Listing,,Condo/Co-op,655 Corbett Ave #102,San Francisco,CA,94114,690000,1,1.0,Twin Peaks,619,,1964,5,1115,500,Active,,,http://www.redfin.com/CA/San-Francisco/655-Corbett-Ave-94114/unit-102/home/63805177,"bridgeMLS, Bay East AOR, or Contra Costa AOR",40914613,N,Y,37.7565294,-122.4430524
MLS Listing,,Single Family Residential,783 Ingerson Ave,San Francisco,CA,94124,695000,3,2.0,Bayview,1230,4996,1914,49,565,,Active,,,http://www.redfin.com/CA/San-Francisco/783-Ingerson-Ave-94124/home/1176291,San Francisco MLS,499948,N,Y,37.7165562,-122.3891296
MLS Listing,,Condo/Co-op,388 Fulton St #508,San Francisco,CA,94102,695000,0,1.0,Hayes Valley,,,,7,,485,Active,,,http://www.redfin.com/CA/San-Francisco/388-Fulton-St-94102/unit-508/home/144063613,San Francisco MLS,502603,N,Y,37.7790409,-122.4231102
MLS Listing,,Condo/Co-op,551 Hudson Ave #302,San Francisco,CA,94124,695000,2,1.0,Hunters Point,806,,2015,151,862,444,Active,,,http://www.redfin.com/CA/San-Francisco/551-Hudson-Ave-94124/unit-302/home/105308600,San Francisco MLS,495143,N,Y,37.7275689,-122.3672585
MLS Listing,,Condo/Co-op,260 King St #761,San Francisco,CA,94107,695000,0,1.0,Mission Bay,618,,2004,16,1125,799,Active,,,http://www.redfin.com/CA/San-Francisco/260-King-St-94107/unit-761/home/11743419,San Francisco MLS,501657,N,Y,37.7776422,-122.3934181
MLS Listing,,Condo/Co-op,5264 3rd St #204,San Francisco,CA,94124,695000,2,2.0,Bayview,790,,1993,4,880,432,Active,,,http://www.redfin.com/CA/San-Francisco/Undisclosed-address-94124/home/2027857,San Francisco MLS,502893,N,Y,37.7298281,-122.3928164
MLS Listing,,Condo/Co-op,61 Woodward,San Francisco,CA,94103,695000,2,1.0,Inner Mission,,,1907,56,,340,Active,,,http://www.redfin.com/CA/San-Francisco/61-Woodward-St-94103/home/39997436,San Francisco MLS,499218,N,Y,37.7690052,-122.4206706
MLS Listing,,Condo/Co-op,601 Van Ness Ave #844,San Francisco,CA,94102,695000,1,1.0,Van Ness/Civic Center,751,,1982,26,925,909,Active,,,http://www.redfin.com/CA/San-Francisco/601-Van-Ness-Ave-94102/unit-844/home/1731649,San Francisco MLS,501281,N,Y,37.7813857,-122.4214063
MLS Listing,,Condo/Co-op,2468 Bush Unit A,San Francisco,CA,94115,698000,1,1.0,Lower Pacific Height,,,1900,45,,188,Active,,,http://www.redfin.com/CA/San-Francisco/2468-Bush-St-94115/unit-A/home/102813866,San Francisco MLS,500166,N,Y,37.786645,-122.4378985
MLS Listing,,Condo/Co-op,461 2nd St Unit 125C,San Francisco,CA,94107,698000,1,1.0,South Beach,573,,1907,18,1218,600,Active,,,http://www.redfin.com/CA/San-Francisco/461-2nd-St-94107/unit-C125/home/925878,San Francisco MLS,501668,N,Y,37.7834473,-122.3936481
MLS Listing,,Condo/Co-op,401 Crescent Ct #4407,San Francisco,CA,94134,699000,2,2.0,Candlestick Point,935,,2007,12,748,525,Active,,,http://www.redfin.com/CA/San-Francisco/401-Crescent-Ct-94134/unit-4407/home/12277976,San Francisco MLS,502267,N,Y,37.7111771,-122.3880873
MLS Listing,,Condo/Co-op,2120 24th St #1,San Francisco,CA,94107,699000,1,1.0,Potrero Hill,,,1977,25,,414,Active,,,http://www.redfin.com/CA/San-Francisco/2120-24th-St-94107/unit-1/home/737542,San Francisco MLS,501051,N,Y,37.7535442,-122.4009325
MLS Listing,,Single Family Residential,3 Porter St,San Francisco,CA,94110,699000,2,2.0,Bernal Heights,875,467,1916,6,799,,Active,,,http://www.redfin.com/CA/San-Francisco/3-Porter-St-94110/home/1879677,San Francisco MLS,502664,N,Y,37.7347011,-122.4180457
MLS Listing,,Condo/Co-op,11 Franklin St #504,San Francisco,CA,94102,699000,0,1.0,Hayes Valley,479,,2016,3,1459,531,Active,,,http://www.redfin.com/CA/San-Francisco/11-Franklin-St-94102/unit-504/home/144064047,San Francisco MLS,502413,N,Y,37.7744289,-122.4211101
MLS Listing,,Single Family Residential,264 Athens St,San Francisco,CA,94112,699000,1,1.0,Excelsior,750,2495,1909,4,932,,Active,,,http://www.redfin.com/CA/San-Francisco/264-Athens-St-94112/home/897662,San Francisco MLS,502820,N,Y,37.7239009,-122.4271158
MLS Listing,,Condo/Co-op,1177 California St #622,San Francisco,CA,94108,699000,0,1.0,Nob Hill,535,,1978,3,1307,1019,Active,,,http://www.redfin.com/CA/San-Francisco/1177-California-St-94108/unit-622/home/998555,San Francisco MLS,502933,N,Y,37.7910262,-122.4136476
MLS Listing,,Condo/Co-op,1650 Jackson St #607,San Francisco,CA,94109,699000,0,1.0,Nob Hill,632,,1991,4,1106,752,Active,,,http://www.redfin.com/CA/San-Francisco/1650-Jackson-St-94109/unit-607/home/1958799,San Francisco MLS,502609,N,Y,37.7943068,-122.422273
MLS Listing,,Condo/Co-op,1650 Jackson St #303,San Francisco,CA,94109,699000,1,1.0,Nob Hill,632,,1991,54,1106,752,Active,,,http://www.redfin.com/CA/San-Francisco/1650-Jackson-St-94109/unit-303/home/1227157,San Francisco MLS,499630,N,Y,37.7943068,-122.422273
MLS Listing,,Single Family Residential,737 Lisbon St,San Francisco,CA,94112,699000,2,2.0,Excelsior,,2495,1922,4,,,Active,,,http://www.redfin.com/CA/San-Francisco/737-Lisbon-St-94112/home/792180,San Francisco MLS,502871,N,Y,37.7168059,-122.4372863
MLS Listing,,Condo/Co-op,3617 Irving St,San Francisco,CA,94122,699000,2,1.0,Outer Sunset,979,,1945,5,714,,Active,,,http://www.redfin.com/CA/San-Francisco/3617-Irving-St-94122/home/172630930,San Francisco MLS,502351,N,Y,37.7625968,-122.4968066
MLS Listing,,Single Family Residential,450 Bright St,San Francisco,CA,94132,699000,1,1.0,Merced Heights,720,2522,1900,25,971,,Active,,,http://www.redfin.com/CA/San-Francisco/450-Bright-St-94132/home/1769492,San Francisco MLS,500608,N,Y,37.7188604,-122.4633652
MLS Listing,,Single Family Residential,454 Bright St,San Francisco,CA,94132,699000,1,1.0,Merced Heights,500,2474,1910,25,1398,,Active,,,http://www.redfin.com/CA/San-Francisco/454-Bright-St-94132/home/2037882,San Francisco MLS,500609,N,Y,37.7189199,-122.4632325
MLS Listing,,Condo/Co-op,555 4th St #530,San Francisco,CA,94107,699000,1,1.0,South Beach,580,,2006,4,1205,588,Active,,,http://www.redfin.com/CA/San-Francisco/555-4th-St-94107/unit-530/home/12402460,San Francisco MLS,502726,N,Y,37.7794218,-122.3967124
MLS Listing,,Condo/Co-op,555 Fulton St #305,San Francisco,CA,94102,699000,1,1.0,Hayes Valley,504,,,19,1387,610,Active,,,http://www.redfin.com/CA/San-Francisco/555-Fulton-St-94102/unit-305/home/87703253,San Francisco MLS,501782,N,Y,37.7781581,-122.4261091
MLS Listing,,Condo/Co-op,51 Innes Ct #207,San Francisco,CA,94124,699777,1,1.0,San Francisco,720,,2017,116,972,504,Active,,,http://www.redfin.com/CA/San-Francisco/51-Innes-Ct-94124/unit-207/home/160765879,"bridgeMLS, Bay East AOR, or Contra Costa AOR",40901285,N,Y,37.7272117,-122.367848
MLS Listing,,Single Family Residential,2075 Quesada Ave,San Francisco,CA,94124,699900,4,2.0,Silver Terrace,1737,2495,1907,151,403,,Active,,,http://www.redfin.com/CA/San-Francisco/2075-Quesada-Ave-94124/home/1231834,San Francisco MLS,495976,N,Y,37.737195,-122.398787
MLS Listing,,Condo/Co-op,1550 Ofarrell St #6,San Francisco,CA,94115,710000,3,2.0,Western Addition,1050,,1964,13,676,960,Active,,,http://www.redfin.com/CA/San-Francisco/1550-O-Farrell-St-94115/unit-6/home/12401669,San Francisco MLS,502206,N,Y,37.784068,-122.4301069
MLS Listing,,Condo/Co-op,750 Van Ness Ave #503,San Francisco,CA,94102,715000,1,1.0,Van Ness/Civic Center,708,,2008,16,1010,732,Active,,,http://www.redfin.com/CA/San-Francisco/750-Van-Ness-Ave-94102/unit-503/home/17305688,San Francisco MLS,501826,N,Y,37.7823788,-122.4201632
MLS Listing,,Condo/Co-op,170 King St #912,San Francisco,CA,94107,718000,1,1.0,South Beach,622,,2007,75,1154,680,Active,,,http://www.redfin.com/CA/San-Francisco/170-King-St-94107/unit-912/home/17306538,San Francisco MLS,498500,N,Y,37.7789817,-122.3917515
MLS Listing,,Condo/Co-op,3718 Cesar Chavez,San Francisco,CA,94110,719000,1,1.0,Noe Valley,,,1900,158,,375,Active,,,http://www.redfin.com/CA/San-Francisco/3718-Cesar-Chavez-94110/home/1934563,San Francisco MLS,495658,N,Y,37.7481628,-122.4230398
MLS Listing,,Condo/Co-op,1260 Clay St #205,San Francisco,CA,94108,719000,1,1.0,Nob Hill,,,1950,12,,575,Active,,,http://www.redfin.com/CA/San-Francisco/1260-Clay-St-94108/unit-205/home/1418433,San Francisco MLS,502202,N,Y,37.7935706,-122.4136811
MLS Listing,,Condo/Co-op,460 Francisco St #102,SAN FRANCISCO,CA,94133,720000,1,1.0,SAN FRANCISCO,585,,1982,5,1231,273,Active,,,http://www.redfin.com/CA/San-Francisco/460-Francisco-St-94133/unit-102/home/1963058,MLSListings,ML81803549,N,Y,37.8049401,-122.4128236
MLS Listing,,Condo/Co-op,1075 Market St #408,SAN FRANCISCO,CA,94103,724000,1,1.0,SAN FRANCISCO,554,,2018,21,1307,665,Active,,,http://www.redfin.com/CA/San-Francisco/1075-Market-St-94103/unit-408/home/169571402,MLSListings,ML81800997,N,Y,37.7807996,-122.4118342
MLS Listing,,Condo/Co-op,607 Shotwell St Unit A,San Francisco,CA,94110,725000,1,1.0,San Francisco County,,,,144,,275,Active,,,http://www.redfin.com/CA/San-Francisco/607-Shotwell-St-94110/unit-A/home/171115200,BAREIS,22005962,N,Y,37.7586776,-122.4156619
MLS Listing,,Condo/Co-op,607 A Shotwell St Unit A,San Francisco,CA,94110,725000,1,1.0,Inner Mission,,,1900,144,,275,Active,,,http://www.redfin.com/CA/San-Francisco/607A-Shotwell-St-94110/unit-A/home/171095121,San Francisco MLS,496100,N,Y,37.7586823,-122.4156614
MLS Listing,,Condo/Co-op,5140 Diamond Heights Blvd Unit 106A,SAN FRANCISCO,CA,94131,725000,1,1.0,SAN FRANCISCO,744,,1972,177,974,565,Active,,,http://www.redfin.com/CA/San-Francisco/5140-Diamond-Heights-Blvd-94131/unit-106A/home/838332,MLSListings,ML81782030,N,Y,37.7467383,-122.440544
MLS Listing,,Condo/Co-op,1177 California St #623,San Francisco,CA,94108,725000,1,1.0,Nob Hill,706,,1978,43,1027,1139,Active,,,http://www.redfin.com/CA/San-Francisco/1177-California-St-94108/unit-623/home/1722651,San Francisco MLS,499657,N,Y,37.7910262,-122.4136476
MLS Listing,,Condo/Co-op,318 Spear St Unit 5G,SAN FRANCISCO,CA,94105,725000,1,1.0,SAN FRANCISCO,538,,2008,111,1348,860,Active,,,http://www.redfin.com/CA/San-Francisco/318-Spear-St-94105/unit-5G/home/21966987,MLSListings,ML81789471,N,Y,37.7897457,-122.3908558
MLS Listing,,Condo/Co-op,788 Minna St #305,San Francisco,CA,94103,725000,1,1.0,South of Market,664,,2011,65,1092,594,Active,,,http://www.redfin.com/CA/San-Francisco/788-Minna-St-94103/unit-305/home/40134727,San Francisco MLS,497759,N,Y,37.7760486,-122.4141237
MLS Listing,,Condo/Co-op,1695 18th St #304,San Francisco,CA,94107,725000,1,1.5,Potrero Hill,715,,1996,3,1014,454,Active,,,http://www.redfin.com/CA/San-Francisco/1695-18th-St-94107/unit-304/home/1487433,San Francisco MLS,502862,N,Y,37.7620315,-122.3991526
MLS Listing,,Condo/Co-op,501 Crescent Way #5107,San Francisco,CA,94134,728000,2,2.0,Candlestick Point,1095,,2006,41,665,540,Active,,,http://www.redfin.com/CA/San-Francisco/501-Crescent-Way-94134/unit-5107/home/22854829,San Francisco MLS,500399,N,Y,37.7119288,-122.3886055
MLS Listing,,Condo/Co-op,260 King St #517,San Francisco,CA,94107,739000,1,1.0,Soma,759,,2004,84,974,835,Active,,,http://www.redfin.com/CA/San-Francisco/260-King-St-94107/unit-517/home/12331050,"bridgeMLS, Bay East AOR, or Contra Costa AOR",40904516,N,Y,37.7776422,-122.3934181
MLS Listing,,Townhouse,410 Argonaut Ave,San Francisco,CA,94134,739000,4,2.5,Visitacion Valley,1726,1424,1965,4,428,154,Active,,,http://www.redfin.com/CA/San-Francisco/410-Argonaut-Ave-94134/home/1241256,San Francisco MLS,500318,N,Y,37.709376,-122.4154795
MLS Listing,,Condo/Co-op,2177 3rd St #513,San Francisco,CA,94107,740000,0,1.0,Central Waterfront,502,,2020,61,1474,742,Active,,,http://www.redfin.com/CA/San-Francisco/2177-3rd-St-94107/unit-513/home/171982315,San Francisco MLS,499249,N,Y,37.7622702,-122.3882952
MLS Listing,,Condo/Co-op,1238 Sutter St #501,San Francisco,CA,94109,742000,1,1.0,Van Ness/Civic Center,,,,55,,522,Active,,,http://www.redfin.com/CA/San-Francisco/1238-Sutter-St-94109/unit-501/home/147294658,San Francisco MLS,499322,N,Y,37.7880028,-122.4208442
MLS Listing,,Condo/Co-op,252 9th St #401,San Francisco,CA,94103,745000,1,1.0,South of Market,,,2015,13,,464,Active,,,http://www.redfin.com/CA/San-Francisco/252-9th-St-94103/unit-401/home/101656227,San Francisco MLS,501322,N,Y,37.7741524,-122.4125529
MLS Listing,,Condo/Co-op,725 Pine St #308,San Francisco,CA,94108,748000,1,1.0,Downtown,,,1920,59,,588,Active,,,http://www.redfin.com/CA/San-Francisco/725-Pine-St-94108/unit-308/home/17306955,San Francisco MLS,498709,N,Y,37.7910138,-122.4076967
MLS Listing,,Condo/Co-op,501 Crescent Way #5207,San Francisco,CA,94134,748000,2,2.0,Candlestick Point,1095,,2006,1,683,543,Active,,,http://www.redfin.com/CA/San-Francisco/501-Crescent-Way-94134/unit-5207/home/22888815,San Francisco MLS,502978,N,Y,37.7119288,-122.3886055
MLS Listing,,Condo/Co-op,45 Bartlett St #411,San Francisco,CA,94110,748000,1,1.0,Inner Mission,660,,2014,1,1133,573,Active,,,http://www.redfin.com/CA/San-Francisco/45-Bartlett-St-94110/unit-411/home/109464997,San Francisco MLS,503097,N,Y,37.7559364,-122.419286
MLS Listing,,Condo/Co-op,501 Crescent Way #5112,SAN FRANCISCO,CA,94134,748800,2,2.0,SAN FRANCISCO,875,,2006,6,856,488,Active,,,http://www.redfin.com/CA/San-Francisco/501-Crescent-Way-94134/unit-5112/home/22888811,MLSListings,ML81803401,N,Y,37.7119288,-122.3886055
MLS Listing,,Condo/Co-op,38 Bryant St #401,San Francisco,CA,94105,749000,1,1.0,South Beach,666,,1994,190,1125,741,Active,,,http://www.redfin.com/CA/San-Francisco/38-Bryant-St-94105/unit-401/home/1879132,San Francisco MLS,494227,N,Y,37.7873678,-122.3887949
MLS Listing,,Condo/Co-op,1001 Pine St #203,San Francisco,CA,94109,749000,1,1.0,Downtown,616,,1963,77,1216,527,Active,,,http://www.redfin.com/CA/San-Francisco/1001-Pine-St-94109/unit-203/home/978927,San Francisco MLS,498065,N,Y,37.7903477,-122.4125675
MLS Listing,,Condo/Co-op,5800 3rd St #1106,San Francisco,CA,94124,749000,2,2.0,Bayview,1110,,2010,18,675,471,Active,,,http://www.redfin.com/CA/San-Francisco/5800-3rd-St-94124/unit-1106/home/40626097,San Francisco MLS,501857,N,Y,37.7250528,-122.3951255
MLS Listing,,Condo/Co-op,1591 Jackson St #22,San Francisco,CA,94109,749000,0,1.0,Nob Hill,646,,1986,18,1159,651,Active,,,http://www.redfin.com/CA/San-Francisco/1591-Jackson-St-94109/unit-22/home/1771054,San Francisco MLS,494692,N,Y,37.7939144,-122.421036
MLS Listing,,Condo/Co-op,1299 Bush St #704,San Francisco,CA,94109,749000,1,1.0,Downtown,605,,2009,18,1238,808,Active,,,http://www.redfin.com/CA/San-Francisco/1299-Bush-St-94109/unit-704/home/28939033,San Francisco MLS,501577,N,Y,37.7887088,-122.418398
MLS Listing,,Condo/Co-op,8 Buchanan St #814,San Francisco,CA,94102,749000,1,1.0,Hayes Valley,616,,2014,1,1216,474,Active,,,http://www.redfin.com/CA/San-Francisco/8-Buchanan-St-94102/unit-814/home/110051623,San Francisco MLS,503041,N,Y,37.7700742,-122.4262077
MLS Listing,,Single Family Residential,152 Sagamore St,San Francisco,CA,94112,749000,1,1.0,Oceanview,,3123,1939,11,,,Active,,,http://www.redfin.com/CA/San-Francisco/152-Sagamore-St-94112/home/1364016,San Francisco MLS,502295,N,Y,37.711706,-122.457654
MLS Listing,,Condo/Co-op,45 Bartlett St #812,San Francisco,CA,94110,749995,1,1.0,Inner Mission,,,2014,24,,538,Active,,,http://www.redfin.com/CA/San-Francisco/45-Bartlett-St-94110/unit-812/home/109465076,San Francisco MLS,499847,N,Y,37.7559364,-122.419286
MLS Listing,,Condo/Co-op,201 Harrison St #230,San Francisco,CA,94105,749999,1,1.0,South Beach,736,,1991,12,1019,690,Active,,,http://www.redfin.com/CA/San-Francisco/201-Harrison-St-94105/unit-230/home/727573,San Francisco MLS,501971,N,Y,37.7875875,-122.3904715
MLS Listing,,Condo/Co-op,1817 California St #208,San Francisco,CA,94109,750000,1,1.0,Pacific Heights,595,,1960,53,1261,460,Active,,,http://www.redfin.com/CA/San-Francisco/1817-California-St-94109/unit-208/home/569928,San Francisco MLS,499485,N,Y,37.78956,-122.4245359
MLS Listing,,Condo/Co-op,439 Greenwich St #9,San Francisco,CA,94133,750000,1,1.0,Telegraph Hill,,,1979,40,,525,Active,,,http://www.redfin.com/CA/San-Francisco/439-Greenwich-St-94133/unit-9/home/1400606,San Francisco MLS,500355,N,Y,37.8023778,-122.4070114
MLS Listing,,Condo/Co-op,2120 Stockton St #201,San Francisco,CA,94133,750000,1,1.0,Marina,713,,1980,84,1052,416,Active,,,http://www.redfin.com/CA/San-Francisco/2120-Stockton-St-94133/unit-201/home/1068150,"bridgeMLS, Bay East AOR, or Contra Costa AOR",40904521,N,Y,37.8055298,-122.4099596
MLS Listing,,Condo/Co-op,451 Donahue St #301,SAN FRANCISCO,CA,94124,759000,2,2.0,SAN FRANCISCO,1021,,2016,26,743,531,Active,,,http://www.redfin.com/CA/San-Francisco/451-Donahue-St-94124/unit-301/home/109315498,MLSListings,ML81800281,N,Y,37.7290014,-122.3696392
MLS Listing,,Single Family Residential,4836 3rd St,San Francisco,CA,94124,759900,2,2.0,Bayview,2420,2737,1912,1,314,,Active,,,http://www.redfin.com/CA/San-Francisco/4836-3rd-St-94124/home/62549398,San Francisco MLS,491994,N,Y,37.7343688,-122.391119
MLS Listing,,Condo/Co-op,1177 California St #208,San Francisco,CA,94108,765000,1,1.0,Nob Hill,794,,1978,166,963,1200,Active,,,http://www.redfin.com/CA/San-Francisco/1177-California-St-94108/unit-208/home/549460,San Francisco MLS,495206,N,Y,37.7913222,-122.413745
MLS Listing,,Condo/Co-op,666 Post St #1403,San Francisco,CA,94109,775000,1,1.0,Downtown,,,,20,,1159,Active,,,http://www.redfin.com/CA/San-Francisco/666-Post-St-94109/unit-1403/home/12400197,San Francisco MLS,501154,N,Y,37.7879056,-122.4129007
MLS Listing,,Condo/Co-op,1177 California St #1504,San Francisco,CA,94108,775000,1,1.0,Nob Hill,645,,1978,152,1202,1096,Active,,,http://www.redfin.com/CA/San-Francisco/1177-California-St-94108/unit-1504/home/2009862,San Francisco MLS,495906,N,Y,37.7910262,-122.4136476
MLS Listing,,Condo/Co-op,555 Fulton St #428,San Francisco,CA,94102,779000,0,1.0,Hayes Valley,,,2015,35,,610,Active,,,http://www.redfin.com/CA/San-Francisco/555-Fulton-St-94102/unit-428/home/172337019,San Francisco MLS,500512,N,Y,37.7781581,-122.4261091
MLS Listing,,Condo/Co-op,1160 Mission St #1011,San Francisco,CA,94103,779000,1,1.0,South of Market,765,,2008,17,1018,781,Active,,,http://www.redfin.com/CA/San-Francisco/1160-Mission-St-94103/unit-1011/home/17305229,San Francisco MLS,501315,N,Y,37.7787037,-122.4126341
MLS Listing,,Condo/Co-op,8200 Oceanview Ter #211,SAN FRANCISCO,CA,94132,779000,2,2.0,SAN FRANCISCO,1017,,2002,19,766,680,Active,,,http://www.redfin.com/CA/San-Francisco/8200-Oceanview-Ter-94132/unit-211/home/1870558,MLSListings,ML81801435,N,Y,37.7104174,-122.4677028
MLS Listing,,Condo/Co-op,226 27th St #10,San Francisco,CA,94131,789000,1,1.0,Noe Valley,,,1963,38,,276,Active,,,http://www.redfin.com/CA/San-Francisco/226-27th-St-94131/unit-10/home/52059010,San Francisco MLS,500468,N,Y,37.747179,-122.4258216
MLS Listing,,Condo/Co-op,5160 Diamond Heights Blvd Unit 302C,San Francisco,CA,94131,795000,1,1.0,Diamond Heights,744,,1972,155,1069,569,Active,,,http://www.redfin.com/CA/San-Francisco/5160-Diamond-Heights-Blvd-94131/unit-302C/home/1729042,San Francisco MLS,495709,N,Y,37.7459263,-122.4404868
MLS Listing,,Townhouse,18 Megan Dr,San Francisco,CA,94134,795000,2,2.5,Little Hollywood,,,2008,15,,239,Active,,,http://www.redfin.com/CA/San-Francisco/18-Megan-Dr-94134/home/40457086,San Francisco MLS,500284,N,Y,37.7141403,-122.3984203
MLS Listing,,Condo/Co-op,555 4th St #742,San Francisco,CA,94107,795000,1,1.0,South Beach,699,,2006,10,1137,605,Active,,,http://www.redfin.com/CA/San-Francisco/555-4th-St-94107/unit-742/home/12402468,San Francisco MLS,499791,N,Y,37.7794218,-122.3967124
MLS Listing,,Condo/Co-op,555 4th St #749,San Francisco,CA,94107,795000,1,1.0,South Beach,680,,2006,18,1169,626,Active,,,http://www.redfin.com/CA/San-Francisco/555-4th-St-94107/unit-749/home/12355075,San Francisco MLS,501645,N,Y,37.7794218,-122.3967124
MLS Listing,,Condo/Co-op,270 Valencia St #502,San Francisco,CA,94103,795000,1,1.0,Mission Dolores,601,,2005,1,1323,749,Active,,,http://www.redfin.com/CA/San-Francisco/270-Valencia-St-94103/unit-502/home/11743574,San Francisco MLS,502793,N,Y,37.7685208,-122.4225934
MLS Listing,,Condo/Co-op,355 E Buena Vista Ave Unit 514W,San Francisco,CA,94117,797000,1,1.0,Buena Vista Park,,,1986,12,,765,Active,,,http://www.redfin.com/CA/San-Francisco/355-Buena-Vista-Ave-E-94117/unit-514W/home/102813622,San Francisco MLS,500369,N,Y,37.7671808,-122.4401329
MLS Listing,,Condo/Co-op,1627 18th St,San Francisco,CA,94107,798000,1,1.0,Potrero Hill,775,,1995,4,1030,590,Active,,,http://www.redfin.com/CA/San-Francisco/1627-18th-St-94107/home/1344619,San Francisco MLS,502376,N,Y,37.7622949,-122.3988719
MLS Listing,,Condo/Co-op,52 Innes Ct #306,San Francisco,CA,94124,798000,2,2.0,Hunters Point,1115,,2017,54,716,592,Active,,,http://www.redfin.com/CA/San-Francisco/52-Innes-Ct-94124/unit-306/home/169576527,San Francisco MLS,499526,N,Y,37.7276224,-122.3674287
MLS Listing,,Condo/Co-op,1070 Post St Unit 1A,San Francisco,CA,94109,798000,2,1.5,Downtown,1020,,1911,19,782,459,Active,,,http://www.redfin.com/CA/San-Francisco/1070-Post-St-94109/unit-1A/home/113384860,San Francisco MLS,501724,N,Y,37.7871747,-122.419362
MLS Listing,,Condo/Co-op,1075 Market St #610,San Francisco,CA,94103,798000,1,1.0,South of Market,554,,2018,25,1440,665,Active,,,http://www.redfin.com/CA/San-Francisco/1075-Market-St-94103/unit-610/home/169571414,San Francisco MLS,501183,N,Y,37.7807996,-122.4118342
Redfin Data,,Single Family Residential,1332 Goettingen St,San Francisco,CA,94134,799000,2,1.0,San Francisco,998,2596,1954,1,801,,Pre On-Market,,,http://www.redfin.com/CA/San-Francisco/1332-Goettingen-St-94134/home/1464372,Coming Soon,60384,N,Y,37.715445,-122.4020609
MLS Listing,,Single Family Residential,1744 Revere Ave,San Francisco,CA,94124,799000,4,2.0,Bayview,1140,2495,1907,1,701,,Active,,,http://www.redfin.com/CA/San-Francisco/1744-Revere-Ave-94124/home/2032039,San Francisco MLS,503006,N,Y,37.7332457,-122.3925021
MLS Listing,,Townhouse,250 Friedell St,San Francisco,CA,94124,799000,2,2.0,Hunters Point,1505,,2016,5,531,260,Active,,,http://www.redfin.com/CA/San-Francisco/250-Friedell-St-94124/home/109685814,San Francisco MLS,498798,N,Y,37.7283566,-122.370179
MLS Listing,,Condo/Co-op,415 Dorado Ter #39,SAN FRANCISCO,CA,94112,799000,1,1.0,SAN FRANCISCO,831,,1985,15,961,361,Active,,,http://www.redfin.com/CA/San-Francisco/415-Dorado-Ter-94112/unit-39/home/702123,MLSListings,ML81801904,N,Y,37.7256267,-122.4616313
MLS Listing,,Condo/Co-op,555 Fulton St #227,San Francisco,CA,94102,799000,1,1.0,Hayes Valley,727,,,13,1099,680,Active,,,http://www.redfin.com/CA/San-Francisco/555-Fulton-St-94102/unit-227/home/95953443,San Francisco MLS,502230,N,Y,37.7781581,-122.4261091
MLS Listing,,Condo/Co-op,208 Lexington St,San Francisco,CA,94110,799000,2,1.0,Inner Mission,,,1907,56,,313,Active,,,http://www.redfin.com/CA/San-Francisco/208-Lexington-St-94110/home/25506369,San Francisco MLS,499077,N,Y,37.7599314,-122.4208346
MLS Listing,,Single Family Residential,83 Mount Vernon Ave,San Francisco,CA,94112,799000,2,1.0,Outer Mission,1150,1973,1926,11,695,,Active,,,http://www.redfin.com/CA/San-Francisco/83-Mt-Vernon-Ave-94112/home/1481260,San Francisco MLS,499903,N,Y,37.7157474,-122.4443992
MLS Listing,,Condo/Co-op,200 Brannan St #314,San Francisco,CA,94107,799000,1,1.0,South Beach,732,,2004,2,1092,710,Active,,,http://www.redfin.com/CA/San-Francisco/200-Brannan-St-94107/unit-314/home/1489748,San Francisco MLS,502917,N,Y,37.7836002,-122.3907074
MLS Listing,,Condo/Co-op,1800 Bryant St #103,San Francisco,CA,94110,799000,1,2.0,Inner Mission,860,,2000,20,929,501,Active,,,http://www.redfin.com/CA/San-Francisco/1800-Bryant-St-94110/unit-103/home/1125342,San Francisco MLS,500386,N,Y,37.7640877,-122.4108277
MLS Listing,,Condo/Co-op,180 Dolores St #4,San Francisco,CA,94103,799000,1,1.0,Mission Dolores,,,1921,28,,333,Active,,,http://www.redfin.com/CA/San-Francisco/180-Dolores-St-94103/unit-4/home/49791822,San Francisco MLS,501011,N,Y,37.7666492,-122.4268613
MLS Listing,,Condo/Co-op,322 6th St #2,San Francisco,CA,94103,799000,1,1.5,South of Market,962,,2001,73,831,598,Active,,,http://www.redfin.com/CA/San-Francisco/322-6th-St-94103/unit-2/home/12397866,San Francisco MLS,498655,N,Y,37.7779365,-122.4053924
MLS Listing,,Condo/Co-op,2 Mint Plz #306,San Francisco,CA,94103,799000,1,1.0,South of Market,674,,1926,70,1185,774,Active,,,http://www.redfin.com/CA/San-Francisco/2-Mint-Plz-94103/unit-306/home/17304424,San Francisco MLS,498706,N,Y,37.7831725,-122.407689
MLS Listing,,Condo/Co-op,1160 Mission St #2309,San Francisco,CA,94103,799000,1,1.0,South of Market,,,2008,47,,805,Active,,,http://www.redfin.com/CA/San-Francisco/1160-Mission-St-94103/unit-2309/home/17305264,San Francisco MLS,498863,N,Y,37.7787037,-122.4126341
MLS Listing,,Condo/Co-op,3953 24th St #1,San Francisco,CA,94114,799000,1,2.0,Noe Valley,813,,2004,39,983,625,Active,,,http://www.redfin.com/CA/San-Francisco/3953-24th-St-94114/unit-1/home/17305778,San Francisco MLS,500473,N,Y,37.7512478,-122.4307834
MLS Listing,,Condo/Co-op,132 Lexington St,San Francisco,CA,94110,799000,2,1.0,Inner Mission,,,1915,74,,350,Active,,,http://www.redfin.com/CA/San-Francisco/132-Lexington-St-94110/unit-A/home/12355137,San Francisco MLS,498392,N,Y,37.7611861,-122.420926
MLS Listing,,Condo/Co-op,1930 Mission St #305,SAN FRANCISCO,CA,94103,799000,2,1.0,SAN FRANCISCO,776,,1993,26,1030,477,Active,,,http://www.redfin.com/CA/San-Francisco/1930-Mission-St-94103/unit-305/home/148058490,MLSListings,ML81799752,N,Y,37.7662071,-122.4201693
MLS Listing,,Condo/Co-op,1639 18th St,San Francisco,CA,94107,799000,1,1.5,Potrero Hill,776,,1995,55,1030,590,Active,,,http://www.redfin.com/CA/San-Francisco/1639-18th-St-94107/home/728684,San Francisco MLS,496886,N,Y,37.7622945,-122.3989761
MLS Listing,,Condo/Co-op,1160 Mission St #2105,San Francisco,CA,94103,799000,1,1.0,South of Market,664,,2008,35,1203,733,Active,,,http://www.redfin.com/CA/San-Francisco/1160-Mission-St-94103/unit-2105/home/17304433,San Francisco MLS,500641,N,Y,37.7787037,-122.4126341
MLS Listing,,Single Family Residential,380 10Th St #12,San Francisco,CA,94103,799000,1,1.0,Soma,789,,2004,24,1013,653,Active,,,http://www.redfin.com/CA/San-Francisco/380-10th-St-94103/unit-12/home/1047740,"bridgeMLS, Bay East AOR, or Contra Costa AOR",40912084,N,Y,37.7716538,-122.411809
MLS Listing,,Condo/Co-op,3535 Wawona St #233,San Francisco,CA,94116,799000,1,1.0,Outer Parkside,758,,2020,66,1054,450,Active,,,http://www.redfin.com/CA/San-Francisco/3535-Wawona-St-94116/unit-233/home/171948084,San Francisco MLS,498860,N,Y,37.7360911,-122.5046285
MLS Listing,,Condo/Co-op,8400 Oceanview Ter #303,SAN FRANCISCO,CA,94132,799900,2,2.0,SAN FRANCISCO,950,,2002,61,842,656,Active,,,http://www.redfin.com/CA/San-Francisco/8400-Oceanview-Ter-94132/unit-303/home/1897726,MLSListings,ML81795033,N,Y,37.7104174,-122.4677028
MLS Listing,,Condo/Co-op,555 Fulton St #435,San Francisco,CA,94102,809000,1,1.0,Hayes Valley,714,,,13,1133,680,Active,,,http://www.redfin.com/CA/San-Francisco/555-Fulton-St-94102/unit-435/home/143857450,San Francisco MLS,502237,N,Y,37.7781581,-122.4261091
MLS Listing,,Condo/Co-op,170 King St #409,San Francisco,CA,94107,818000,1,1.0,South Beach,690,,2007,47,1186,698,Active,,,http://www.redfin.com/CA/San-Francisco/170-King-St-94107/unit-409/home/17306153,San Francisco MLS,499979,N,Y,37.7789817,-122.3917515
MLS Listing,,Condo/Co-op,201 Sansome St #801,San Francisco,CA,94104,819000,1,1.0,Financial District,658,,1909,10,1245,644,Active,,,http://www.redfin.com/CA/San-Francisco/201-Sansome-St-94104/unit-801/home/12277366,San Francisco MLS,500864,N,Y,37.7922568,-122.4012423
MLS Listing,,Condo/Co-op,1026 Folsom St #9,San Francisco,CA,94103,825000,1,1.5,South of Market,842,,2001,50,980,475,Active,,,http://www.redfin.com/CA/San-Francisco/1026-Folsom-St-94103/unit-9/home/2012229,San Francisco MLS,498465,N,Y,37.7781188,-122.4064855
MLS Listing,,Condo/Co-op,8100 Oceanview Ter #413,SAN FRANCISCO,CA,94132,825000,2,2.0,SAN FRANCISCO,948,,2002,28,870,655,Active,,,http://www.redfin.com/CA/San-Francisco/8100-Oceanview-Ter-94132/unit-413/home/1170478,MLSListings,ML81799900,N,Y,37.7104174,-122.4677028
MLS Listing,,Condo/Co-op,338 Potrero Ave #406,SAN FRANCISCO,CA,94103,825000,1,1.0,SAN FRANCISCO,659,,2017,14,1252,568,Active,,,http://www.redfin.com/CA/San-Francisco/338-Potrero-Ave-94103/unit-406/home/113065817,MLSListings,ML81802198,N,Y,37.7651395,-122.4078164
MLS Listing,,Condo/Co-op,201 Harrison St #704,San Francisco,CA,94105,825000,1,1.0,South Beach,795,,1991,7,1038,690,Active,,,http://www.redfin.com/CA/San-Francisco/201-Harrison-St-94105/unit-704/home/965398,San Francisco MLS,502493,N,Y,37.7875875,-122.3904715
MLS Listing,,Condo/Co-op,140 S Van Ness Ave #405,SAN FRANCISCO,CA,94103,825000,1,1.5,SAN FRANCISCO,830,,2002,19,994,533,Active,,,http://www.redfin.com/CA/San-Francisco/140-S-Van-Ness-Ave-94103/unit-405/home/22874502,MLSListings,ML81801444,N,Y,37.7715637,-122.4188013
MLS Listing,,Condo/Co-op,821 Folsom St #416,San Francisco,CA,94107,825000,1,1.0,Yerba Buena,,,2004,29,,533,Active,,,http://www.redfin.com/CA/San-Francisco/821-Folsom-St-94107/unit-416/home/12401835,San Francisco MLS,501034,N,Y,37.7813849,-122.4013601
MLS Listing,,Condo/Co-op,2040 Franklin St #508,SAN FRANCISCO,CA,94109,825000,1,1.5,SAN FRANCISCO,1040,,1966,1,793,854,Active,,,http://www.redfin.com/CA/San-Francisco/2040-Franklin-St-94109/unit-508/home/1366651,MLSListings,ML81804329,N,Y,37.7935189,-122.4243158
MLS Listing,,Condo/Co-op,588 Minna St #203,San Francisco,CA,94103,825000,1,1.0,South of Market,644,,2020,277,1281,525,Active,,,http://www.redfin.com/CA/San-Francisco/588-Minna-St-94103/unit-203/home/169632443,San Francisco MLS,492160,N,Y,37.7790369,-122.4101047
MLS Listing,,Condo/Co-op,1235 Oak St #3,San Francisco,CA,94117,829000,1,1.0,Haight Ashbury,753,,1926,12,1101,350,Active,,,http://www.redfin.com/CA/San-Francisco/1235-Oak-St-94117/unit-3/home/109464750,San Francisco MLS,500724,N,Y,37.7725569,-122.439707
MLS Listing,,Condo/Co-op,6509 Geary Blvd #104,San Francisco,CA,94121,829000,2,1.0,Central Richmond,763,,1981,5,1087,361,Active,,,http://www.redfin.com/CA/San-Francisco/6509-Geary-Blvd-94121/unit-104/home/1910220,San Francisco MLS,502263,N,Y,37.7795735,-122.4893134
MLS Listing,,Condo/Co-op,638 Minna St #5,San Francisco,CA,94103,829000,1,1.5,South of Market,848,,1998,30,978,571,Active,,,http://www.redfin.com/CA/San-Francisco/638-Minna-St-94103/unit-5/home/12395741,San Francisco MLS,500533,N,Y,37.7780564,-122.4115784
MLS Listing,,Condo/Co-op,52 Sheridan St #5,San Francisco,CA,94103,840000,2,1.0,South of Market,624,,2003,151,1346,545,Active,,,http://www.redfin.com/CA/San-Francisco/52-Sheridan-94103/unit-5/home/1794427,San Francisco MLS,495929,N,Y,37.7726552,-122.4114926
MLS Listing,,Condo/Co-op,909 Central Ave Unit B,San Francisco,CA,94115,845000,2,1.0,North Panhandle,753,,1905,15,1122,205,Active,,,http://www.redfin.com/CA/San-Francisco/909-Central-Ave-94115/unit-B/home/17305651,San Francisco MLS,501974,N,Y,37.778262,-122.445589
MLS Listing,,Condo/Co-op,1160 Mission St #1909,San Francisco,CA,94103,848000,1,1.0,South of Market,764,,2008,59,1110,781,Active,,,http://www.redfin.com/CA/San-Francisco/1160-Mission-St-94103/unit-1909/home/17305217,San Francisco MLS,498533,N,Y,37.7787037,-122.4126341
MLS Listing,,Condo/Co-op,1568 Indiana St #8,SAN FRANCISCO,CA,94107,848500,1,1.5,SAN FRANCISCO,1211,,1999,6,701,300,Active,,,http://www.redfin.com/CA/San-Francisco/1568-Indiana-St-94107/unit-8/home/1521886,MLSListings,ML81803415,N,Y,37.7506125,-122.3908026
MLS Listing,,Condo/Co-op,400 Beale St #1105,San Francisco,CA,94105,849000,1,1.0,South Beach,828,,2002,101,1025,847,Active,,,http://www.redfin.com/CA/San-Francisco/400-Beale-St-94105/unit-1105/home/1870453,San Francisco MLS,497276,N,Y,37.7869049,-122.3909202
MLS Listing,,Condo/Co-op,630 Mason St #802,San Francisco,CA,94108,849000,1,1.0,Downtown,900,,1927,35,943,687,Active,,,http://www.redfin.com/CA/San-Francisco/630-Mason-St-94108/unit-802/home/12392955,San Francisco MLS,500550,N,Y,37.7894484,-122.4100541
MLS Listing,,Condo/Co-op,855 Folsom St #306,San Francisco,CA,94107,849000,1,1.5,Yerba Buena,787,,2001,9,1079,611,Active,,,http://www.redfin.com/CA/San-Francisco/855-Folsom-St-94107/unit-306/home/22854315,San Francisco MLS,502464,N,Y,37.7807672,-122.4021418
MLS Listing,,Condo/Co-op,300 3rd St #923,San Francisco,CA,94107,849000,1,1.0,Yerba Buena,,,1990,5,,657,Active,,,http://www.redfin.com/CA/San-Francisco/300-3rd-St-94107/unit-923/home/2016916,San Francisco MLS,502635,N,Y,37.7831802,-122.3990823
MLS Listing,,Condo/Co-op,6 Mint Plz Unit 601A,San Francisco,CA,94103,849000,1,1.0,South of Market,,,,75,,728,Active,,,http://www.redfin.com/CA/San-Francisco/6-Mint-Plz-94103/unit-601A/home/171817089,San Francisco MLS,498155,N,Y,37.7830273,-122.4078637
MLS Listing,,Condo/Co-op,199 New Montgomery #709,San Francisco,CA,94105,849000,1,1.0,Yerba Buena,800,,2004,113,1061,578,Active,,,http://www.redfin.com/CA/San-Francisco/199-New-Montgomery-St-94105/unit-709/home/12401505,San Francisco MLS,496786,N,Y,37.7866055,-122.3990994
MLS Listing,,Condo/Co-op,1070 Post St #5,San Francisco,CA,94109,849000,2,1.5,Downtown,891,,1911,145,953,431,Active,,,http://www.redfin.com/CA/San-Francisco/1070-Post-St-94109/unit-5/home/112380869,San Francisco MLS,495829,N,Y,37.7871747,-122.419362
MLS Listing,,Condo/Co-op,50 Jerrold Ave #214,SAN FRANCISCO,CA,94124,849000,2,2.0,SAN FRANCISCO,1015,,2016,1,836,525,Active,,,http://www.redfin.com/CA/San-Francisco/50-Jerrold-Ave-94124/unit-214/home/131989566,MLSListings,ML81804313,N,Y,37.7277714,-122.3694505
MLS Listing,,Condo/Co-op,260 King St #545,San Francisco,CA,94107,849000,1,1.0,Mission Bay,740,,2004,17,1147,799,Active,,,http://www.redfin.com/CA/San-Francisco/260-King-St-94107/unit-545/home/8191020,San Francisco MLS,500375,N,Y,37.7776422,-122.3934181
MLS Listing,,Condo/Co-op,1345 16th Ave #7,San Francisco,CA,94122,849000,2,1.0,Inner Sunset,755,,1924,50,1125,301,Active,,,http://www.redfin.com/CA/San-Francisco/1345-16th-Ave-94122/unit-7/home/17108701,San Francisco MLS,499648,N,Y,37.7628409,-122.4741597
MLS Listing,,Condo/Co-op,2250 24th St #331,San Francisco,CA,94107,849000,2,1.0,Potrero Hill,,,1989,5,,529,Active,,,http://www.redfin.com/CA/San-Francisco/2250-24th-St-94107/unit-331/home/737484,San Francisco MLS,502710,N,Y,37.7539036,-122.4020126
MLS Listing,,Condo/Co-op,1688 Pine St Unit E610,San Francisco,CA,94109,849000,1,1.0,Van Ness/Civic Center,638,,2016,4,1331,629,Active,,,http://www.redfin.com/CA/San-Francisco/1688-Pine-St-94109/unit-E610/home/111102364,San Francisco MLS,501602,N,Y,37.789553,-122.4232788
MLS Listing,,Condo/Co-op,635 Capp St,San Francisco,CA,94110,849500,2,1.0,Inner Mission,,,1907,13,,420,Active,,,http://www.redfin.com/CA/San-Francisco/635-Capp-St-94110/home/12353522,San Francisco MLS,502134,N,Y,37.7565742,-122.417548
MLS Listing,,Single Family Residential,1370 QUESADA Ave,San Francisco,CA,94124,850000,4,1.5,Bayview,2411,2495,1955,178,353,,Active,,,http://www.redfin.com/CA/San-Francisco/1370-Quesada-Ave-94124/home/1855969,"bridgeMLS, Bay East AOR, or Contra Costa AOR",40894881,N,Y,37.730039,-122.3851958
MLS Listing,,Condo/Co-op,1 Daniel Burnham Ct #810,SAN FRANCISCO,CA,94109,850000,1,1.0,SAN FRANCISCO,829,,1988,19,1025,728,Active,,,http://www.redfin.com/CA/San-Francisco/1-Daniel-Burnham-Ct-94109/unit-810/home/990394,MLSListings,ML81801352,N,Y,37.7867552,-122.4224907
MLS Listing,,Single Family Residential,2691 Alemany Blvd,San Francisco,CA,94112,850000,2,1.0,Outer Mission,1238,1825,1947,176,687,,Active,,,http://www.redfin.com/CA/San-Francisco/2691-Alemany-Blvd-94112/home/1599620,San Francisco MLS,494792,N,Y,37.7138368,-122.4485613
MLS Listing,,Single Family Residential,1670 Newcomb Ave,San Francisco,CA,94124,850000,2,1.0,Bayview,1041,2495,1936,39,817,,Active,,,http://www.redfin.com/CA/San-Francisco/1670-Newcomb-Ave-94124/home/1293140,San Francisco MLS,500532,N,Y,37.7362275,-122.3909974
MLS Listing,,Single Family Residential,1937 Jennings St,San Francisco,CA,94124,850000,3,2.0,Bayview,1388,1873,1941,41,612,,Active,,,http://www.redfin.com/CA/San-Francisco/1937-Jennings-St-94124/home/1971305,San Francisco MLS,500126,N,Y,37.7277507,-122.3877997
MLS Listing,,Condo/Co-op,2208 Mission St #404,SAN FRANCISCO,CA,94110,850000,2,1.0,SAN FRANCISCO,1032,13600,2009,101,824,603,Active,,,http://www.redfin.com/CA/San-Francisco/2208-Mission-St-94110/unit-404/home/28935718,MLSListings,ML81790348,N,Y,37.7616064,-122.4197608
MLS Listing,,Condo/Co-op,322 6th St #3,SAN FRANCISCO,CA,94103,850000,2,2.0,SAN FRANCISCO,750,,2001,158,1133,574,Active,,,http://www.redfin.com/CA/San-Francisco/322-6th-St-94103/unit-3/home/857621,MLSListings,ML81784608,N,Y,37.7779365,-122.4053924
MLS Listing,,Condo/Co-op,10 Kennedy Pl #104,San Francisco,CA,94124,850000,2,2.0,Bayview,961,,2018,295,884,537,Active,,,http://www.redfin.com/CA/San-Francisco/10-Kennedy-Pl-94124/unit-104/home/169421440,San Francisco MLS,491373,N,Y,37.7280827,-122.3677446
MLS Listing,,Condo/Co-op,460 Francisco #301,San Francisco,CA,94133,850000,1,1.0,North Beach,602,,1982,20,1412,277,Active,,,http://www.redfin.com/CA/San-Francisco/460-Francisco-St-94133/unit-301/home/1234851,San Francisco MLS,500360,N,Y,37.8049401,-122.4128236
MLS Listing,,Condo/Co-op,655 5th St #14,San Francisco,CA,94107,850000,1,2.0,South of Market,975,,1999,70,872,601,Active,,,http://www.redfin.com/CA/San-Francisco/655-5th-St-94107/unit-14/home/12396769,San Francisco MLS,495753,N,Y,37.7759276,-122.3975275
MLS Listing,,Single Family Residential,1522 Felton St,San Francisco,CA,94134,855000,3,2.0,Portola,1396,3000,1947,74,612,,Active,,,http://www.redfin.com/CA/San-Francisco/1522-Felton-St-94134/home/1543739,San Francisco MLS,498618,N,Y,37.7262326,-122.4199372
MLS Listing,,Condo/Co-op,110 Channel St #402,San Francisco,CA,94158,859000,1,1.0,Mission Bay,,,2017,20,,762,Active,,,http://www.redfin.com/CA/San-Francisco/110-Channel-St-94158/unit-402/home/167382857,San Francisco MLS,501632,N,Y,37.7751436,-122.3906212
MLS Listing,,Condo/Co-op,10 Innes Ct #204,San Francisco,CA,94124,865000,2,2.0,Hunters Point,1020,,2018,424,848,557,Active,,,http://www.redfin.com/CA/San-Francisco/10-Innes-Ct-94124/unit-204/home/167058359,San Francisco MLS,486010,N,Y,37.7280682,-122.3679965
MLS Listing,,Condo/Co-op,425 1st St #3304,San Francisco,CA,94105,865000,1,1.0,South Beach,605,,2008,12,1430,998,Active,,,http://www.redfin.com/CA/San-Francisco/425-1st-St-94105/unit-3304/home/17304372,San Francisco MLS,501998,N,Y,37.7860625,-122.3921764
MLS Listing,,Condo/Co-op,1160 Mission St #1610,San Francisco,CA,94103,868000,1,1.0,Soma,756,,2008,56,1148,755,Active,,,http://www.redfin.com/CA/San-Francisco/1160-Mission-St-94103/unit-1610/home/17305358,"bridgeMLS, Bay East AOR, or Contra Costa AOR",40907889,N,Y,37.7787037,-122.4126341
MLS Listing,,Multi-Family (2-4 Unit),3653-55 16th St,San Francisco,CA,94114,868000,4,2.0,Duboce Triangle,1785,3813,1900,1,486,,Active,,,http://www.redfin.com/CA/San-Francisco/3653-16th-St-94114/home/708188,San Francisco MLS,503037,N,Y,37.7638664,-122.4344347
MLS Listing,,Condo/Co-op,2298 Green St #3,San Francisco,CA,94123,875000,1,1.0,Pacific Heights,680,,1909,35,1287,536,Active,,,http://www.redfin.com/CA/San-Francisco/2298-Green-St-94123/unit-3/home/102820155,San Francisco MLS,500712,N,Y,37.796204,-122.436787
MLS Listing,,Condo/Co-op,110 Channel St #326,San Francisco,CA,94158,875000,0,1.0,Mission Bay,538,,2018,29,1626,712,Active,,,http://www.redfin.com/CA/San-Francisco/110-Channel-St-94158/unit-326/home/109255958,San Francisco MLS,501063,N,Y,37.7751436,-122.3906212
MLS Listing,,Condo/Co-op,197-199 Joost Ave #199,San Francisco,CA,94131,878000,2,1.0,Sunnyside,,,1908,39,,271,Active,,,http://www.redfin.com/CA/San-Francisco/197-Joost-Ave-94131/unit-199/home/102815504,San Francisco MLS,500539,N,Y,37.732239,-122.4394685
MLS Listing,,Condo/Co-op,2760 19th Ave #7,San Francisco,CA,94132,879000,2,2.0,West Portal,1240,,1979,4,709,934,Active,,,http://www.redfin.com/CA/San-Francisco/2760-19th-Ave-94132/unit-7/home/1661411,San Francisco MLS,501875,N,Y,37.736231,-122.474745
MLS Listing,,Condo/Co-op,1483 Sutter St #803,San Francisco,CA,94109,879000,1,1.0,Van Ness/Civic Center,,,1993,59,,731,Active,,,http://www.redfin.com/CA/San-Francisco/1483-Sutter-St-94109/unit-803/home/1708287,San Francisco MLS,498701,N,Y,37.7867158,-122.4242025
MLS Listing,,Condo/Co-op,1578 Indiana St #1,San Francisco,CA,94107,879500,2,2.0,Central Waterfront,1185,,2003,4,742,749,Active,,,http://www.redfin.com/CA/San-Francisco/1578-Indiana-St-94107/unit-1/home/1881520,San Francisco MLS,502378,N,Y,37.7504783,-122.3907898
MLS Listing,,Condo/Co-op,200 Townsend St #31,San Francisco,CA,94107,888000,1,2.0,South Beach,,,2003,12,,567,Active,,,http://www.redfin.com/CA/San-Francisco/200-Townsend-St-94107/unit-31/home/2067394,San Francisco MLS,501156,N,Y,37.7788841,-122.3933041
MLS Listing,,Condo/Co-op,124 Mary Teresa St,San Francisco,CA,94134,888000,2,2.5,Little Hollywood,1312,,2008,12,677,234,Active,,,http://www.redfin.com/CA/San-Francisco/124-Mary-Teresa-St-94134/home/40457068,"bridgeMLS, Bay East AOR, or Contra Costa AOR",40910957,N,Y,37.7136779,-122.3985485
MLS Listing,,Condo/Co-op,318 Spear St Unit 3H,San Francisco,CA,94105,889000,1,1.0,South Beach,837,,2008,35,1062,896,Active,,,http://www.redfin.com/CA/San-Francisco/318-Spear-St-94105/unit-3H/home/21967034,San Francisco MLS,500723,N,Y,37.7897457,-122.3908558
MLS Listing,,Condo/Co-op,3230 16th St Unit C,San Francisco,CA,94103,890000,2,1.0,Mission Dolores,1097,,1908,151,811,,Active,,,http://www.redfin.com/CA/San-Francisco/3230-16th-St-94103/unit-C/home/21964236,San Francisco MLS,495921,N,Y,37.7649566,-122.4248729
MLS Listing,,Condo/Co-op,1075 Market St #612,San Francisco,CA,94103,890000,1,1.0,699 - Not Defined,662,,2018,45,1344,738,Active,,,http://www.redfin.com/CA/San-Francisco/1075-Market-St-94103/unit-612/home/169571416,CRMLS,SW20117206,N,Y,37.7807996,-122.4118342
MLS Listing,,Condo/Co-op,468 Tehama St #4,SAN FRANCISCO,CA,94103,895000,1,1.5,SAN FRANCISCO,1012,,1999,33,884,613,Active,,,http://www.redfin.com/CA/San-Francisco/468-Tehama-St-94103/unit-4/home/12395802,MLSListings,ML81799347,N,Y,37.7800423,-122.4061421
MLS Listing,,Single Family Residential,283 Madrid St,San Francisco,CA,94112,895000,2,1.0,Excelsior,750,1300,1922,57,1193,,Active,,,http://www.redfin.com/CA/San-Francisco/283-Madrid-St-94112/home/773261,San Francisco MLS,498632,N,Y,37.7249185,-122.4300576
MLS Listing,,Single Family Residential,458 Paris St,San Francisco,CA,94112,895000,2,1.0,Excelsior,1000,2500,1900,1,895,,Active,,,http://www.redfin.com/CA/San-Francisco/458-Paris-St-94112/home/777088,San Francisco MLS,502892,N,Y,37.7215557,-122.4353
MLS Listing,,Condo/Co-op,2040 Fell St #11,San Francisco,CA,94117,895000,1,1.0,North Panhandle,1040,,1925,1,861,434,Active,,,http://www.redfin.com/CA/San-Francisco/2040-Fell-St-94117/unit-11/home/1926835,San Francisco MLS,502612,N,Y,37.772597,-122.4515866
MLS Listing,,Single Family Residential,325 Louisburg St,San Francisco,CA,94112,895000,4,2.0,Ingelside,1160,2739,1908,6,772,,Active,,,http://www.redfin.com/CA/San-Francisco/325-Louisburg-St-94112/home/1647902,"bridgeMLS, Bay East AOR, or Contra Costa AOR",40914373,N,Y,37.7189215,-122.4508169
MLS Listing,,Condo/Co-op,1001 Pine St #802,San Francisco,CA,94109,895000,2,1.0,Downtown,815,,1963,6,1098,649,Active,,,http://www.redfin.com/CA/San-Francisco/1001-Pine-St-94109/unit-802/home/553623,San Francisco MLS,502482,N,Y,37.7903477,-122.4125675
MLS Listing,,Condo/Co-op,1695 18th St #205,San Francisco,CA,94107,895000,1,1.0,Potrero Hill,1161,,1996,1,771,538,Active,,,http://www.redfin.com/CA/San-Francisco/1695-18th-St-94107/unit-205/home/2004957,San Francisco MLS,498042,N,Y,37.7620315,-122.3991526
MLS Listing,,Condo/Co-op,1325 Indiana #211,San Francisco,CA,94107,895000,1,2.0,Central Waterfront,945,,2002,15,947,475,Active,,,http://www.redfin.com/CA/San-Francisco/1325-Indiana-St-94107/unit-211/home/1777732,San Francisco MLS,501586,N,Y,37.7536799,-122.3904145
MLS Listing,,Condo/Co-op,635 A Capp St,San Francisco,CA,94110,895000,2,1.0,Inner Mission,,,1907,23,,420,Active,,,http://www.redfin.com/CA/San-Francisco/635a-Capp-St-94110/home/114075699,San Francisco MLS,501466,N,Y,37.7565857,-122.4175778
MLS Listing,,Condo/Co-op,667 Shotwell St Unit A,SAN FRANCISCO,CA,94110,898000,2,1.0,SAN FRANCISCO,1212,,1890,28,741,250,Active,,,http://www.redfin.com/CA/San-Francisco/667-Shotwell-St-94110/unit-A/home/69371546,MLSListings,ML81799989,N,Y,37.757791,-122.415364
MLS Listing,,Condo/Co-op,83-85 Brady St #1,San Francisco,CA,94103,898000,2,1.0,South of Market,758,,2010,54,1185,547,Active,,,http://www.redfin.com/CA/San-Francisco/83-85-Brady-St-94103/unit-1/home/28679966,San Francisco MLS,499207,N,Y,37.7726926,-122.4198411
MLS Listing,,Condo/Co-op,725 Fell St #7,San Francisco,CA,94117,899000,1,1.0,Alamo Square,900,,1990,18,999,417,Active,,,http://www.redfin.com/CA/San-Francisco/725-Fell-St-94117/unit-7/home/1313408,San Francisco MLS,501241,N,Y,37.7747683,-122.429821
MLS Listing,,Single Family Residential,1500 Visitacion Ave,San Francisco,CA,94134,899000,3,2.0,San Francisco,1068,1759,1944,45,842,,Active,,,http://www.redfin.com/CA/San-Francisco/1500-Visitacion-Ave-94134/home/966831,"bridgeMLS, Bay East AOR, or Contra Costa AOR",40909339,N,Y,37.7131716,-122.4135547
MLS Listing,,Condo/Co-op,109 S Lake Merced Hls Unit 2A,San Francisco,CA,94132,899000,3,2.0,Lake Shore,1474,,1975,32,610,908,Active,,,http://www.redfin.com/CA/San-Francisco/109-S-Lake-Merced-Hls-94132/unit-2A/home/1897240,San Francisco MLS,500950,N,Y,37.7100088,-122.4836353
MLS Listing,,Condo/Co-op,850 Minnesota St #257,San Francisco,CA,94107,899000,1,1.5,Central Waterfront,835,,2009,5,1077,517,Active,,,http://www.redfin.com/CA/San-Francisco/850-Minnesota-St-94107/unit-257/home/40142874,San Francisco MLS,498027,N,Y,37.7596716,-122.3908629
MLS Listing,,Condo/Co-op,1320 Stevenson St Unit C406,San Francisco,CA,94103,899000,2,1.0,South of Market,971,,1997,1,926,518,Active,,,http://www.redfin.com/CA/San-Francisco/1320-Stevenson-St-94103/unit-C406/home/1478886,San Francisco MLS,503075,N,Y,37.771152,-122.4220593
MLS Listing,,Townhouse,2571 San Jose Ave,San Francisco,CA,94112,899000,4,4.0,Ingleside,1867,2956,2010,31,482,,Active,,,http://www.redfin.com/CA/San-Francisco/2571-San-Jose-Ave-94112/home/28954924,San Francisco MLS,500954,N,Y,37.7170947,-122.4493199
MLS Listing,,Condo/Co-op,300 Berry St #1302,San Francisco,CA,94158,899000,1,1.0,Mission Bay,728,,2009,25,1235,584,Active,,,http://www.redfin.com/CA/San-Francisco/300-Berry-St-94158/unit-1302/home/28938781,San Francisco MLS,501333,N,Y,37.7739297,-122.3962408
MLS Listing,,Condo/Co-op,25 Orben Pl,San Francisco,CA,94115,899000,1,1.0,Lower Pacific Height,,,1900,7,,325,Active,,,http://www.redfin.com/CA/San-Francisco/25-Orben-Pl-94115/home/1529837,San Francisco MLS,500555,N,Y,37.7884021,-122.4330871
MLS Listing,,Condo/Co-op,455 Vallejo St #308,San Francisco,CA,94133,899000,1,1.0,Telegraph Hill,825,,1973,3,1090,661,Active,,,http://www.redfin.com/CA/San-Francisco/455-Vallejo-St-94133/unit-308/home/1935968,San Francisco MLS,502631,N,Y,37.7987932,-122.4047886
MLS Listing,,Single Family Residential,583 Vienna St,San Francisco,CA,94112,899000,3,1.0,Excelsior,1330,2500,1912,7,676,,Active,,,http://www.redfin.com/CA/San-Francisco/583-Vienna-St-94112/home/1345369,San Francisco MLS,498748,N,Y,37.7191723,-122.4311194
MLS Listing,,Townhouse,1035 South Van Ness Ave Unit A,San Francisco,CA,94110,899000,2,1.0,Inner Mission,,,1992,22,,175,Active,,,http://www.redfin.com/CA/San-Francisco/1035-S-Van-Ness-Ave-94110/unit-A/home/1309104,San Francisco MLS,500259,N,Y,37.756636,-122.416312
MLS Listing,,Condo/Co-op,125 Gilbert St #5,San Francisco,CA,94103,899000,1,1.5,South of Market,1035,,1996,54,869,667,Active,,,http://www.redfin.com/CA/San-Francisco/125-Gilbert-St-94103/unit-5/home/12396098,San Francisco MLS,499540,N,Y,37.7730847,-122.4020908
MLS Listing,,Condo/Co-op,239 26th Ave #203,San Francisco,CA,94121,899000,2,1.0,Lake,889,,1963,27,1011,300,Active,,,http://www.redfin.com/CA/San-Francisco/239-26th-Ave-94121/unit-203/home/24546049,San Francisco MLS,500465,N,Y,37.7849095,-122.4863342
MLS Listing,,Single Family Residential,163 Charter Oak Ave,San Francisco,CA,94124,899000,4,1.5,Silver Terrace,1284,2696,1907,34,700,,Active,,,http://www.redfin.com/CA/San-Francisco/163-Charter-Oak-Ave-94124/home/2024962,San Francisco MLS,500817,N,Y,37.7351093,-122.4043775
MLS Listing,,Condo/Co-op,1032 Capp St Unit A,San Francisco,CA,94110,899000,1,1.0,Inner Mission,,,1921,29,,331,Active,,,http://www.redfin.com/CA/San-Francisco/1032-Capp-St-94110/unit-A/home/172384434,San Francisco MLS,500951,N,Y,37.750228,-122.4173874
MLS Listing,,Condo/Co-op,3418 26th St #9,San Francisco,CA,94110,899000,1,1.5,Inner Mission,753,,2014,25,1194,610,Active,,,http://www.redfin.com/CA/San-Francisco/3418-26th-St-94110/unit-9/home/110051941,San Francisco MLS,501284,N,Y,37.7492018,-122.4189838
MLS Listing,,Condo/Co-op,825 La Playa St #331,San Francisco,CA,94121,899000,2,2.0,Outer Richmond,1084,,1983,96,829,806,Active,,,http://www.redfin.com/CA/San-Francisco/825-La-Playa-St-94121/unit-331/home/1709490,"bridgeMLS, Bay East AOR, or Contra Costa AOR",40902962,N,Y,37.7727074,-122.5104197
MLS Listing,,Condo/Co-op,1211 York St,San Francisco,CA,94110,899000,2,1.0,Inner Mission,975,,1875,4,922,,Active,,,http://www.redfin.com/CA/San-Francisco/1211-York-St-94110/home/172644525,San Francisco MLS,502265,N,Y,37.7524378,-122.4080455
MLS Listing,,Condo/Co-op,3311 Fillmore St #205,San Francisco,CA,94123,899000,2,1.0,San Francisco County,,6639,1992,4,,594,Active,,,http://www.redfin.com/CA/San-Francisco/3311-Fillmore-St-94123/unit-205/home/1135398,BAREIS,22017805,N,Y,37.8001022,-122.4364134
MLS Listing,,Condo/Co-op,451 Kansas St #373,San Francisco,CA,94107,899000,1,1.0,Potrero Hill,658,,2007,1,1366,513,Active,,,http://www.redfin.com/CA/San-Francisco/451-Kansas-St-94107/unit-373/home/23424328,San Francisco MLS,502166,N,Y,37.764113,-122.4029865
MLS Listing,,Condo/Co-op,451 Donahue St #504,SAN FRANCISCO,CA,94124,899888,2,2.0,SAN FRANCISCO,932,,2016,151,966,510,Active,,,http://www.redfin.com/CA/San-Francisco/451-Donahue-St-94124/unit-504/home/109687098,MLSListings,ML81785638,N,Y,37.7290014,-122.3696392
MLS Listing,,Single Family Residential,215 Middle Point Rd,San Francisco,CA,94124,899999,4,5.0,Bayview,1491,2660,1940,13,604,,Active,,,http://www.redfin.com/CA/San-Francisco/215-Middle-Point-Rd-94124/home/739666,"bridgeMLS, Bay East AOR, or Contra Costa AOR",40913444,N,Y,37.7337857,-122.3795785
MLS Listing,,Condo/Co-op,2040 Franklin St #1002,San Francisco,CA,94109,900000,1,1.5,Pacific Heights,,,1966,20,,847,Active,,,http://www.redfin.com/CA/San-Francisco/2040-Franklin-St-94109/unit-1002/home/1731271,San Francisco MLS,501606,N,Y,37.7935189,-122.4243158
MLS Listing,,Vacant Land,1298 Fitzgerald Ave,San Francisco,CA,94124,900000,,,Bayview,,2520,,25,,,Active,,,http://www.redfin.com/CA/San-Francisco/1298-Fitzgerald-Ave-94124/home/744159,San Francisco MLS,501121,N,Y,37.722133,-122.3929004
MLS Listing,,Condo/Co-op,388 Fulton St #611,San Francisco,CA,94102,900000,2,1.0,San Francisco,714,,2016,25,1261,603,Active,,,http://www.redfin.com/CA/San-Francisco/388-Fulton-St-94102/unit-611/home/110263318,"bridgeMLS, Bay East AOR, or Contra Costa AOR",40911850,N,Y,37.7790409,-122.4231102
New Construction Plan,,Condo/Co-op,10 Innes Ct #403,San Francisco,CA,94124,900000,2,2.0,The San Francisco Shipyard - Landing,1020,,,,882,,Active,,,http://www.redfin.com/CA/San-Francisco/The-San-Francisco-Shipyard-Landing/10-Innes-Ct-403/home/108519184,NewHomeSource.com,Plan-131685263,N,Y,37.7273365,-122.3683576
MLS Listing,,Condo/Co-op,1875 Mission St #304,San Francisco,CA,94103,900000,1,1.0,Inner Mission,751,,2014,20,1198,600,Active,,,http://www.redfin.com/CA/San-Francisco/1875-Mission-St-94103/unit-304/home/65904515,San Francisco MLS,501611,N,Y,37.7671013,-122.4194461
MLS Listing,,Single Family Residential,1490 Oakdale Ave,San Francisco,CA,94124,900000,3,1.0,Bayview,1265,2500,1890,21,711,,Active,,,http://www.redfin.com/CA/San-Francisco/1490-Oakdale-Ave-94124/home/1025390,San Francisco MLS,501582,N,Y,37.7336265,-122.3881431
MLS Listing,,Condo/Co-op,280 Spear St Unit 3Q,SAN FRANCISCO,CA,94105,910000,1,1.0,SAN FRANCISCO,638,,2020,214,1426,1078,Active,,,http://www.redfin.com/CA/San-Francisco/280-Spear-St-94105/unit-3Q/home/169041697,MLSListings,ML81778089,N,Y,37.7903739,-122.3913812
MLS Listing,,Single Family Residential,239 SAWYER St,SAN FRANCISCO,CA,94134,914500,2,1.0,SAN FRANCISCO,1100,1875,1959,5,831,,Active,,,http://www.redfin.com/CA/San-Francisco/239-Sawyer-St-94134/home/1222670,MLSListings,ML81803480,N,Y,37.7144602,-122.4136654
MLS Listing,,Condo/Co-op,260 King St #913,San Francisco,CA,94107,915000,1,1.0,Mission Bay,814,,2004,29,1124,799,Active,,,http://www.redfin.com/CA/San-Francisco/260-King-St-94107/unit-913/home/12331065,San Francisco MLS,501056,N,Y,37.7776422,-122.3934181
MLS Listing,,Condo/Co-op,301 Mission St Unit 5C,SAN FRANCISCO,CA,94105,919000,1,1.0,SAN FRANCISCO,833,,2009,53,1103,1572,Active,,,http://www.redfin.com/CA/San-Francisco/301-Mission-St-94105/unit-5C/home/40142377,MLSListings,ML81796403,N,Y,37.7903824,-122.3961531
MLS Listing,,Condo/Co-op,300 Berry St #1502,SAN FRANCISCO,CA,94158,920000,1,1.0,SAN FRANCISCO,728,,2009,52,1264,584,Active,,,http://www.redfin.com/CA/San-Francisco/300-Berry-St-94158/unit-1502/home/21884922,MLSListings,ML81792402,N,Y,37.7739297,-122.3962408
MLS Listing,,Condo/Co-op,1720 Clay St #4,San Francisco,CA,94109,925000,1,1.5,Nob Hill,862,,2000,3,1073,538,Active,,,http://www.redfin.com/CA/San-Francisco/1720-Clay-St-94109/unit-4/home/1399276,"bridgeMLS, Bay East AOR, or Contra Costa AOR",40914602,N,Y,37.7926927,-122.4213669
MLS Listing,,Single Family Residential,1407 Shafter Ave,San Francisco,CA,94124,925000,3,3.0,Bayview,,2500,1920,46,,,Active,,,http://www.redfin.com/CA/San-Francisco/1407-Shafter-Ave-94124/home/2011429,San Francisco MLS,499730,N,Y,37.7288748,-122.387324
MLS Listing,,Single Family Residential,2311 45th Ave,San Francisco,CA,94116,925000,1,2.0,Outer Parkside,1152,1437,1940,3,803,,Active,,,http://www.redfin.com/CA/San-Francisco/2311-45th-Ave-94116/home/1603965,San Francisco MLS,502725,N,Y,37.7433986,-122.5039048
MLS Listing,,Single Family Residential,188 Flournoy St,San Francisco,CA,94112,925000,5,2.0,San Francisco,2446,2499,1923,34,378,,Active,,,http://www.redfin.com/CA/San-Francisco/188-Flournoy-St-94112/home/1440831,"bridgeMLS, Bay East AOR, or Contra Costa AOR",40910703,N,Y,37.7085291,-122.4613861
MLS Listing,,Single Family Residential,,San Francisco,CA,94124,925000,3,1.0,Bayview,1155,2500,1961,41,801,,Active,,,http://www.redfin.com/CA/San-Francisco/Undisclosed-address-94124/home/1646377,"bridgeMLS, Bay East AOR, or Contra Costa AOR",40909769,N,Y,37.7315866,-122.3860899
MLS Listing,,Condo/Co-op,1650 Jackson St #401,San Francisco,CA,94109,925000,1,1.0,Nob Hill,843,,1991,1,1097,810,Active,,,http://www.redfin.com/CA/San-Francisco/1650-Jackson-St-94109/unit-401/home/1825282,San Francisco MLS,502886,N,Y,37.7943068,-122.422273
MLS Listing,,Condo/Co-op,38 Bryant St #903,San Francisco,CA,94105,929000,1,1.0,South Beach,833,,1994,37,1115,650,Active,,,http://www.redfin.com/CA/San-Francisco/38-Bryant-St-94105/unit-903/home/1495104,San Francisco MLS,500632,N,Y,37.7873678,-122.3887949
MLS Listing,,Condo/Co-op,34 Richland Ave,San Francisco,CA,94110,929000,2,1.5,Bernal Heights,,,1912,25,,325,Active,,,http://www.redfin.com/CA/San-Francisco/34-Richland-Ave-94110/home/22044565,San Francisco MLS,501356,N,Y,37.7358142,-122.4262596
MLS Listing,,Condo/Co-op,1188 Valencia St #311,San Francisco,CA,94110,929000,1,1.0,Inner Mission,,,2018,8,,486,Active,,,http://www.redfin.com/CA/San-Francisco/1188-Valencia-St-94110/unit-311/home/169571299,San Francisco MLS,502117,N,Y,37.75392,-122.4210164
MLS Listing,,Condo/Co-op,950 Tennessee St #109,San Francisco,CA,94107,929000,1,1.0,Central Waterfront,777,,2020,39,1196,544,Active,,,http://www.redfin.com/CA/San-Francisco/950-Tennessee-St-94107/unit-109/home/170136449,San Francisco MLS,500500,N,Y,37.7596747,-122.3898245
MLS Listing,,Condo/Co-op,3230 16th St Unit F,San Francisco,CA,94103,933000,2,1.0,Mission District,1097,,1908,74,851,410,Active,,,http://www.redfin.com/CA/San-Francisco/3230-16th-St-94103/unit-F/home/21971532,"bridgeMLS, Bay East AOR, or Contra Costa AOR",40905717,N,Y,37.7649566,-122.4248729
MLS Listing,,Condo/Co-op,300 Berry St #1107,San Francisco,CA,94158,935000,1,1.0,San Francisco County,732,41861,2009,27,1277,584,Active,,,http://www.redfin.com/CA/San-Francisco/300-Berry-St-94158/unit-1107/home/23455335,BAREIS,22015711,N,Y,37.7739297,-122.3962408
MLS Listing,,Condo/Co-op,208 N Lake Merced Hls Unit 2D,San Francisco,CA,94132,937000,2,2.0,Lake Shore,1384,,1975,25,677,908,Active,,,http://www.redfin.com/CA/San-Francisco/208-N-Lake-Merced-Hls-94132/unit-2D/home/1843700,San Francisco MLS,501419,N,Y,37.7133825,-122.4832983
MLS Listing,,Condo/Co-op,20 Crestline Dr #10,San Francisco,CA,94131,940000,3,1.0,Twin Peaks,971,,1964,11,968,585,Active,,,http://www.redfin.com/CA/San-Francisco/20-Crestline-Dr-94131/unit-10/home/28598226,San Francisco MLS,502336,N,Y,37.7499049,-122.4457064
MLS Listing,,Condo/Co-op,1380 Greenwich St #404,San Francisco,CA,94109,940000,1,1.0,Russian Hill,814,,1990,56,1155,622,Active,,,http://www.redfin.com/CA/San-Francisco/1380-Greenwich-St-94109/unit-404/home/560698,San Francisco MLS,499222,N,Y,37.8009605,-122.4224474
MLS Listing,,Condo/Co-op,52 Innes Ct #201,San Francisco,CA,94124,945000,2,2.0,Hunters Point,1080,,2018,354,875,576,Active,,,http://www.redfin.com/CA/San-Francisco/52-Innes-Ct-94124/unit-201/home/168676144,San Francisco MLS,488576,N,Y,37.7276224,-122.3674287
MLS Listing,,Condo/Co-op,1300 22nd St #214,San Francisco,CA,94107,945000,1,1.0,Potrero Hill,773,,2016,27,1223,642,Active,,,http://www.redfin.com/CA/San-Francisco/1300-22nd-St-94107/unit-214/home/131989597,San Francisco MLS,501162,N,Y,37.7578379,-122.3944714
MLS Listing,,Condo/Co-op,100 Parker Ave #302,San Francisco,CA,94118,945000,1,1.0,Jordan Park/Laurel Heights,976,,1929,34,968,500,Active,,,http://www.redfin.com/CA/San-Francisco/100-Parker-Ave-94118/unit-302/home/591594,San Francisco MLS,500845,N,Y,37.7837892,-122.4543483
MLS Listing,,Condo/Co-op,280 Spear St Unit 4U,San Francisco,CA,94105,945000,1,1.0,South Beach,671,,2020,44,1408,1078,Active,,,http://www.redfin.com/CA/San-Francisco/280-Spear-St-94105/unit-4U/home/172235511,San Francisco MLS,500197,N,Y,37.7903739,-122.3913812
MLS Listing,,Single Family Residential,1487 Underwood Ave,San Francisco,CA,94124,945000,5,2.0,Bayview,1488,2500,1932,25,635,,Active,,,http://www.redfin.com/CA/San-Francisco/1487-Underwood-Ave-94124/home/1132153,San Francisco MLS,498305,N,Y,37.7284356,-122.3898467
MLS Listing,,Condo/Co-op,260 King St #1311,San Francisco,CA,94107,949000,1,1.0,Mission Bay,868,,2004,25,1093,850,Active,,,http://www.redfin.com/CA/San-Francisco/260-King-St-94107/unit-1311/home/22889644,San Francisco MLS,498828,N,Y,37.7773548,-122.393336
MLS Listing,,Condo/Co-op,401 Harrison St Unit 5B,San Francisco,CA,94105,949000,1,1.0,South Beach,744,,2014,51,1276,1225,Active,,,http://www.redfin.com/CA/San-Francisco/401-Harrison-St-94105/unit-5B/home/112745872,San Francisco MLS,499683,N,Y,37.7864989,-122.3921487
MLS Listing,,Condo/Co-op,128 Morris St #16,SAN FRANCISCO,CA,94107,949000,1,1.5,SAN FRANCISCO,970,,2001,15,978,591,Active,,,http://www.redfin.com/CA/San-Francisco/128-Morris-St-94107/unit-16/home/1086939,MLSListings,ML81801961,N,Y,37.7760435,-122.4017064
MLS Listing,,Condo/Co-op,199 Tiffany Ave #311,San Francisco,CA,94110,949000,2,1.0,Bernal Heights,914,,2004,30,1038,660,Active,,,http://www.redfin.com/CA/San-Francisco/199-Tiffany-Ave-94110/unit-311/home/12278034,San Francisco MLS,500871,N,Y,37.744274,-122.4213436
MLS Listing,,Condo/Co-op,338 Spear St Unit 16G,San Francisco,CA,94105,949000,1,1.0,South Beach,807,,2009,40,1176,891,Active,,,http://www.redfin.com/CA/San-Francisco/338-Spear-St-94105/unit-16G/home/23424170,San Francisco MLS,499959,N,Y,37.7894137,-122.3906433
MLS Listing,,Condo/Co-op,88 Townsend St #216,San Francisco,CA,94107,949000,1,1.0,South Beach,722,,2004,59,1314,577,Active,,,http://www.redfin.com/CA/San-Francisco/88-Townsend-St-94107/unit-216/home/12401543,San Francisco MLS,499335,N,Y,37.781167,-122.3906969
MLS Listing,,Condo/Co-op,81 Lansing St #410,San Francisco,CA,94105,949000,1,1.0,South Beach,855,,1995,43,1110,743,Active,,,http://www.redfin.com/CA/San-Francisco/81-Lansing-St-94105/unit-410/home/1687074,San Francisco MLS,496524,N,Y,37.7856392,-122.3940066
MLS Listing,,Condo/Co-op,1461 Broadway #201,San Francisco,CA,94109,949000,2,2.0,Nob Hill,955,,1981,19,994,705,Active,,,http://www.redfin.com/CA/San-Francisco/1461-Broadway-94109/unit-201/home/1602049,San Francisco MLS,501652,N,Y,37.7957072,-122.4212625
MLS Listing,,Single Family Residential,1563 La Salle Ave,San Francisco,CA,94124,949000,3,2.0,Bayview,,2500,1953,76,,,Active,,,http://www.redfin.com/CA/San-Francisco/1563-La-Salle-Ave-94124/home/2005169,San Francisco MLS,498414,N,Y,37.7359321,-122.3881206
MLS Listing,,Condo/Co-op,177 Townsend St #626,San Francisco,CA,94107,949000,1,1.0,South Beach,885,,2007,26,1072,740,Active,,,http://www.redfin.com/CA/San-Francisco/177-Townsend-St-94107/unit-626/home/17305507,San Francisco MLS,501223,N,Y,37.7789817,-122.3917515
MLS Listing,,Condo/Co-op,219 Brannan St Unit 7B,San Francisco,CA,94107,949000,1,1.0,South Beach,723,,2000,74,1313,1109,Active,,,http://www.redfin.com/CA/San-Francisco/219-Brannan-St-94107/unit-7B/home/1593273,San Francisco MLS,497337,N,Y,37.7830623,-122.3901122
Redfin Data,,Condo/Co-op,333 1st St #1602,San Francisco,CA,94105,949000,1,1.0,San Francisco,713,,2004,5,1331,820,Pre On-Market,,,http://www.redfin.com/CA/San-Francisco/333-1st-St-94105/unit-1602/home/110184764,Coming Soon,60286,N,Y,37.7872383,-122.3940289
MLS Listing,,Condo/Co-op,75 Folsom St #1000,San Francisco,CA,94105,949000,1,1.0,South Beach,1019,,1991,26,931,1193,Active,,,http://www.redfin.com/CA/San-Francisco/75-Folsom-St-94105/unit-1000/home/1487211,San Francisco MLS,501253,N,Y,37.7898032,-122.3897573
MLS Listing,,Single Family Residential,1208 Fell St,San Francisco,CA,94117,949000,1,1.0,North Panhandle,816,446,1928,64,1163,,Active,,,http://www.redfin.com/CA/San-Francisco/1208-Fell-St-94117/home/171953997,San Francisco MLS,498633,N,Y,37.7741406,-122.4380655
