,property_type,address,city,state,zip_code,price,beds,baths,square_feet,lot_size,year_built,hoa_permonth,url,latitude,longitude
0,Single Family Residential,3755 W Strawberry Roan,Flagstaff,AZ,86005.0,749900.0,3.0,2.5,2308.0,2400.0,2015,279.0,http://www.redfin.com/AZ/Flagstaff/3755-W-Strawberry-Roan-86001/home/116132775,35.1725193,-111.7051756
1,Single Family Residential,2109 AMIEL WHIPPLE St,Flagstaff,AZ,86005.0,1199000.0,4.0,4.5,3200.0,18295.0,1991,950.0,http://www.redfin.com/AZ/Flagstaff/2109-Amiel-Whipple-86001/home/116184376,35.1057749,-111.71385579999999
2,Townhouse,4005 S Lake Mary Rd #4,Flagstaff,AZ,86005.0,260000.0,2.0,2.5,1275.0,793.0,1985,246.0,http://www.redfin.com/AZ/Flagstaff/4005-Lake-Mary-Rd-86001/unit-4/home/116212161,35.160388,-111.661891
3,Single Family Residential,1913 Bessie Kidd Best --,Flagstaff,AZ,86005.0,2650000.0,4.0,4.5,5557.0,55321.0,2004,950.0,http://www.redfin.com/AZ/Flagstaff/1913-Bessie-Kidd-Best-86001/home/116201756,35.109551700000004,-111.69597979999999
4,Condo/Co-op,3200 S Litzler Dr Unit 7-129,Flagstaff,AZ,86005.0,169000.0,1.0,1.0,562.0,435.0,1998,157.0,http://www.redfin.com/AZ/Flagstaff/3200-S-Litzler-Dr-86001/unit-7-129/home/116728460,35.172075899999996,-111.668305
5,Townhouse,4450 W Arabian Trl,Flagstaff,AZ,86005.0,685000.0,3.0,3.0,2506.0,4356.0,2017,281.0,http://www.redfin.com/AZ/Flagstaff/4450-W-Arabian-Trl-86001/home/117333564,35.177238,-111.711063
6,Single Family Residential,1695 Singletree Ct,Flagstaff,AZ,86005.0,850000.0,3.0,3.5,2706.0,13767.0,2005,200.0,http://www.redfin.com/AZ/Flagstaff/1695-Singletree-Ct-86005/home/116590233,35.1645559,-111.64279609999998
7,Single Family Residential,4115 S Pack Saddle,Flagstaff,AZ,86005.0,1800000.0,5.0,5.0,4000.0,17424.0,2011,750.0,http://www.redfin.com/AZ/Flagstaff/4115-Pack-Saddle-86001/home/116717871,35.1771594,-111.715623
8,Single Family Residential,2252 W Constitution Blvd,Flagstaff,AZ,86005.0,965000.0,3.0,2.5,3425.0,221720.0,2003,0.0,http://www.redfin.com/AZ/Flagstaff/2252-Constitution-Blvd-86005/home/116122154,35.158265,-111.700326
9,Single Family Residential,3775 Bridle Path,Flagstaff,AZ,86005.0,1600000.0,5.0,3.5,4571.0,45302.0,2014,750.0,http://www.redfin.com/AZ/Flagstaff/3775-Bridle-Path-86005/home/116889511,35.1761902,-111.7041508
10,Single Family Residential,2114 E Del Rae Dr,Flagstaff,AZ,86005.0,1325000.0,3.0,2.5,3130.0,18845.0,2006,200.0,http://www.redfin.com/AZ/Flagstaff/2114-E-del-Rae-Dr-86005/home/116382949,35.1529721,-111.6357946
11,Single Family Residential,2054 E Barranca Dr,Flagstaff,AZ,86005.0,3499000.0,4.0,4.5,5500.0,38768.0,2021,200.0,http://www.redfin.com/AZ/Flagstaff/2054-E-Barranca-86001/home/116806812,35.157282,-111.64165
12,Mobile/Manufactured Home,100 E Camille Dr,Flagstaff,AZ,86005.0,245000.0,3.0,2.0,1104.0,5227.0,1988,11.0,http://www.redfin.com/AZ/Flagstaff/100-E-Camille-Dr-86001/home/116113870,35.167784999999995,-111.6596213
13,Condo/Co-op,3200 S Litzler Dr Unit 5-218,Flagstaff,AZ,86005.0,208900.0,2.0,2.0,776.0,871.0,1998,216.0,http://www.redfin.com/AZ/Flagstaff/3200-S-Litzler-Dr-86001/unit-5-218/home/116808215,35.172075899999996,-111.668305
14,Single Family Residential,3251 S Tehama Cir,Flagstaff,AZ,86005.0,1295000.0,5.0,4.0,3167.0,17860.0,2004,200.0,http://www.redfin.com/AZ/Flagstaff/3251-S-Tehama-Cir-86005/home/116550511,35.159203000000005,-111.64489099999999
15,Single Family Residential,1435 W Romney Dr,Flagstaff,AZ,86005.0,285000.0,4.0,2.0,993.0,5662.0,1940,0.0,http://www.redfin.com/AZ/Flagstaff/1435-Romney-Ave-86005/home/116825931,35.164309,-111.682948
16,Condo/Co-op,3017 S Tourmaline Dr #12,Flagstaff,AZ,86005.0,894800.0,3.0,3.5,1989.0,2178.0,2020,510.0,http://www.redfin.com/AZ/Flagstaff/3017-S-Tourmaline-Dr-86001/unit-12/home/161573318,35.163344200000004,-111.64137659999999
17,Condo/Co-op,3200 S Litzler Bld 5 Unit 120,Flagstaff,AZ,86005.0,221750.0,2.0,2.0,805.0,871.0,1998,216.0,http://www.redfin.com/AZ/Flagstaff/3200-S-Litzler-Dr-86001/unit-5-120/home/116712544,35.172075899999996,-111.668305
18,Single Family Residential,1915 E Bare Oak Loop,Flagstaff,AZ,86005.0,1495000.0,4.0,4.5,4313.0,18730.0,2005,400.0,http://www.redfin.com/AZ/Flagstaff/1915-E-Bare-Oak-Loop-86005/home/116285410,35.152825,-111.639549
19,Single Family Residential,3545 S LARIAT Loop,Flagstaff,AZ,86005.0,999000.0,4.0,3.0,2965.0,19106.0,2018,533.0,http://www.redfin.com/AZ/Flagstaff/3545-Lariat-Loop-86005/home/116894918,35.179178,-111.70881100000001
20,Condo/Co-op,3200 S Litzler Unit 7-131,Flagstaff,AZ,86005.0,219900.0,2.0,2.0,776.0,871.0,1998,216.0,http://www.redfin.com/AZ/Flagstaff/3200-S-Litzler-Dr-86001/unit-7-131/home/116712579,35.172075899999996,-111.668305
21,Townhouse,3228 S MARRYVALE Ln,Flagstaff,AZ,86005.0,410000.0,2.0,2.5,1849.0,4814.0,2012,170.0,http://www.redfin.com/AZ/Flagstaff/3228-Merryvale-Ln-86001/home/116294487,35.1640011,-111.6494205
22,Single Family Residential,2616 E Telluride Dr,Flagstaff,AZ,86005.0,1250000.0,3.0,3.5,2779.0,14810.0,2014,200.0,http://www.redfin.com/AZ/Flagstaff/2616-Telluride-Dr-86005/home/116729165,35.1657098,-111.63479469999999
23,Single Family Residential,1848 E Sleeper Hollow Ct,Flagstaff,AZ,86005.0,1848000.0,3.0,3.5,3050.0,17309.0,2004,200.0,http://www.redfin.com/AZ/Flagstaff/1848-E-Sleeper-Hollow-Ct-86001/home/116141563,35.1523971,-111.64348170000001
24,Single Family Residential,2270 Isabella,Flagstaff,AZ,86005.0,619000.0,3.0,3.5,2380.0,17593.0,2000,950.0,http://www.redfin.com/AZ/Flagstaff/2270-Isabella-86001/home/116363040,35.105201799999996,-111.6907717
25,Condo/Co-op,4804 W Braided Rein #16,Flagstaff,AZ,86005.0,415900.0,3.0,2.0,1700.0,2398.0,2020,465.0,http://www.redfin.com/AZ/Flagstaff/4804-W-Braided-Rein-86001/unit-16/home/172131502,35.1791362,-111.7187712
26,Single Family Residential,2202 Platt Cline --,Flagstaff,AZ,86005.0,518000.0,2.0,2.0,1672.0,6970.0,1990,950.0,http://www.redfin.com/AZ/Flagstaff/2202-Platt-Cline-86001/home/116697175,35.105239700000006,-111.70303290000001
27,Single Family Residential,473 E Clover Creek Dr,Flagstaff,AZ,86005.0,570000.0,4.0,3.0,2326.0,9638.0,2016,13.0,http://www.redfin.com/AZ/Flagstaff/473-E-Clover-Creek-Dr-86005/home/116891503,35.1575786,-111.6636271
28,Townhouse,4365 W Arabian Trl #22,Flagstaff,AZ,86005.0,559900.0,3.0,3.0,2749.0,3800.0,2020,279.0,http://www.redfin.com/AZ/Flagstaff/4365-W-Arabian-Trl-86001/unit-22/home/171997406,35.1764158,-111.71068819999999
29,Townhouse,4415 W Arabian Trl #25,Flagstaff,AZ,86005.0,564900.0,3.0,3.0,2749.0,3800.0,2020,279.0,http://www.redfin.com/AZ/Flagstaff/4415-W-Arabian-Trl-86001/unit-25/home/171997349,35.176762,-111.71093429999999
30,Single Family Residential,3520 W Lead Rope,Flagstaff,AZ,86005.0,529000.0,3.0,3.5,2601.0,6098.0,2018,189.0,http://www.redfin.com/AZ/Flagstaff/3520-W-Lead-Rope-86005/home/116879036,35.174419,-111.703492
31,Single Family Residential,3769 W Strawberry Roan,Flagstaff,AZ,86005.0,550000.0,3.0,2.5,2132.0,2400.0,2010,750.0,http://www.redfin.com/AZ/Flagstaff/3769-W-Strawberry-Roan-86001/home/116513097,35.1723676,-111.70554820000001
32,Single Family Residential,4690 Lake Mary Rd,Flagstaff,AZ,86005.0,1795000.0,5.0,4.5,6049.0,544500.0,1992,100.0,http://www.redfin.com/AZ/Flagstaff/4690-Lake-Mary-Rd-86005/home/116762412,35.139915,-111.631285
33,Single Family Residential,2430 Polaris Way #1,Flagstaff,AZ,86005.0,786649.0,3.0,2.5,2521.0,12171.0,2020,70.0,http://www.redfin.com/AZ/Flagstaff/2430-S-Polaris-Way-86001/unit-1/home/171848678,35.186803600000005,-111.69694820000001
34,Condo/Co-op,1728 E Mossy Oak Ct #8,Flagstaff,AZ,86005.0,699000.0,3.0,2.0,1858.0,1742.0,2008,503.0,http://www.redfin.com/AZ/Flagstaff/1728-E-Mossy-Oak-Ct-86005/unit-8/home/116312146,35.163063,-111.64091499999999
35,Single Family Residential,6037 S AMETHYST Rd,Flagstaff,AZ,86005.0,659999.0,4.0,3.5,2856.0,11326.0,2006,20.0,http://www.redfin.com/AZ/Flagstaff/6037-S-Amethyst-Rd-86005/home/116286077,35.152444,-111.67501000000001
36,Condo/Co-op,3017 S Tourmaline Dr #11,Flagstaff,AZ,86005.0,914800.0,3.0,3.5,1989.0,2178.0,2020,510.0,http://www.redfin.com/AZ/Flagstaff/3017-S-Tourmaline-Dr-86001/unit-11/home/161573319,35.1634161,-111.6412836
37,Single Family Residential,990 Old Munds Hwy,Flagstaff,AZ,86005.0,875000.0,2.0,2.0,1559.0,326700.0,1958,0.0,http://www.redfin.com/AZ/Flagstaff/990-Old-Munds-Hwy-86001/home/116649444,35.123815500000006,-111.6862097
38,Single Family Residential,3560 Lariat Loop,Flagstaff,AZ,86005.0,995000.0,4.0,3.0,2900.0,13939.0,2020,533.0,http://www.redfin.com/AZ/Flagstaff/3560-Lariat-Loop-86005/home/116060127,35.179644,-111.70743300000001
39,Condo/Co-op,3200 Litzler 23-241 Unit 23-241,Flagstaff,AZ,86005.0,214900.0,2.0,2.0,805.0,871.0,1999,216.0,http://www.redfin.com/AZ/Flagstaff/3200-S-Litzler-Dr-86001/unit-23-241/home/116297977,35.172075899999996,-111.668305
40,Single Family Residential,4420 W Braided Rein,Flagstaff,AZ,86005.0,849000.0,3.0,2.5,2829.0,12197.0,2011,189.0,http://www.redfin.com/AZ/Flagstaff/4420-W-Braided-Rein-86005/home/116809175,35.1800144,-111.71234869999999
41,Townhouse,4345 W Arabian Trl,Flagstaff,AZ,86005.0,509900.0,2.0,2.5,2356.0,4000.0,2020,279.0,http://www.redfin.com/AZ/Flagstaff/4345-W-Arabian-Trl-86001/home/117333838,35.176224700000006,-111.71055220000001
42,Single Family Residential,4720 W Braided Rein,Flagstaff,AZ,86005.0,697948.0,3.0,3.0,2322.0,12627.0,2020,189.0,http://www.redfin.com/AZ/Flagstaff/4720-W-Braided-Rein-86005/home/116667612,35.179451,-111.716898
43,Single Family Residential,3845 S Box Canyon Trl,Flagstaff,AZ,86005.0,560000.0,5.0,3.5,3192.0,6970.0,2002,14.0,http://www.redfin.com/AZ/Flagstaff/3845-S-Box-Canyon-Trl-86005/home/116380553,35.159782,-111.672219
44,Single Family Residential,4085 S Lariat Loop,Flagstaff,AZ,86005.0,980000.0,4.0,3.5,3110.0,27878.0,2020,189.0,http://www.redfin.com/AZ/Flagstaff/4085-Lariat-Loop-86005/home/116384160,35.173319,-111.70402299999999
45,Single Family Residential,3443 S Pimlico Ct,Flagstaff,AZ,86005.0,3500000.0,4.0,6.0,5292.0,26752.0,2017,200.0,http://www.redfin.com/AZ/Flagstaff/3443-S-Pimlico-86005/home/116717672,35.156775399999994,-111.6415253
46,Townhouse,4315 W Arabian Trl,Flagstaff,AZ,86005.0,529900.0,3.0,2.5,2350.0,4390.0,2020,279.0,http://www.redfin.com/AZ/Flagstaff/4315-W-Arabian-Trl-86001/home/117333798,35.175845200000005,-111.7103818
47,Single Family Residential,2140 Amiel Whipple,Flagstaff,AZ,86005.0,1175000.0,4.0,4.5,4457.0,19166.0,1993,950.0,http://www.redfin.com/AZ/Flagstaff/2140-Amiel-Whipple-86001/home/116412530,35.1058176,-111.71481740000002
48,Single Family Residential,2140 Amiel Whipple -- #402,Flagstaff,AZ,86005.0,1175000.0,4.0,4.5,4457.0,19166.0,1993,950.0,http://www.redfin.com/AZ/Flagstaff/2140-Amiel-Whipple-86001/unit-402/home/170556554,35.1058176,-111.71481740000002
49,Single Family Residential,1701 E Mossy Oak Ct,Flagstaff,AZ,86005.0,800000.0,2.0,3.5,2310.0,11761.0,2005,200.0,http://www.redfin.com/AZ/Flagstaff/1701-E-Mossy-Oak-Ct-86005/home/116290576,35.162083,-111.64183799999999
50,Townhouse,3165 S Salvestrin Ln,Flagstaff,AZ,86005.0,475000.0,3.0,3.5,2179.0,3800.0,2006,170.0,http://www.redfin.com/AZ/Flagstaff/3165-S-Salvestrin-Ln-86001/home/116682985,35.164789299999995,-111.64848889999999
51,Single Family Residential,3296 S Clubhouse Cir,Flagstaff,AZ,86005.0,1575000.0,4.0,4.5,4671.0,22651.0,2019,200.0,http://www.redfin.com/AZ/Flagstaff/3296-S-Clubhouse-Cir-86005/home/116285260,35.158947,-111.64541200000001
52,Single Family Residential,4320 Lariat Loop,Flagstaff,AZ,86005.0,665369.0,4.0,3.0,2772.0,11761.0,2019,182.0,http://www.redfin.com/AZ/Flagstaff/4320-Lariat-Loop-86005/home/116309525,35.170178,-111.701834
53,Condo/Co-op,1709 E Bent Tree Cir #40,Flagstaff,AZ,86005.0,928000.0,3.0,3.5,1989.0,2178.0,2020,510.0,http://www.redfin.com/AZ/Flagstaff/1709-E-Bent-Tree-Cir-86001/unit-40/home/161573334,35.16518,-111.64166999999999
54,Condo/Co-op,1749 E Bent Tree Cir #17,Flagstaff,AZ,86005.0,815500.0,3.0,2.0,1967.0,2178.0,2020,510.0,http://www.redfin.com/AZ/Flagstaff/1749-E-Bent-Tree-Cir-86001/unit-17/home/161671876,35.164184000000006,-111.64066499999998
55,Townhouse,4425 Arabian Trl,Flagstaff,AZ,86005.0,539740.0,3.0,3.5,2673.0,0.0,2020,0.0,http://www.redfin.com/AZ/Flagstaff/4425-W-Arabian-Trl-86001/home/117333926,35.1768361,-111.7110416
56,Townhouse,4375 W Arabian Trl,Flagstaff,AZ,86005.0,536057.0,4.0,3.5,2678.0,0.0,2020,0.0,http://www.redfin.com/AZ/Flagstaff/4375-W-Arabian-Trl-86001/home/117333884,35.1765208,-111.7107461
57,Townhouse,4415 Arabian Trl,Flagstaff,AZ,86005.0,514900.0,3.0,2.5,2350.0,0.0,2020,0.0,http://www.redfin.com/AZ/Flagstaff/4415-W-Arabian-Trl-86001/home/117333914,35.176762,-111.71093429999999
58,Single Family Residential,Aspen Shadows Plan 3405,Flagstaff,AZ,86005.0,715000.0,4.0,3.5,3405.0,0.0,unknown,0.0,http://www.redfin.com/AZ/Flagstaff/Capstone-Homes-at-Flagstaff-Ranch/Aspen-Shadows-Plan-3405/home/170351554,35.180518299999996,-111.71195279999999
59,Single Family Residential,Aspen Shadows Plan 2915,Flagstaff,AZ,86005.0,709900.0,3.0,2.5,2915.0,0.0,unknown,0.0,http://www.redfin.com/AZ/Flagstaff/Capstone-Homes-at-Flagstaff-Ranch/Aspen-Shadows-Plan-2915/home/170351555,35.180518299999996,-111.71195279999999
60,Single Family Residential,Aspen Shadows Plan 2834,Flagstaff,AZ,86005.0,669900.0,4.0,3.5,2834.0,0.0,unknown,0.0,http://www.redfin.com/AZ/Flagstaff/Capstone-Homes-at-Flagstaff-Ranch/Aspen-Shadows-Plan-2834/home/170351556,35.180518299999996,-111.71195279999999
61,Single Family Residential,Aspen Shadows Plan 2618,Flagstaff,AZ,86005.0,634900.0,3.0,2.5,2618.0,0.0,unknown,0.0,http://www.redfin.com/AZ/Flagstaff/Capstone-Homes-at-Flagstaff-Ranch/Aspen-Shadows-Plan-2618/home/170351557,35.180518299999996,-111.71195279999999
62,Single Family Residential,Aspen Shadows Plan 2413,Flagstaff,AZ,86005.0,589900.0,4.0,3.0,2413.0,0.0,unknown,0.0,http://www.redfin.com/AZ/Flagstaff/Capstone-Homes-at-Flagstaff-Ranch/Aspen-Shadows-Plan-2413/home/170351558,35.180518299999996,-111.71195279999999
63,Single Family Residential,Aspen Shadows Plan 2308,Flagstaff,AZ,86005.0,599900.0,3.0,2.5,2308.0,0.0,unknown,0.0,http://www.redfin.com/AZ/Flagstaff/Capstone-Homes-at-Flagstaff-Ranch/Aspen-Shadows-Plan-2308/home/170351559,35.180518299999996,-111.71195279999999
64,Townhouse,Aspen Ridge Plan 6,Flagstaff,AZ,86005.0,559900.0,3.0,3.0,2749.0,0.0,unknown,0.0,http://www.redfin.com/AZ/Flagstaff/Aspen-Ridge-at-Flagstaff-Ranch/Aspen-Ridge-Plan-6/home/170351560,35.180518299999996,-111.71195279999999
65,Townhouse,Aspen Ridge Plan 5,Flagstaff,AZ,86005.0,509900.0,3.0,2.5,2360.0,0.0,unknown,0.0,http://www.redfin.com/AZ/Flagstaff/Aspen-Ridge-at-Flagstaff-Ranch/Aspen-Ridge-Plan-5/home/170351561,35.180518299999996,-111.71195279999999
66,Single Family Residential,Flagstaff Ranch Custom Plan 2322,Flagstaff,AZ,86005.0,729653.0,3.0,3.0,2322.0,0.0,unknown,0.0,http://www.redfin.com/AZ/Flagstaff/Capstone-Homes-at-Flagstaff-Ranch/Flagstaff-Ranch-Custom-Plan-2322/home/172115879,35.180518299999996,-111.71195279999999
67,Townhouse,Aspen Ridge Plan 4,Flagstaff,AZ,86005.0,509900.0,2.0,2.5,2356.0,0.0,unknown,0.0,http://www.redfin.com/AZ/Flagstaff/Aspen-Ridge-at-Flagstaff-Ranch/Aspen-Ridge-Plan-4/home/170351562,35.180518299999996,-111.71195279999999
68,Townhouse,Aspen Ridge Plan 3,Flagstaff,AZ,86005.0,519900.0,3.0,3.0,2506.0,0.0,unknown,0.0,http://www.redfin.com/AZ/Flagstaff/Aspen-Ridge-at-Flagstaff-Ranch/Aspen-Ridge-Plan-3/home/170351563,35.180518299999996,-111.71195279999999
69,Townhouse,Aspen Ridge Plan 2,Flagstaff,AZ,86005.0,501900.0,3.0,2.5,2389.0,0.0,unknown,0.0,http://www.redfin.com/AZ/Flagstaff/Aspen-Ridge-at-Flagstaff-Ranch/Aspen-Ridge-Plan-2/home/170329773,35.180518299999996,-111.71195279999999
70,Townhouse,Aspen Ridge Plan 1,Flagstaff,AZ,86005.0,494900.0,2.0,2.5,2335.0,0.0,unknown,0.0,http://www.redfin.com/AZ/Flagstaff/Aspen-Ridge-at-Flagstaff-Ranch/Aspen-Ridge-Plan-1/home/170351564,35.180518299999996,-111.71195279999999
71,Condo/Co-op,2821 N Walnut Hills Dr #19,Flagstaff,AZ,86004.0,285000.0,2.0,2.0,1075.0,871.0,1987,330.0,http://www.redfin.com/AZ/Flagstaff/2821-N-Walnut-Hills-Dr-86004/unit-19/home/116836134,35.201823,-111.572332
72,Townhouse,3850 N Fanning Dr Unit E-4,Flagstaff,AZ,86004.0,235000.0,4.0,1.5,1441.0,1263.0,1979,106.0,http://www.redfin.com/AZ/Flagstaff/3850-N-Fanning-Dr-86004/unit-E4/home/170312385,35.220415100000004,-111.5955987
73,Single Family Residential,8320 Arroyo Trl,Flagstaff,AZ,86004.0,638800.0,3.0,2.0,2000.0,108900.0,2000,0.0,http://www.redfin.com/AZ/Flagstaff/8320-Arroyo-Trl-86004/home/116384096,35.252026,-111.5007869
74,Single Family Residential,5615 Scioto Rd,Flagstaff,AZ,86004.0,425000.0,3.0,2.0,1755.0,12938.0,1979,0.0,http://www.redfin.com/AZ/Flagstaff/5615-Scioto-Rd-86004/home/116410488,35.198448,-111.5774
75,Single Family Residential,2811 N Steves Blvd,Flagstaff,AZ,86004.0,344900.0,3.0,1.5,1361.0,7490.0,1957,0.0,http://www.redfin.com/AZ/Flagstaff/2811-N-Steves-Blvd-86004/home/116754845,35.213562700000004,-111.6070568
76,Townhouse,2621 E Jeffrey Loop,Flagstaff,AZ,86004.0,320000.0,3.0,2.5,1643.0,0.0,1988,138.0,http://www.redfin.com/AZ/Flagstaff/2621-Jeffrey-Loop-86004/home/116319957,35.2145158,-111.60973510000001
77,Single Family Residential,940 N Sinagua Heights Dr,Flagstaff,AZ,86004.0,690000.0,3.0,3.0,2880.0,7841.0,1998,0.0,http://www.redfin.com/AZ/Flagstaff/940-N-Sinagua-Heights-Dr-86004/home/116755156,35.1916895,-111.6024222
78,Single Family Residential,1087 N Marina Ln,Flagstaff,AZ,86004.0,950000.0,4.0,2.5,3621.0,35719.0,2000,30.0,http://www.redfin.com/AZ/Flagstaff/1087-N-Marina-Ln-86004/home/172626287,35.1890477,-111.5905883
79,Single Family Residential,2504 E Miller Dr,Flagstaff,AZ,86004.0,349999.0,3.0,1.5,1362.0,7485.0,1957,0.0,http://www.redfin.com/AZ/Flagstaff/2504-E-Miller-Dr-86004/home/116817330,35.217822399999996,-111.6082446
80,Single Family Residential,5116 E HAWTHORNE Dr,Flagstaff,AZ,86004.0,564599.0,3.0,2.5,2503.0,13268.0,1985,45.0,http://www.redfin.com/AZ/Flagstaff/5116-E-Hawthorne-Dr-86004/home/116363279,35.194276,-111.5878895
81,Single Family Residential,4530 E Coldstream Ln,Flagstaff,AZ,86004.0,979000.0,4.0,3.5,3906.0,15246.0,1979,30.0,http://www.redfin.com/AZ/Flagstaff/4530-E-Coldstream-Ln-86004/home/116493221,35.1957302,-111.5928269
82,Single Family Residential,5130 Bighorn Dr,Flagstaff,AZ,86004.0,925000.0,6.0,5.0,4479.0,111514.0,2001,0.0,http://www.redfin.com/AZ/Flagstaff/5130-Bighorn-Dr-86004/home/116445961,35.2443547,-111.5578926
83,Single Family Residential,1905 N Main St,Flagstaff,AZ,86004.0,299000.0,1.0,1.0,1115.0,5424.0,1968,0.0,http://www.redfin.com/AZ/Flagstaff/1905-N-Main-St-86004/home/116592144,35.2066717,-111.6182125
84,Single Family Residential,4774 E Linger Ln,Flagstaff,AZ,86004.0,550000.0,4.0,3.0,2670.0,12197.0,1992,46.0,http://www.redfin.com/AZ/Flagstaff/4774-E-Linger-Ln-86004/home/116633998,35.204185200000005,-111.58765659999999
85,Single Family Residential,4805 E Hightimber Ln,Flagstaff,AZ,86004.0,745000.0,5.0,3.25,3663.0,11761.0,1989,33.0,http://www.redfin.com/AZ/Flagstaff/4805-E-Hightimber-Ln-86004/home/116531324,35.199826200000004,-111.5879827
86,Single Family Residential,6650 Lynx Ln,Flagstaff,AZ,86004.0,800000.0,4.0,3.0,2926.0,216058.0,1984,0.0,http://www.redfin.com/AZ/Flagstaff/6650-Lynx-Ln-86004/home/116365193,35.246292,-111.5307804
87,Condo/Co-op,4343 E Soliere Ave #2007,Flagstaff,AZ,86004.0,269900.0,3.0,2.0,1397.0,2908.0,1999,242.0,http://www.redfin.com/AZ/Flagstaff/4343-Soliere-Ave-86004/unit-2007/home/116724703,35.2131744,-111.5883598
88,Condo/Co-op,4343 Soliere Ave #2047,Flagstaff,AZ,86004.0,224500.0,2.0,2.0,1046.0,2903.0,2001,231.0,http://www.redfin.com/AZ/Flagstaff/4343-Soliere-Ave-86004/unit-2047/home/116728961,35.211648600000004,-111.58842879999999
89,Single Family Residential,4525 N Doral Way,Flagstaff,AZ,86004.0,659000.0,4.0,2.5,2520.0,21649.0,1983,46.0,http://www.redfin.com/AZ/Flagstaff/4525-N-Doral-Way-86004/home/116633912,35.198276899999996,-111.5927803
90,Single Family Residential,4850 E Mount Pleasant Dr,Flagstaff,AZ,86004.0,1195000.0,4.0,3.0,4518.0,57064.0,1988,46.0,http://www.redfin.com/AZ/Flagstaff/4850-E-Mt-Pleasant-Dr-86004/home/116762170,35.186100700000004,-111.59517920000002
91,Single Family Residential,7535 N Rain Valley Rd,Flagstaff,AZ,86004.0,669000.0,3.0,2.5,1937.0,215186.0,1986,0.0,http://www.redfin.com/AZ/Flagstaff/7535-N-Rain-Valley-Rd-86004/home/116669735,35.248072,-111.54113999999998
92,Single Family Residential,4241 E Broken Rock Loop Loop,Flagstaff,AZ,86004.0,995000.0,7.0,6.5,5860.0,18764.0,2001,30.0,http://www.redfin.com/AZ/Flagstaff/4241-E-Broken-Rock-Loop-86004/home/116153781,35.208705200000004,-111.59063770000002
93,Single Family Residential,931 N Hulet Ln,Flagstaff,AZ,86004.0,700000.0,5.0,3.5,4759.0,10567.0,1995,17.0,http://www.redfin.com/AZ/Flagstaff/931-N-Hulet-Ln-86004/home/116349942,35.1846869,-111.58039
94,Single Family Residential,3721 Kingswood Way,Flagstaff,AZ,86004.0,699900.0,4.0,2.5,3570.0,17424.0,1996,0.0,http://www.redfin.com/AZ/Flagstaff/3721-Kingswood-Way-86004/home/116383579,35.223735600000005,-111.6108763
95,Condo/Co-op,1401 N Fourth St #212,Flagstaff,AZ,86004.0,249900.0,2.0,1.25,996.0,871.0,1996,214.0,http://www.redfin.com/AZ/Flagstaff/1401-N-Fourth-St-86004/unit-212/home/116393489,35.1993708,-111.6088125
96,Condo/Co-op,3001 E Butler Ave #44,Flagstaff,AZ,86004.0,298000.0,2.0,2.5,1098.0,0.0,2020,175.0,http://www.redfin.com/AZ/Flagstaff/3001-E-Butler-Ave-86004/unit-44/home/172030081,35.1936032,-111.61381270000001
97,Single Family Residential,7600 N Pine Canyon Dr,Flagstaff,AZ,86004.0,1500000.0,4.0,2.5,3254.0,202118.0,1993,0.0,http://www.redfin.com/AZ/Flagstaff/7600-N-Pine-Canyon-Dr-86004/home/116554333,35.248545899999996,-111.53447379999999
98,Single Family Residential,401 N Sky View St,Flagstaff,AZ,86004.0,2800000.0,5.0,5.5,6260.0,147668.0,2008,46.0,http://www.redfin.com/AZ/Flagstaff/N-Sky-View-St-86004/home/116321296,35.182909,-111.58993600000001
99,Single Family Residential,5705 Townsend-Winona Rd,Flagstaff,AZ,86004.0,850000.0,5.0,3.75,4320.0,276170.0,1992,0.0,http://www.redfin.com/AZ/Flagstaff/5705-Townsend-Winona-Rd-86004/home/116208909,35.246469,-111.547312
100,Single Family Residential,7299 Bullion Hill Rd,Flagstaff,AZ,86004.0,799900.0,5.0,4.5,3820.0,73180.0,1984,0.0,http://www.redfin.com/AZ/Flagstaff/7299-Bullion-Hill-Rd-86004/home/116570750,35.2460343,-111.5007636
101,Townhouse,3889 N Fanning Dr,Flagstaff,AZ,86004.0,429000.0,5.0,2.5,2261.0,3780.0,1973,50.0,http://www.redfin.com/AZ/Flagstaff/3889-N-Fanning-Dr-86004/home/116784166,35.22077,-111.5960642
102,Single Family Residential,5790 N Smoke Rise Dr,Flagstaff,AZ,86004.0,375000.0,4.0,2.0,1772.0,7073.0,1965,0.0,http://www.redfin.com/AZ/Flagstaff/5790-N-Smokerise-Dr-86004/home/116626036,35.2336063,-111.57363629999999
103,Condo/Co-op,3001 E Butler Ave #47,Flagstaff,AZ,86004.0,310000.0,3.0,1.5,1128.0,0.0,2020,175.0,http://www.redfin.com/AZ/Flagstaff/3001-E-Butler-Ave-86004/unit-47/home/170602467,35.1936032,-111.61381270000001
104,Condo/Co-op,3001 E Butler Ave,Flagstaff,AZ,86004.0,310000.0,3.0,1.5,1128.0,0.0,2020,175.0,http://www.redfin.com/AZ/Flagstaff/3001-E-Butler-Ave-86004/home/116104779,35.1936032,-111.61381270000001
105,Single Family Residential,6701 N N Rain Valley Rd Rd,Flagstaff,AZ,86004.0,1500000.0,4.0,2.5,3045.0,871636.0,1982,0.0,http://www.redfin.com/AZ/Flagstaff/6701-N-Rain-Valley-Rd-86004/home/116762084,35.229673999999996,-111.53978799999999
106,Single Family Residential,4972 E Retreat Cir Lot 4,Flagstaff,AZ,86004.0,360900.0,2.0,2.5,1248.0,3624.0,2020,25.0,http://www.redfin.com/AZ/Flagstaff/4972-Fourth-St-86004/unit-4/home/170310662,35.238561,-111.56868200000001
107,Single Family Residential,4960 E Retreat Cir Lot 2,Flagstaff,AZ,86004.0,370900.0,3.0,2.5,1325.0,3615.0,2020,25.0,http://www.redfin.com/AZ/Flagstaff/4960-E-Retreat-CIR-86004/unit-2/home/170310661,35.238528,-111.568651
108,Single Family Residential,6900 N Rain Valley Rd Rd,Flagstaff,AZ,86004.0,725000.0,2.0,1.0,1930.0,1262804.0,1948,0.0,http://www.redfin.com/AZ/Flagstaff/6900-N-Rain-Valley-Rd-86004/home/116778941,35.236362,-111.540296
109,Single Family Residential,4966 E Retreat Cir Lot 3,Flagstaff,AZ,86004.0,392900.0,4.0,3.5,1678.0,3619.0,2020,25.0,http://www.redfin.com/AZ/Flagstaff/4966-E-Retreat-CIR-86004/unit-3/home/170306855,35.238433,-111.568059
110,Single Family Residential,4954 E Retreat Cir Lot 1,Flagstaff,AZ,86004.0,301400.0,2.0,1.0,1002.0,3592.0,2020,25.0,http://www.redfin.com/AZ/Flagstaff/4954-E-Retreat-CIR-86004/unit-1/home/170306791,35.238509,-111.568818
111,Single Family Residential,351 N Skyview St,Flagstaff,AZ,86004.0,1499980.0,3.0,3.75,4697.0,136778.0,1998,46.0,http://www.redfin.com/AZ/Flagstaff/N-Sky-View-St-86004/home/116175855,35.182465,-111.590506
112,Single Family Residential,3356 N King St,Flagstaff,AZ,86004.0,385000.0,4.0,2.0,1550.0,7405.0,1962,0.0,http://www.redfin.com/AZ/Flagstaff/3356-N-King-St-86004/home/116520587,35.220060100000005,-111.6109462
113,Single Family Residential,3468 S Del Mar Ct,Flagstaff,AZ,86003.0,1610000.0,5.0,4.0,4068.0,22216.0,2020,200.0,http://www.redfin.com/AZ/Flagstaff/3468-S-del-Mar-Ct-86005/home/116724239,35.152805,-111.63673500000002
114,Single Family Residential,29 S Pinegrove Rd,Flagstaff,AZ,86001.0,309000.0,3.0,1.0,950.0,7000.0,1955,0.0,http://www.redfin.com/AZ/Flagstaff/29-S-Pinegrove-Rd-86001/home/116404034,35.1828769,-111.64765049999998
115,Single Family Residential,2750 W Darleen Dr,Flagstaff,AZ,86001.0,439000.0,3.0,2.0,2100.0,8000.0,1973,0.0,http://www.redfin.com/AZ/Flagstaff/2750-W-Darleen-Dr-86001/home/116631888,35.2312907,-111.66807539999999
116,Condo/Co-op,2495 W Washburn Ct,Flagstaff,AZ,86001.0,325000.0,3.0,2.5,1629.0,1069.0,2015,81.0,http://www.redfin.com/AZ/Flagstaff/2495-W-Washburn-Ct-86001/home/116385512,35.189338899999996,-111.683497
117,Condo/Co-op,3200 S Litzler Dr,Flagstaff,AZ,86001.0,215000.0,2.0,2.0,805.0,900.0,2000,216.0,http://www.redfin.com/AZ/Flagstaff/3200-S-Litzler-Dr-86001/unit-21-134/home/116720355,35.172075899999996,-111.668305
118,Townhouse,2547 S Sliding Rock Ln,Flagstaff,AZ,86001.0,347500.0,3.0,2.5,1345.0,2613.0,2002,100.0,http://www.redfin.com/AZ/Flagstaff/2547-S-Sliding-Rock-Ln-86001/home/116743710,35.17926,-111.67885700000001
119,Townhouse,2558 S Sonoran Ln,Flagstaff,AZ,86001.0,349000.0,3.0,2.5,1355.0,2613.0,2002,100.0,http://www.redfin.com/AZ/Flagstaff/2558-S-Sonoran-Ln-86001/home/116472815,35.179395899999996,-111.679144
120,Single Family Residential,3340 N Estates St St,Flagstaff,AZ,86001.0,540000.0,4.0,2.5,2233.0,8276.0,1994,0.0,http://www.redfin.com/AZ/Flagstaff/3340-N-Estates-St-86001/home/116163951,35.237455499999996,-111.6662821
123,Single Family Residential,2931 S Pardo Calle,Flagstaff,AZ,86001.0,499950.0,4.0,3.0,2181.0,3920.0,2020,73.0,http://www.redfin.com/AZ/Flagstaff/2931-S-Pardo-Calle-86001/home/116928796,35.183755,-111.689039
124,Single Family Residential,119 S Agassiz St,Flagstaff,AZ,86001.0,429000.0,2.0,1.0,831.0,5604.0,1920,0.0,http://www.redfin.com/AZ/Flagstaff/119-S-Agassiz-St-86001/home/116391158,35.1945119,-111.64852379999999
125,Single Family Residential,2217 W Mission Timber Cir,Flagstaff,AZ,86001.0,425000.0,3.0,3.0,1975.0,2614.0,2016,24.0,http://www.redfin.com/AZ/Flagstaff/2217-W-Mission-Timber-Cir-86001/home/116930238,35.183669,-111.687446
126,Condo/Co-op,19 W Dale Ave #301,Flagstaff,AZ,86001.0,369000.0,1.0,1.0,764.0,436.0,2018,325.0,http://www.redfin.com/AZ/Flagstaff/19-W-Dale-Ave-86001/unit-301/home/170307026,35.2013061,-111.64831370000002
127,Single Family Residential,2290 Tom Mcmillan Cir,Flagstaff,AZ,86001.0,469850.0,3.0,2.0,2008.0,9583.0,1989,950.0,http://www.redfin.com/AZ/Flagstaff/2290-Tom-McMillan-Cir-86001/home/116092743,35.1062512,-111.70484950000001
128,Condo/Co-op,1200 S Riordan Ranch Bld 14-108,Flagstaff,AZ,86001.0,235000.0,2.0,2.0,827.0,0.0,1983,248.0,http://www.redfin.com/AZ/Flagstaff/1200-S-Riordan-Ranch-St-86001/unit-108/home/116619014,35.1886371,-111.6592257
129,Single Family Residential,3569 W Altair Way,Flagstaff,AZ,86001.0,479900.0,3.0,2.5,2303.0,6670.0,2020,60.0,http://www.redfin.com/AZ/Flagstaff/3569-W-Altair-Way-86001/home/172247619,35.188963,-111.6975793
130,Single Family Residential,3553 W Altair Way,Flagstaff,AZ,86001.0,429900.0,3.0,2.0,1569.0,6670.0,2020,60.0,http://www.redfin.com/AZ/Flagstaff/3553-W-Altair-Way-86001/home/172247199,35.188868799999995,-111.69720790000001
131,Single Family Residential,3548 W Altair Way,Flagstaff,AZ,86001.0,435000.0,3.0,2.0,1715.0,6677.0,2020,60.0,http://www.redfin.com/AZ/Flagstaff/3548-W-Altair-Way-86001/home/172246127,35.189271000000005,-111.6968555
132,Single Family Residential,3544 W Electra Dr,Flagstaff,AZ,86001.0,479900.0,3.0,2.0,2245.0,6670.0,2020,60.0,http://www.redfin.com/AZ/Flagstaff/3544-W-Electra-Dr-86001/home/172243867,35.18856829999999,-111.697318
133,Single Family Residential,3041 N Boldt Dr,Flagstaff,AZ,86001.0,724900.0,3.0,2.0,1957.0,76666.0,2006,20.0,http://www.redfin.com/AZ/Flagstaff/3041-N-Boldt-Dr-86001/home/116216753,35.238534200000004,-111.67832279999999
134,Single Family Residential,3508 W Altair Way,Flagstaff,AZ,86001.0,444900.0,4.0,2.5,2196.0,8485.0,2020,60.0,http://www.redfin.com/AZ/Flagstaff/3508-W-Altair-Way-86001/home/172133396,35.18903579999999,-111.69584590000001
135,Condo/Co-op,1734 E Mossy Oak Ct #2,Flagstaff,AZ,86001.0,799000.0,3.0,2.0,1842.0,1742.0,2008,510.0,http://www.redfin.com/AZ/Flagstaff/1734-E-Mossy-Oak-Ct-86005/unit-2/home/116386346,35.163543,-111.64027
136,Single Family Residential,3529 W Altair Way,Flagstaff,AZ,86001.0,388000.0,3.0,2.0,1471.0,6670.0,2020,60.0,http://www.redfin.com/AZ/Flagstaff/3529-W-Altair-Way-86001/home/172053107,35.188693799999996,-111.69651770000002
137,Condo/Co-op,3200 S Litzler Unit 25-149,Flagstaff,AZ,86001.0,212400.0,2.0,2.0,912.0,871.0,1999,216.0,http://www.redfin.com/AZ/Flagstaff/3200-S-Litzler-Dr-86001/unit-25-149/home/116315181,35.172075899999996,-111.668305
138,Townhouse,574 N Otto Dr,Flagstaff,AZ,86001.0,629995.0,4.0,3.5,3066.0,1546.0,2015,52.0,http://www.redfin.com/AZ/Flagstaff/574-N-Otto-Dr-86001/home/117329494,35.1997059,-111.63793259999998
139,Single Family Residential,3561 W Altair Way Lot 38,Flagstaff,AZ,86001.0,482500.0,4.0,2.5,2196.0,6670.0,2020,60.0,http://www.redfin.com/AZ/Flagstaff/3561-W-Altair-Way-86001/unit-38/home/172000887,35.1889156,-111.6973926
140,Single Family Residential,3521 W Altair Way Lot 43,Flagstaff,AZ,86001.0,441400.0,3.0,2.0,1569.0,6670.0,2020,60.0,http://www.redfin.com/AZ/Flagstaff/3521-W-Altair-Way-86001/unit-43/home/172000835,35.1886466,-111.6963316
141,Single Family Residential,2988 N Kristin Dr,Flagstaff,AZ,86001.0,1600000.0,6.0,4.5,5200.0,46174.0,2007,20.0,http://www.redfin.com/AZ/Flagstaff/2988-N-Kristin-Dr-86001/home/116567576,35.238043100000006,-111.6797435
142,Condo/Co-op,3200 Litzler Dr Unit 11-245,Flagstaff,AZ,86001.0,210000.0,2.0,2.0,776.0,871.0,1989,216.0,http://www.redfin.com/AZ/Flagstaff/3200-S-Litzler-Dr-86001/unit-11-245/home/116074882,35.172075899999996,-111.668305
143,Single Family Residential,2033 N Cobblestone Cir,Flagstaff,AZ,86001.0,1195000.0,4.0,3.5,3150.0,25265.0,2020,17.0,http://www.redfin.com/AZ/Flagstaff/2033-N-Cobblestone-Cir-86001/home/116525632,35.225401,-111.663697
144,Townhouse,2493 W Clement Cir Unit 34e,Flagstaff,AZ,86001.0,434864.0,4.0,3.0,2243.0,3000.0,2019,23.0,http://www.redfin.com/AZ/Flagstaff/2493-W-Clement-Cir-86001/unit-34e/home/171597241,35.181807899999995,-111.687894
145,Townhouse,2489 W Clement Cir Unit 33e,Flagstaff,AZ,86001.0,448008.0,4.0,3.0,2243.0,3000.0,2019,23.0,http://www.redfin.com/AZ/Flagstaff/2489-W-Clement-Cir-86001/unit-33e/home/171597240,35.181712,-111.687894
147,Single Family Residential,385 N Bertrand St,Flagstaff,AZ,86001.0,625000.0,4.0,3.0,2843.0,9675.0,1966,0.0,http://www.redfin.com/AZ/Flagstaff/385-N-Bertrand-St-86001/home/116157638,35.1985039,-111.63959229999999
148,Townhouse,658 N FOREST VIEW Dr Unit SW6,Flagstaff,AZ,86001.0,578563.0,3.0,2.5,2421.0,3358.0,2020,52.0,http://www.redfin.com/AZ/Flagstaff/658-N-Forest-View-Dr-86001/unit-SW6/home/171250844,35.2004994,-111.6382652
149,Condo/Co-op,19 W Dale Ave Ave #102,Flagstaff,AZ,86001.0,434995.0,2.0,2.0,920.0,0.0,2018,325.0,http://www.redfin.com/AZ/Flagstaff/19-W-Dale-Ave-86001/unit-102/home/170309851,35.2013061,-111.64831370000002
150,Single Family Residential,Mile 6 Forest Rd 151,Flagstaff,AZ,86001.0,3750000.0,4.0,5.0,10000.0,1829520.0,2011,0.0,http://www.redfin.com/AZ/Flagstaff/151-W-Forest-Ave-86001/home/170309705,35.2107629,-111.64413929999999
151,Townhouse,2529 W Cripple Creek Dr,Flagstaff,AZ,86001.0,395900.0,4.0,3.5,1920.0,1200.0,2020,81.0,http://www.redfin.com/AZ/Flagstaff/2529-W-Cripple-Creek-Dr-86001/home/116486156,35.1882919,-111.68421799999999
152,Townhouse,2537 W Cripple Creek Dr,Flagstaff,AZ,86001.0,395900.0,4.0,3.5,1920.0,1200.0,2020,81.0,http://www.redfin.com/AZ/Flagstaff/2537-W-Cripple-Creek-Dr-86001/home/116385418,35.1882919,-111.684306
153,Townhouse,2545 W Cripple Creek Dr,Flagstaff,AZ,86001.0,395900.0,4.0,3.5,1920.0,1200.0,2020,81.0,http://www.redfin.com/AZ/Flagstaff/2545-W-Cripple-Creek-Dr-86001/home/116575302,35.1882919,-111.684393
154,Townhouse,2521 W Cripple Creek Dr,Flagstaff,AZ,86001.0,399900.0,4.0,3.5,1920.0,1200.0,2020,81.0,http://www.redfin.com/AZ/Flagstaff/2521-W-Cripple-Creek-Dr-86001/home/116132389,35.1882919,-111.68413100000001
155,Townhouse,2561 W Cripple Creek Dr,Flagstaff,AZ,86001.0,399900.0,4.0,3.5,1920.0,1200.0,2020,81.0,http://www.redfin.com/AZ/Flagstaff/2561-W-Cripple-Creek-Dr-86001/home/116296725,35.188293,-111.684568
156,Townhouse,658 N Forest View Dr #6,Flagstaff,AZ,86001.0,578563.0,3.0,2.5,2421.0,3358.0,2020,52.0,http://www.redfin.com/AZ/Flagstaff/658-N-Forest-View-Dr-86001/unit-6/home/170593263,35.2004994,-111.6382652
157,Single Family Residential,1080 N Turquoise Dr,Flagstaff,AZ,86001.0,599000.0,4.0,2.5,2941.0,11816.0,1973,0.0,http://www.redfin.com/AZ/Flagstaff/1080-N-Turquoise-Dr-86001/home/116575846,35.2055427,-111.6381716
158,Single Family Residential,1320 N Aztec St,Flagstaff,AZ,86001.0,800000.0,6.0,4.0,4514.0,12560.0,1974,0.0,http://www.redfin.com/AZ/Flagstaff/1320-N-Aztec-St-86001/home/116819673,35.2127109,-111.653566
159,Single Family Residential,3692 Griffiths,Flagstaff,AZ,86001.0,998000.0,4.0,3.5,3237.0,31799.0,1996,950.0,http://www.redfin.com/AZ/Flagstaff/3692-Griffiths-86001/home/170950734,35.106876,-111.71319299999999
160,Single Family Residential,789 W Lone Star Trl,Flagstaff,AZ,86001.0,550000.0,4.0,3.5,3020.0,7848.0,2004,14.0,http://www.redfin.com/AZ/Flagstaff/789-W-Lone-Star-Trl-86001/home/116751845,35.1596907,-111.67312920000002
162,Townhouse,2406 W PIKES PEAK Dr,Flagstaff,AZ,86001.0,334900.0,4.0,2.75,1624.0,1151.0,2019,80.0,http://www.redfin.com/AZ/Flagstaff/2406-W-Pikes-Peak-Dr-86001/home/116893208,35.1891231,-111.68300729999999
163,Townhouse,580 N Forest View Dr #1,Flagstaff,AZ,86001.0,558493.0,3.0,2.5,2421.0,3080.0,2020,41.0,http://www.redfin.com/AZ/Flagstaff/580-N-Forest-View-Dr-86001/unit-1/home/170310664,35.2001185,-111.63779550000001
164,Townhouse,2414 W PIKES PEAK Dr,Flagstaff,AZ,86001.0,334900.0,4.0,2.75,1624.0,1151.0,2019,80.0,http://www.redfin.com/AZ/Flagstaff/2414-W-Pikes-Peak-Dr-86001/home/116895877,35.189063399999995,-111.6830371
165,Single Family Residential,3945 Saddle Blanket,Flagstaff,AZ,86001.0,1850000.0,5.0,3.0,3983.0,58370.0,2014,702.0,http://www.redfin.com/AZ/Flagstaff/3945-Saddle-Blanket-86005/home/116879077,35.1740208,-111.7090649
167,Townhouse,2422 W Pikes Peak Dr,Flagstaff,AZ,86001.0,334900.0,4.0,2.75,1624.0,1200.0,2019,81.0,http://www.redfin.com/AZ/Flagstaff/2422-W-Pikes-Peak-Dr-86001/home/116061063,35.189004,-111.6830659
168,Mobile/Manufactured Home,727 E Zuni Dr,Flagstaff,AZ,86001.0,410000.0,3.0,2.0,1696.0,0.0,1978,0.0,http://www.redfin.com/AZ/Flagstaff/727-E-Zuni-Dr-86001/home/116824503,35.1650583,-111.6544976
169,Single Family Residential,Crestview Plan 1701,Flagstaff,AZ,86001.0,408900.0,3.0,2.0,1701.0,0.0,unknown,0.0,http://www.redfin.com/AZ/Flagstaff/Crestview/Crestview-Plan-1701/home/170303924,35.192398,-111.68563600000002
170,Single Family Residential,Timber Sky Plan 3222,Flagstaff,AZ,86001.0,544900.0,3.0,3.0,3222.0,0.0,unknown,0.0,http://www.redfin.com/AZ/Flagstaff/Orion-at-Timber-Sky/Timber-Sky-Plan-3222/home/172563293,35.1965685,-111.63524299999999
171,Single Family Residential,Timber Sky Plan 2882,Flagstaff,AZ,86001.0,529900.0,4.0,3.5,2882.0,0.0,unknown,0.0,http://www.redfin.com/AZ/Flagstaff/Orion-at-Timber-Sky/Timber-Sky-Plan-2882/home/172544132,35.1965685,-111.63524299999999
172,Single Family Residential,Timber Sky Plan 2467,Flagstaff,AZ,86001.0,494900.0,3.0,3.5,2467.0,0.0,unknown,0.0,http://www.redfin.com/AZ/Flagstaff/Orion-at-Timber-Sky/Timber-Sky-Plan-2467/home/172533322,35.1965685,-111.63524299999999
173,Single Family Residential,Crestview Plan 1669,Flagstaff,AZ,86001.0,379900.0,2.0,2.5,1669.0,0.0,unknown,0.0,http://www.redfin.com/AZ/Flagstaff/Crestview/Crestview-Plan-1669/home/170351568,35.192398,-111.68563600000002
174,Single Family Residential,Crestview Plan 1553,Flagstaff,AZ,86001.0,369900.0,3.0,2.5,1553.0,0.0,unknown,0.0,http://www.redfin.com/AZ/Flagstaff/Crestview/Crestview-Plan-1553/home/170351569,35.192398,-111.68563600000002
175,Single Family Residential,Timber Sky Plan 2303,Flagstaff,AZ,86001.0,454900.0,3.0,2.5,2303.0,0.0,unknown,0.0,http://www.redfin.com/AZ/Flagstaff/Orion-at-Timber-Sky/Timber-Sky-Plan-2303/home/172611594,35.1965685,-111.63524299999999
176,Single Family Residential,Crestview Plan 1958,Flagstaff,AZ,86001.0,411900.0,4.0,3.0,1958.0,0.0,unknown,0.0,http://www.redfin.com/AZ/Flagstaff/Crestview/Crestview-Plan-1958/home/170351571,35.192398,-111.68563600000002
177,Single Family Residential,Crestview Plan 1720,Flagstaff,AZ,86001.0,399900.0,3.0,2.0,1720.0,0.0,unknown,0.0,http://www.redfin.com/AZ/Flagstaff/Crestview/Crestview-Plan-1720/home/170351572,35.192398,-111.68563600000002
178,Single Family Residential,Timber Sky Plan 2299,Flagstaff,AZ,86001.0,469900.0,3.0,2.5,2299.0,0.0,unknown,0.0,http://www.redfin.com/AZ/Flagstaff/Orion-at-Timber-Sky/Timber-Sky-Plan-2299/home/172611595,35.1965685,-111.63524299999999
179,Single Family Residential,Crestview Plan 1569,Flagstaff,AZ,86001.0,373900.0,3.0,2.0,1569.0,0.0,unknown,0.0,http://www.redfin.com/AZ/Flagstaff/Crestview/Crestview-Plan-1569/home/170351573,35.192398,-111.68563600000002
180,Single Family Residential,Timber Sky Plan 2245,Flagstaff,AZ,86001.0,464900.0,3.0,2.0,2245.0,0.0,unknown,0.0,http://www.redfin.com/AZ/Flagstaff/Orion-at-Timber-Sky/Timber-Sky-Plan-2245/home/172611596,35.1965685,-111.63524299999999
181,Single Family Residential,Timber Sky Plan 2196,Flagstaff,AZ,86001.0,444900.0,4.0,2.5,2196.0,0.0,unknown,0.0,http://www.redfin.com/AZ/Flagstaff/Orion-at-Timber-Sky/Timber-Sky-Plan-2196/home/172611597,35.1965685,-111.63524299999999
182,Single Family Residential,Timber Sky Plan 1715,Flagstaff,AZ,86001.0,419900.0,3.0,2.0,1715.0,0.0,unknown,0.0,http://www.redfin.com/AZ/Flagstaff/Orion-at-Timber-Sky/Timber-Sky-Plan-1715/home/172611598,35.1965685,-111.63524299999999
183,Single Family Residential,Timber Sky Plan 1569,Flagstaff,AZ,86001.0,404900.0,3.0,2.0,1569.0,0.0,unknown,0.0,http://www.redfin.com/AZ/Flagstaff/Orion-at-Timber-Sky/Timber-Sky-Plan-1569/home/172611599,35.1965685,-111.63524299999999
184,Single Family Residential,Crestview Plan 1566,Flagstaff,AZ,86001.0,372900.0,3.0,2.0,1566.0,0.0,unknown,0.0,http://www.redfin.com/AZ/Flagstaff/Crestview/Crestview-Plan-1566/home/170351574,35.192398,-111.68563600000002
185,Single Family Residential,Crestview Plan 2400,Flagstaff,AZ,86001.0,435900.0,4.0,2.5,2400.0,0.0,unknown,0.0,http://www.redfin.com/AZ/Flagstaff/Crestview/Crestview-Plan-2400/home/170351570,35.192398,-111.68563600000002
186,Single Family Residential,Timber Sky Plan 1471,Flagstaff,AZ,86001.0,389900.0,3.0,2.0,1471.0,0.0,unknown,0.0,http://www.redfin.com/AZ/Flagstaff/Orion-at-Timber-Sky/Timber-Sky-Plan-1471/home/172082206,35.1965685,-111.63524299999999
187,Single Family Residential,Crestview Plan 1424,Flagstaff,AZ,86001.0,369900.0,3.0,2.0,1424.0,0.0,unknown,0.0,http://www.redfin.com/AZ/Flagstaff/Crestview/Crestview-Plan-1424/home/170351575,35.192398,-111.68563600000002
188,Single Family Residential,Crestview Plan 2090,Flagstaff,AZ,86001.0,419900.0,3.0,2.5,2090.0,0.0,unknown,0.0,http://www.redfin.com/AZ/Flagstaff/Crestview/Crestview-Plan-2090/home/170351565,35.192398,-111.68563600000002
189,Single Family Residential,Crestview Affordable Plan 1158,Flagstaff,AZ,86001.0,319900.0,2.0,1.5,1158.0,0.0,unknown,0.0,http://www.redfin.com/AZ/Flagstaff/Crestview/Crestview-Affordable-Plan-1158/home/170351566,35.192398,-111.68563600000002
190,Single Family Residential,Crestview Affordable Plan 1127,Flagstaff,AZ,86001.0,319900.0,2.0,1.0,1127.0,0.0,unknown,0.0,http://www.redfin.com/AZ/Flagstaff/Crestview/Crestview-Affordable-Plan-1127/home/170351567,35.192398,-111.68563600000002
191,Single Family Residential,2149 N 213TH Dr,Buckeye,AZ,85396.0,264900.0,3.0,2.0,1400.0,5501.0,2018,91.0,http://www.redfin.com/AZ/Buckeye/2149-N-213th-Dr-85396/home/146065871,33.470998800000004,-112.5176461
192,Single Family Residential,25944 W TONTO Ln,Buckeye,AZ,85396.0,279900.0,3.0,2.0,1792.0,6668.0,2017,98.0,http://www.redfin.com/AZ/Buckeye/25944-W-Tonto-Ln-85396/home/39965928,33.663804,-112.6094591
193,Single Family Residential,3265 N 196TH Ave,Buckeye,AZ,85396.0,422990.0,4.0,3.0,2871.0,8925.0,2020,90.0,http://www.redfin.com/AZ/Buckeye/3265-N-196th-Ave-85396/home/167784532,33.484451,-112.48068
194,Single Family Residential,20744 W MINNEZONA Ave,Buckeye,AZ,85396.0,375000.0,2.0,2.0,1596.0,5238.0,2017,226.0,http://www.redfin.com/AZ/Buckeye/20744-W-Minnezona-Ave-85396/home/95463857,33.5020713,-112.5055
195,Single Family Residential,20760 W MINNEZONA Ave,Buckeye,AZ,85396.0,377000.0,3.0,2.0,1775.0,5217.0,2017,226.0,http://www.redfin.com/AZ/Buckeye/20760-W-Minnezona-Ave-85396/home/95464153,33.502176,-112.50578190000002
196,Single Family Residential,21120 W SAGE HILL Rd,Buckeye,AZ,85396.0,618000.0,5.0,3.5,3773.0,12334.0,2006,116.0,http://www.redfin.com/AZ/Buckeye/21120-W-Sage-Hill-Rd-85396/home/27359590,33.502124699999996,-112.51412590000001
197,Single Family Residential,2694 N SPRINGFIELD St,Buckeye,AZ,85396.0,384900.0,4.0,3.0,2233.0,6400.0,2017,114.0,http://www.redfin.com/AZ/Buckeye/2694-N-Springfield-St-85396/home/95466519,33.4772081,-112.50133840000001
198,Single Family Residential,3623 N 292ND Dr,Buckeye,AZ,85396.0,289000.0,5.0,2.5,3174.0,5161.0,2006,84.0,http://www.redfin.com/AZ/Buckeye/3623-N-292nd-Dr-85396/home/28395385,33.487927299999996,-112.68111090000002
199,Single Family Residential,2991 N 301ST Dr,Buckeye,AZ,85396.0,245000.0,4.0,2.0,1712.0,5811.0,2017,84.0,http://www.redfin.com/AZ/Buckeye/2991-N-301st-Dr-85396/home/28378364,33.4802709,-112.7006939
200,Single Family Residential,30121 W Mulberry Dr,Buckeye,AZ,85396.0,297500.0,5.0,3.5,3548.0,8980.0,2006,87.0,http://www.redfin.com/AZ/Buckeye/30121-W-Mulberry-Dr-85396/home/28252564,33.484738,-112.70015900000001
201,Single Family Residential,25984 W ORAIBI Dr,Buckeye,AZ,85396.0,282500.0,3.0,2.0,1766.0,6668.0,2018,98.0,http://www.redfin.com/AZ/Buckeye/25984-W-Oraibi-Dr-85396/home/146067722,33.6622469,-112.6102563
202,Single Family Residential,25965 W ORAIBI Dr,Buckeye,AZ,85396.0,329900.0,3.0,2.5,2502.0,7016.0,2018,98.0,http://www.redfin.com/AZ/Buckeye/25965-W-Oraibi-Dr-85396/home/146067746,33.6618018,-112.60984540000001
203,Single Family Residential,20472 W HAMILTON St,Buckeye,AZ,85396.0,499900.0,5.0,4.0,3156.0,10296.0,2011,125.0,http://www.redfin.com/AZ/Buckeye/20472-W-Hamilton-St-85396/home/27856508,33.4827541,-112.4999475
204,Single Family Residential,21194 W GRANADA Rd,Buckeye,AZ,85396.0,315000.0,3.0,2.0,1905.0,5778.0,2017,91.0,http://www.redfin.com/AZ/Buckeye/21194-W-Granada-Rd-85396/home/137594873,33.468317,-112.51558870000001
205,Single Family Residential,21444 W TERRI LEE Dr,Buckeye,AZ,85396.0,340000.0,3.0,2.5,2406.0,6900.0,2014,91.0,http://www.redfin.com/AZ/Buckeye/21444-W-Terri-Lee-Dr-85396/home/56304875,33.4669133,-112.5209344
206,Single Family Residential,20837 W MINNEZONA Ave,Buckeye,AZ,85396.0,369888.0,2.0,2.5,1771.0,5243.0,2018,226.0,http://www.redfin.com/AZ/Buckeye/20837-W-Minnezona-Ave-85396/home/95463926,33.5022593,-112.50742679999999
207,Single Family Residential,20589 W WALTON Dr,Buckeye,AZ,85396.0,425000.0,3.0,2.0,2409.0,7944.0,2004,116.0,http://www.redfin.com/AZ/Buckeye/20589-W-Walton-Dr-85396/home/28022934,33.494443,-112.50257830000001
208,Single Family Residential,20945 W WHITE ROCK Rd,Buckeye,AZ,85396.0,365000.0,4.0,3.0,2516.0,4338.0,2015,116.0,http://www.redfin.com/AZ/Buckeye/20945-W-White-Rock-Rd-85396/home/27332111,33.47607,-112.5099172
209,Single Family Residential,21284 W ALMERIA Rd,Buckeye,AZ,85396.0,419999.0,5.0,4.0,3098.0,7304.0,2014,91.0,http://www.redfin.com/AZ/Buckeye/21284-W-Almeria-Rd-85326/home/49763277,33.466376000000004,-112.51704199999999
210,Single Family Residential,21115 W ELM Way,Buckeye,AZ,85396.0,295000.0,2.0,2.5,1540.0,6108.0,2006,116.0,http://www.redfin.com/AZ/Buckeye/21115-W-Elm-Way-85396/home/28332176,33.4984064,-112.51391640000001
211,Single Family Residential,20752 W HAMILTON St,Buckeye,AZ,85396.0,499950.0,4.0,2.5,3290.0,7501.0,2011,116.0,http://www.redfin.com/AZ/Buckeye/20752-W-Hamilton-St-85396/home/28362289,33.4804105,-112.5061404
212,Single Family Residential,2376 N HERITAGE St,Buckeye,AZ,85396.0,343500.0,3.0,2.5,2278.0,8808.0,2013,116.0,http://www.redfin.com/AZ/Buckeye/2376-N-Heritage-St-85396/home/28395463,33.472874600000004,-112.5068854
213,Single Family Residential,20608 W HAMILTON St,Buckeye,AZ,85396.0,399900.0,3.0,2.5,2341.0,9040.0,2008,116.0,http://www.redfin.com/AZ/Buckeye/20608-W-Hamilton-St-85396/home/28303815,33.4820199,-112.50292759999998
214,Single Family Residential,20938 W BERKELEY Rd,Buckeye,AZ,85396.0,369990.0,5.0,3.0,2685.0,5000.0,2020,116.0,http://www.redfin.com/AZ/Buckeye/20938-W-Berkeley-Rd-85396/home/172641420,33.4673928,-112.5141634
215,Single Family Residential,20773 W MINNEZONA Ave,Buckeye,AZ,85396.0,325000.0,2.0,2.0,1539.0,5170.0,2018,226.0,http://www.redfin.com/AZ/Buckeye/20773-W-Minnezona-Ave-85396/home/95463935,33.501850399999995,-112.50623529999999
216,Single Family Residential,15571 W Piccadilly Rd,Goodyear,AZ,85395.0,379900.0,2.0,2.0,1829.0,8650.0,1999,227.0,http://www.redfin.com/AZ/Goodyear/15571-Piccadilly-Rd-85395/home/27100049,33.4916758,-112.39401219999999
217,Condo/Co-op,2801 N Litchfield Rd,Goodyear,AZ,85395.0,210000.0,2.0,2.0,1125.0,1268.0,1997,350.0,http://www.redfin.com/AZ/Goodyear/2801-N-Litchfield-Rd-85395/home/27101727,33.4783929,-112.356699
218,Single Family Residential,15664 W PICCADILLY Rd,Goodyear,AZ,85395.0,359000.0,2.0,2.0,2154.0,7583.0,1995,227.0,http://www.redfin.com/AZ/Goodyear/15664-Piccadilly-Rd-85395/home/27727750,33.4917178,-112.39620090000001
219,Single Family Residential,15226 W EDGEMONT Ave,Goodyear,AZ,85395.0,285000.0,4.0,2.0,1870.0,6935.0,2006,46.0,http://www.redfin.com/AZ/Goodyear/15226-W-Edgemont-Ave-85395/home/28408680,33.4769131,-112.3866081
220,Single Family Residential,15673 W CORONADO Rd,Goodyear,AZ,85395.0,439000.0,3.0,2.5,2384.0,8010.0,2008,55.0,http://www.redfin.com/AZ/Goodyear/15673-W-Coronado-Rd-85395/home/28355673,33.4677345,-112.3957818
221,Condo/Co-op,14870 W ENCANTO Blvd #1073,Goodyear,AZ,85395.0,299999.0,3.0,3.0,1499.0,899.0,2019,277.0,http://www.redfin.com/AZ/Goodyear/14870-W-Encanto-Blvd-85395/unit-1073/home/28411431,33.474089,-112.37949170000002
222,Single Family Residential,16144 W BERKELEY Rd,Goodyear,AZ,85395.0,520000.0,4.0,2.5,2713.0,10580.0,2011,67.0,http://www.redfin.com/AZ/Goodyear/16144-W-Berkeley-Rd-85395/home/28424972,33.468138399999994,-112.4058169
223,Single Family Residential,14999 W CRENSHAW Dr,Goodyear,AZ,85395.0,555100.0,3.0,2.5,3161.0,8692.0,1999,227.0,http://www.redfin.com/AZ/Goodyear/14999-W-Crenshaw-Dr-85395/home/27027070,33.484615399999996,-112.3816021
224,Single Family Residential,15825 W VALE Dr,Goodyear,AZ,85395.0,345000.0,3.0,2.0,2207.0,7808.0,1998,227.0,http://www.redfin.com/AZ/Goodyear/15825-W-Vale-Dr-85395/home/27397173,33.4928207,-112.4001357
225,Single Family Residential,14481 W AVALON Dr,Goodyear,AZ,85395.0,499900.0,5.0,3.0,2974.0,10000.0,2000,57.0,http://www.redfin.com/AZ/Goodyear/14481-W-Avalon-Dr-85395/home/28180654,33.4823698,-112.3710779
226,Single Family Residential,4881 N 150TH Dr,Goodyear,AZ,85395.0,730000.0,4.0,3.0,3932.0,25048.0,2007,66.0,http://www.redfin.com/AZ/Goodyear/4881-N-150th-Dr-85395/home/28271585,33.5069901,-112.3807406
227,Townhouse,16411 W PICCADILLY Rd,Goodyear,AZ,85395.0,345000.0,2.0,2.0,1623.0,3887.0,2015,377.0,http://www.redfin.com/AZ/Goodyear/16411-Piccadilly-Rd-85395/home/95458187,33.4907989,-112.41236470000001
228,Single Family Residential,3116 N 148th Ave,Goodyear,AZ,85395.0,420000.0,3.0,3.0,2405.0,8952.0,2002,227.0,http://www.redfin.com/AZ/Goodyear/3116-N-148th-Ave-85395/home/27515009,33.4821955,-112.377155
229,Single Family Residential,15441 W PICCADILLY Rd,Goodyear,AZ,85395.0,414900.0,2.0,2.0,2154.0,8048.0,1997,227.0,http://www.redfin.com/AZ/Goodyear/15441-Piccadilly-Rd-85395/home/27630558,33.4917383,-112.3913812
230,Townhouse,14870 W ENCANTO Blvd #2096,Goodyear,AZ,85395.0,282088.0,1.0,2.0,1339.0,1146.0,2018,277.0,http://www.redfin.com/AZ/Goodyear/14870-W-Encanto-Blvd-85395/unit-2096/home/28411767,33.4732775,-112.3802748
231,Single Family Residential,3162 N 150TH Dr,Goodyear,AZ,85395.0,510000.0,3.0,2.5,3161.0,7604.0,2001,227.0,http://www.redfin.com/AZ/Goodyear/3162-N-150th-Dr-85395/home/27809856,33.4829804,-112.3836511
232,Single Family Residential,16044 W HARVARD St,Goodyear,AZ,85395.0,725000.0,4.0,3.5,4653.0,12439.0,2011,168.0,http://www.redfin.com/AZ/Goodyear/16044-W-Harvard-St-85395/home/28413806,33.4715496,-112.4040473
233,Townhouse,14870 W ENCANTO Blvd #2117,Goodyear,AZ,85395.0,249900.0,2.0,2.0,1329.0,1158.0,2019,277.0,http://www.redfin.com/AZ/Goodyear/14870-W-Encanto-Blvd-85395/unit-2117/home/28411763,33.4733555,-112.37949499999999
234,Townhouse,14870 W ENCANTO Blvd #1095,Goodyear,AZ,85395.0,302795.0,2.0,2.5,1339.0,821.0,2018,277.0,http://www.redfin.com/AZ/Goodyear/14870-W-Encanto-Blvd-85395/unit-1095/home/28411441,33.4733619,-112.3802717
235,Single Family Residential,15374 W MONTECITO Ave,Goodyear,AZ,85395.0,404900.0,3.0,2.5,2664.0,8505.0,2006,66.0,http://www.redfin.com/AZ/Goodyear/15374-W-Montecito-Ave-85395/home/28198741,33.4978384,-112.38989109999999
236,Townhouse,14870 W ENCANTO Blvd #1094,Goodyear,AZ,85395.0,304379.0,2.0,2.5,1499.0,821.0,2018,277.0,http://www.redfin.com/AZ/Goodyear/14870-W-Encanto-Blvd-85395/unit-1094/home/28411444,33.473323300000004,-112.3802
237,Single Family Residential,14883 W CRENSHAW Dr,Goodyear,AZ,85395.0,549900.0,3.0,2.0,2961.0,7605.0,2002,227.0,http://www.redfin.com/AZ/Goodyear/14883-W-Crenshaw-Dr-85395/home/27913247,33.4860113,-112.37862179999999
238,Single Family Residential,2745 N 164TH Ave,Goodyear,AZ,85395.0,695000.0,2.0,2.5,2226.0,12282.0,2007,227.0,http://www.redfin.com/AZ/Goodyear/2745-N-164th-Ave-85395/home/28253930,33.477406099999996,-112.4095422
239,Single Family Residential,15621 W MONTECITO Ave,Goodyear,AZ,85395.0,320000.0,4.0,2.0,1952.0,7200.0,2009,66.0,http://www.redfin.com/AZ/Goodyear/15621-W-Montecito-Ave-85395/home/28412341,33.4972725,-112.3951764
240,Single Family Residential,14978 W VIRGINIA Ave,Goodyear,AZ,85395.0,293900.0,3.0,3.0,1673.0,3622.0,2019,122.0,http://www.redfin.com/AZ/Goodyear/14978-W-Virginia-Ave-85395/home/27856550,33.475012,-112.381514
241,Single Family Residential,14773 W PICCADILLY Rd,Goodyear,AZ,85395.0,589900.0,3.0,2.5,3161.0,10178.0,1998,227.0,http://www.redfin.com/AZ/Goodyear/14773-Piccadilly-Rd-85395/home/26963967,33.488036699999995,-112.37659620000001
242,Single Family Residential,13960 W WOODBRIDGE Ave,Goodyear,AZ,85395.0,450000.0,4.0,2.75,2986.0,14093.0,2004,86.0,http://www.redfin.com/AZ/Goodyear/13960-W-Woodbridge-Ave-85395/home/28039025,33.4832722,-112.36251159999999
243,Single Family Residential,14732 W EDGEMONT Ave,Goodyear,AZ,85395.0,319900.0,3.0,2.0,2147.0,6900.0,2005,46.0,http://www.redfin.com/AZ/Goodyear/14732-W-Edgemont-Ave-85395/home/27749466,33.478525399999995,-112.37601409999998
244,Single Family Residential,4150 N 162ND Ave,Goodyear,AZ,85395.0,399900.0,4.0,2.5,2399.0,14686.0,2007,60.0,http://www.redfin.com/AZ/Goodyear/4150-N-162nd-Ave-85395/home/28307983,33.4943989,-112.4075864
245,Single Family Residential,3068 N 157TH Dr,Goodyear,AZ,85395.0,529000.0,3.0,3.0,2622.0,7280.0,2003,227.0,http://www.redfin.com/AZ/Goodyear/3068-N-157th-Dr-85395/home/27718859,33.4811031,-112.39706229999999
246,Single Family Residential,3220 N Couples Dr,Goodyear,AZ,85395.0,595000.0,3.0,2.5,2962.0,8073.0,2002,214.0,http://www.redfin.com/AZ/Goodyear/3220-N-Couples-Dr-85395/home/27900653,33.4834949,-112.37918059999998
247,Townhouse,3962 N 164TH Dr,Goodyear,AZ,85395.0,370000.0,2.0,2.0,1739.0,3924.0,2015,391.0,http://www.redfin.com/AZ/Goodyear/3962-N-164th-Dr-85395/home/95467762,33.4922228,-112.4122852
248,Single Family Residential,14260 W ROANOKE Ave,Goodyear,AZ,85395.0,699900.0,5.0,4.0,4637.0,23961.0,2003,185.0,http://www.redfin.com/AZ/Goodyear/14260-W-Roanoke-Ave-85395/home/27786640,33.476314,-112.36530359999999
249,Single Family Residential,15812 W FAIRMOUNT Ave,Goodyear,AZ,85395.0,374999.0,3.0,2.0,1826.0,10315.0,1995,227.0,http://www.redfin.com/AZ/Goodyear/15812-W-Fairmount-Ave-85395/home/27689100,33.4908035,-112.39992620000001
250,Single Family Residential,16177 W WHITTON Ave,Goodyear,AZ,85395.0,449900.0,4.0,3.0,2612.0,7728.0,2004,227.0,http://www.redfin.com/AZ/Goodyear/16177-W-Whitton-Ave-85395/home/28018146,33.4884789,-112.4063756
251,Single Family Residential,16325 W INDIANOLA Ave,Goodyear,AZ,85395.0,639000.0,2.0,2.5,2262.0,9304.0,2013,227.0,http://www.redfin.com/AZ/Goodyear/16325-W-Indianola-Ave-85395/home/56304921,33.4896782,-112.4105666
252,Single Family Residential,15751 W Merrell St,Goodyear,AZ,85395.0,475000.0,3.0,3.0,2756.0,7729.0,2005,227.0,http://www.redfin.com/AZ/Goodyear/15751-W-Merrell-St-85395/home/28079859,33.4802262,-112.39817990000002
253,Single Family Residential,3323 N 153RD Dr,Goodyear,AZ,85395.0,519900.0,3.0,2.5,3420.0,7295.0,1999,227.0,http://www.redfin.com/AZ/Goodyear/3323-N-153rd-Dr-85395/home/28004866,33.484105199999995,-112.3886803
254,Single Family Residential,3696 N HOGAN Dr,Goodyear,AZ,85395.0,529000.0,2.0,2.5,2810.0,8228.0,1994,227.0,http://www.redfin.com/AZ/Goodyear/3696-N-Hogan-Dr-85395/home/27332841,33.4887433,-112.39315069999999
255,Single Family Residential,14875 W PICCADILLY Rd,Goodyear,AZ,85395.0,399900.0,2.0,2.0,2154.0,8007.0,1998,227.0,http://www.redfin.com/AZ/Goodyear/14875-Piccadilly-Rd-85395/home/26955399,33.4899166,-112.3787383
256,Single Family Residential,15390 W EDGEMONT Ave,Goodyear,AZ,85395.0,353990.0,3.0,2.0,1988.0,5815.0,2020,115.0,http://www.redfin.com/AZ/Goodyear/15390-W-Edgemont-Ave-85395/home/167780088,33.478082,-112.390072
257,Single Family Residential,2441 N 149TH Ln,Goodyear,AZ,85395.0,330000.0,3.0,2.5,1674.0,2684.0,2018,122.0,http://www.redfin.com/AZ/Goodyear/2441-N-149th-Ln-85395/home/28411750,33.473571299999996,-112.3805544
258,Single Family Residential,3187 N COUPLES Dr,Goodyear,AZ,85395.0,527000.0,3.0,2.0,2362.0,9446.0,1999,227.0,http://www.redfin.com/AZ/Goodyear/3187-N-Couples-Dr-85395/home/27746851,33.4833565,-112.37815619999999
259,Single Family Residential,15251 W VERDE Ln,Goodyear,AZ,85395.0,279594.0,2.0,2.0,1641.0,4399.0,1995,227.0,http://www.redfin.com/AZ/Goodyear/15251-W-Verde-Ln-85395/home/28263457,33.4792518,-112.38709709999999
260,Single Family Residential,16184 W MULBERRY Dr,Goodyear,AZ,85395.0,375000.0,2.0,2.0,1989.0,7355.0,2005,227.0,http://www.redfin.com/AZ/Goodyear/16184-W-Mulberry-Dr-85395/home/27348771,33.4880103,-112.406655
261,Single Family Residential,15979 W MULBERRY Dr,Goodyear,AZ,85395.0,619000.0,3.0,3.0,2621.0,7580.0,2006,227.0,http://www.redfin.com/AZ/Goodyear/15979-W-Mulberry-Dr-85395/home/28189524,33.4877479,-112.40190530000001
262,Single Family Residential,16697 W ALVARADO Dr,Goodyear,AZ,85395.0,627000.0,2.0,2.5,2400.0,8375.0,2015,227.0,http://www.redfin.com/AZ/Goodyear/16697-W-Alvarado-Dr-85395/home/95467982,33.470407699999996,-112.4183897
263,Single Family Residential,16950 W EDGEMONT Ave,Goodyear,AZ,85395.0,544861.0,2.0,2.5,2386.0,8968.0,2020,227.0,http://www.redfin.com/AZ/Goodyear/16950-W-Edgemont-Ave-85395/home/172484608,33.47791289999999,-112.4210291
264,Single Family Residential,3351 N 153RD Dr,Goodyear,AZ,85395.0,512000.0,4.0,2.5,3401.0,7227.0,1999,227.0,http://www.redfin.com/AZ/Goodyear/3351-N-153rd-Dr-85395/home/28265818,33.484503100000005,-112.38877350000001
265,Single Family Residential,15402 W EDGEMONT Ave,Goodyear,AZ,85395.0,334990.0,3.0,2.0,1672.0,5750.0,2020,115.0,http://www.redfin.com/AZ/Goodyear/15402-W-Edgemont-Ave-85395/home/167780091,33.478085,-112.390375
266,Single Family Residential,2668 N 161ST Ave,Goodyear,AZ,85395.0,385000.0,2.0,2.0,1829.0,7280.0,2003,454.0,http://www.redfin.com/AZ/Goodyear/2668-N-161st-Ave-85395/home/27973016,33.4772149,-112.40584009999998
267,Single Family Residential,16086 W SHEILA Ln,Goodyear,AZ,85395.0,535000.0,3.0,3.0,2624.0,7800.0,2003,227.0,http://www.redfin.com/AZ/Goodyear/16086-W-Sheila-Ln-85395/home/28249477,33.4874247,-112.4040473
268,Single Family Residential,3331 N 162ND Dr,Goodyear,AZ,85395.0,579000.0,3.0,3.5,2232.0,7800.0,2007,227.0,http://www.redfin.com/AZ/Goodyear/3331-N-162nd-Dr-85395/home/28241298,33.4839534,-112.4060264
269,Single Family Residential,3179 N 150TH Dr,Goodyear,AZ,85395.0,385000.0,2.0,2.0,2362.0,8541.0,2002,227.0,http://www.redfin.com/AZ/Goodyear/3179-N-150th-Dr-85395/home/27418312,33.4833003,-112.38327859999998
270,Single Family Residential,15802 W AVALON Dr,Goodyear,AZ,85395.0,545850.0,3.0,3.0,3401.0,8058.0,2000,227.0,http://www.redfin.com/AZ/Goodyear/15802-W-Avalon-Dr-85395/home/27804542,33.4825358,-112.3982731
271,Single Family Residential,14304 W CORONADO Rd,Goodyear,AZ,85395.0,448900.0,4.0,2.5,3020.0,8400.0,2011,195.0,http://www.redfin.com/AZ/Goodyear/14304-W-Coronado-Rd-85395/home/28427225,33.466677600000004,-112.36614180000001
272,Single Family Residential,3641 N 161ST Ave,Goodyear,AZ,85395.0,565900.0,3.0,3.0,2621.0,7800.0,2005,227.0,http://www.redfin.com/AZ/Goodyear/3641-N-161st-Ave-85395/home/28110230,33.488155,-112.4041405
273,Single Family Residential,14266 W WILSHIRE Dr,Goodyear,AZ,85395.0,485000.0,4.0,3.5,3322.0,6344.0,2007,170.0,http://www.redfin.com/AZ/Goodyear/14266-W-Wilshire-Dr-85395/home/28258967,33.4733425,-112.36486119999999
274,Single Family Residential,15962 W SHEILA Ln,Goodyear,AZ,85395.0,575000.0,3.0,2.5,3161.0,9602.0,2003,227.0,http://www.redfin.com/AZ/Goodyear/15962-W-Sheila-Ln-85395/home/27607809,33.4867381,-112.4015327
275,Single Family Residential,16136 W INDIANOLA Ave,Goodyear,AZ,85395.0,382900.0,2.0,2.0,2238.0,7458.0,2004,227.0,http://www.redfin.com/AZ/Goodyear/16136-W-Indianola-Ave-85395/unit-39/home/28188527,33.4898721,-112.4051649
276,Townhouse,14870 W ENCANTO Blvd #1119,Goodyear,AZ,85395.0,258810.0,2.0,2.5,1339.0,821.0,2019,277.0,http://www.redfin.com/AZ/Goodyear/14870-W-Encanto-Blvd-85395/unit-1119/home/28411452,33.4735628,-112.379415
277,Multi-Family (2-4 Unit),1970 N 141st Ave,Goodyear,AZ,85395.0,315490.0,3.0,2.5,1985.0,0.0,2020,0.0,http://www.redfin.com/AZ/Goodyear/1970-N-141st-Ave-85395/home/172680459,33.470985,-112.359155
278,Multi-Family (2-4 Unit),1976 N 141st Ave,Goodyear,AZ,85395.0,312290.0,3.0,2.0,1932.0,0.0,2020,0.0,http://www.redfin.com/AZ/Goodyear/1976-N-141st-Ave-85395/home/172680458,33.470985,-112.359155
279,Single Family Residential,2034 N 141st Ave,Goodyear,AZ,85395.0,438400.0,5.0,3.0,2977.0,0.0,2020,0.0,http://www.redfin.com/AZ/Goodyear/2034-N-141st-Ave-85395/home/172589764,33.470985,-112.359155
280,Single Family Residential,14023 W Monte Vista Rd,Goodyear,AZ,85395.0,420020.0,5.0,3.0,2977.0,0.0,2020,0.0,http://www.redfin.com/AZ/Goodyear/14023-W-Monte-Vista-Rd-85395/home/172589763,33.470985,-112.359155
281,Single Family Residential,14044 W Monte Vista Rd,Goodyear,AZ,85395.0,422020.0,5.0,3.0,2977.0,0.0,2020,0.0,http://www.redfin.com/AZ/Goodyear/14044-W-Monte-Vista-Rd-85395/home/172589761,33.470985,-112.359155
282,Single Family Residential,14032 W Monte Vista Rd,Goodyear,AZ,85395.0,409527.0,4.0,3.0,2563.0,0.0,2020,0.0,http://www.redfin.com/AZ/Goodyear/14032-W-Monte-Vista-Rd-85395/home/172589760,33.470985,-112.359155
283,Single Family Residential,2028 N 141st Ave,Goodyear,AZ,85395.0,460020.0,6.0,4.0,3628.0,0.0,2020,0.0,http://www.redfin.com/AZ/Goodyear/2028-N-141st-Ave-85395/home/172589759,33.470985,-112.359155
284,Multi-Family (2-4 Unit),1863 N 140th Dr,Goodyear,AZ,85395.0,320261.0,3.0,2.5,1985.0,0.0,2020,0.0,http://www.redfin.com/AZ/Goodyear/1863-N-140th-Dr-85395/home/172589757,33.470985,-112.359155
285,Multi-Family (2-4 Unit),14025 W Coronado Rd,Goodyear,AZ,85395.0,329261.0,3.0,2.5,2524.0,0.0,2020,0.0,http://www.redfin.com/AZ/Goodyear/14025-W-Coronado-Rd-85395/home/172589754,33.470985,-112.359155
286,Multi-Family (2-4 Unit),1869 N 140th Dr,Goodyear,AZ,85395.0,329261.0,3.0,2.5,2524.0,0.0,2020,0.0,http://www.redfin.com/AZ/Goodyear/1869-N-140th-Dr-85395/home/172589753,33.470985,-112.359155
287,Multi-Family (2-4 Unit),1887 N 140th Dr,Goodyear,AZ,85395.0,326261.0,3.0,2.5,2524.0,0.0,2020,0.0,http://www.redfin.com/AZ/Goodyear/1887-N-140th-Dr-85395/home/172589752,33.470985,-112.359155
288,Multi-Family (2-4 Unit),1881 N 140th Dr,Goodyear,AZ,85395.0,313261.0,3.0,2.0,1932.0,0.0,2020,0.0,http://www.redfin.com/AZ/Goodyear/1881-N-140th-Dr-85395/home/172589751,33.470985,-112.359155
289,Multi-Family (2-4 Unit),1875 N 140th Dr,Goodyear,AZ,85395.0,308480.0,3.0,2.0,1932.0,0.0,2020,0.0,http://www.redfin.com/AZ/Goodyear/1875-N-140th-Dr-85395/home/172589750,33.470985,-112.359155
290,Multi-Family (2-4 Unit),14031 W Coronado Rd,Goodyear,AZ,85395.0,306480.0,3.0,2.0,1932.0,0.0,2020,0.0,http://www.redfin.com/AZ/Goodyear/14031-W-Coronado-Rd-85395/home/172589749,33.470985,-112.359155
291,Single Family Residential,Jubilee,Goodyear,AZ,85395.0,315990.0,4.0,3.0,2022.0,0.0,unknown,0.0,http://www.redfin.com/AZ/Goodyear/Montego-at-Sedella-Classic-Series/Jubilee/home/172001235,33.4946321,-112.4521764
292,Single Family Residential,Mason,Goodyear,AZ,85395.0,299990.0,4.0,2.0,1810.0,0.0,unknown,0.0,http://www.redfin.com/AZ/Goodyear/Montego-at-Sedella-Classic-Series/Mason/home/172001236,33.4946321,-112.4521764
293,Single Family Residential,Leslie,Goodyear,AZ,85395.0,284990.0,3.0,2.0,1531.0,0.0,unknown,0.0,http://www.redfin.com/AZ/Goodyear/Montego-at-Sedella-Classic-Series/Leslie/home/172001237,33.4946321,-112.4521764
294,Single Family Residential,Mayfair,Goodyear,AZ,85395.0,269990.0,3.0,2.0,1296.0,0.0,unknown,0.0,http://www.redfin.com/AZ/Goodyear/Montego-at-Sedella-Classic-Series/Mayfair/home/172001238,33.4946321,-112.4521764
295,Single Family Residential,Bailey,Goodyear,AZ,85395.0,352990.0,5.0,3.0,2528.0,0.0,unknown,0.0,http://www.redfin.com/AZ/Goodyear/Montego-at-Sedella-Estate-Series/Bailey/home/172487376,33.4946321,-112.4521764
296,Single Family Residential,Lark,Goodyear,AZ,85395.0,337990.0,4.0,3.0,2342.0,0.0,unknown,0.0,http://www.redfin.com/AZ/Goodyear/Montego-at-Sedella-Estate-Series/Lark/home/172506936,33.4946321,-112.4521764
297,Single Family Residential,Amber,Goodyear,AZ,85395.0,337990.0,4.0,2.5,2343.0,0.0,unknown,0.0,http://www.redfin.com/AZ/Goodyear/Montego-at-Sedella-Estate-Series/Amber/home/172487378,33.4946321,-112.4521764
298,Single Family Residential,Tonto,Goodyear,AZ,85395.0,327990.0,3.0,2.0,2106.0,0.0,unknown,0.0,http://www.redfin.com/AZ/Goodyear/Montego-at-Sedella-Estate-Series/Tonto/home/169868922,33.4946328,-112.45217290000001
299,Single Family Residential,Onyx - RV Garage Included,Goodyear,AZ,85395.0,392990.0,4.0,2.0,2139.0,0.0,unknown,0.0,http://www.redfin.com/AZ/Goodyear/Alicante-at-Sedella-Reserve-Series/Onyx-RV-Garage-Included/home/172001230,33.4946321,-112.4521764
300,Single Family Residential,Madison,Goodyear,AZ,85395.0,433990.0,5.0,3.0,3428.0,0.0,unknown,0.0,http://www.redfin.com/AZ/Goodyear/Alicante-at-Sedella-Reserve-Series/Madison/home/172001231,33.4946321,-112.4521764
301,Single Family Residential,Austin,Goodyear,AZ,85395.0,433990.0,4.0,3.0,3240.0,0.0,unknown,0.0,http://www.redfin.com/AZ/Goodyear/Alicante-at-Sedella-Reserve-Series/Austin/home/172001232,33.4946321,-112.4521764
302,Single Family Residential,Shasta,Goodyear,AZ,85395.0,412990.0,4.0,2.5,3122.0,0.0,unknown,0.0,http://www.redfin.com/AZ/Goodyear/Alicante-at-Sedella-Reserve-Series/Shasta/home/172001233,33.4946321,-112.4521764
303,Multi-Family (2-4 Unit),Residence 4 - Duplex,Goodyear,AZ,85395.0,302990.0,3.0,2.0,1932.0,0.0,unknown,0.0,http://www.redfin.com/AZ/Goodyear/Vistas-at-Palm-Valley-The-Villas/Residence-4-Duplex/home/172411570,33.4946321,-112.4521764
304,Multi-Family (2-4 Unit),Residence 5 - Duplex,Goodyear,AZ,85395.0,305990.0,3.0,2.5,1985.0,0.0,unknown,0.0,http://www.redfin.com/AZ/Goodyear/Vistas-at-Palm-Valley-The-Villas/Residence-5-Duplex/home/172398956,33.4946321,-112.4521764
305,Single Family Residential,11107 W DANA Ln,Avondale,AZ,85392.0,359555.0,4.0,3.5,3169.0,7836.0,1996,60.0,http://www.redfin.com/AZ/Avondale/11107-W-Dana-Ln-85392/home/26916870,33.492519699999995,-112.2993624
306,Single Family Residential,12534 W CAMBRIDGE Ave,Avondale,AZ,85392.0,319900.0,4.0,2.5,2038.0,5715.0,1996,45.0,http://www.redfin.com/AZ/Avondale/12534-W-Cambridge-Ave-85392/home/27720925,33.4760039,-112.3294693
307,Single Family Residential,11951 W Lewis Ave,Avondale,AZ,85392.0,329000.0,4.0,2.0,2169.0,7470.0,2006,78.0,http://www.redfin.com/AZ/Avondale/11951-W-Lewis-Ave-85392/home/28233054,33.472076799999996,-112.31603419999999
308,Single Family Residential,3713 N 127TH Dr,Avondale,AZ,85392.0,319900.0,3.0,2.0,2011.0,6049.0,2002,34.0,http://www.redfin.com/AZ/AVONDALE/3713-N-127TH-DR-85392/home/27869300,33.490505,-112.333475
309,Single Family Residential,11114 W OLIVE Dr,Avondale,AZ,85392.0,339900.0,5.0,2.5,2507.0,7680.0,1990,57.0,http://www.redfin.com/AZ/Avondale/11114-W-Olive-Dr-85392/home/27957991,33.481794,-112.29918400000001
310,Single Family Residential,12621 W CHEERY LYNN Rd,Avondale,AZ,85392.0,265000.0,3.0,2.0,1383.0,7022.0,2000,52.0,http://www.redfin.com/AZ/Avondale/12621-W-Cheery-Lynn-Rd-85392/home/27613626,33.483669899999995,-112.33026100000001
311,Single Family Residential,12563 W OSBORN Rd,Avondale,AZ,85392.0,310000.0,4.0,2.0,2155.0,6050.0,2001,52.0,http://www.redfin.com/AZ/Avondale/12563-W-Osborn-Rd-85392/home/28051206,33.4870617,-112.328701
312,Single Family Residential,13507 W MERRELL St,Avondale,AZ,85392.0,584900.0,6.0,3.5,4014.0,8769.0,2006,75.0,http://www.redfin.com/AZ/Avondale/13507-W-Merrell-St-85392/home/28154473,33.4800788,-112.3506812
313,Single Family Residential,12691 W MULBERRY Dr,Avondale,AZ,85392.0,265000.0,3.0,2.0,1376.0,5614.0,2001,52.0,http://www.redfin.com/AZ/Avondale/12691-W-Mulberry-Dr-85392/home/28012397,33.487186300000005,-112.3318909
314,Single Family Residential,11006 W ALVARADO Rd,Avondale,AZ,85392.0,390000.0,4.0,2.0,2743.0,8089.0,1999,43.0,http://www.redfin.com/AZ/Avondale/11006-W-Alvarado-Rd-85392/home/27728290,33.471084499999996,-112.29749960000001
315,Single Family Residential,12642 W AVALON Dr,Avondale,AZ,85392.0,325000.0,5.0,2.5,2494.0,7792.0,2001,40.0,http://www.redfin.com/AZ/Avondale/12642-W-Avalon-Dr-85392/home/28069254,33.4817758,-112.33170459999998
316,Single Family Residential,2502 N 106TH Ave,Avondale,AZ,85392.0,340000.0,3.0,2.0,1950.0,16853.0,1999,59.0,http://www.redfin.com/AZ/Avondale/2502-N-106th-Ave-85392/home/27429899,33.4729186,-112.2887678
317,Single Family Residential,11213 W SUNFLOWER Pl,Avondale,AZ,85392.0,330000.0,3.0,2.0,2064.0,7218.0,1988,58.0,http://www.redfin.com/AZ/Avondale/11213-W-Sunflower-Pl-85392/home/27779475,33.4869702,-112.3013416
318,Single Family Residential,3023 N MEADOW Ln,Avondale,AZ,85392.0,373000.0,5.0,3.0,2869.0,7000.0,1994,60.0,http://www.redfin.com/AZ/Avondale/3023-N-Meadow-Ln-85392/home/27693045,33.481013,-112.2934713
319,Single Family Residential,645 N SIERRA VISTA Dr,Wickenburg,AZ,85390.0,475000.0,3.0,2.0,2094.0,16619.0,2020,0.0,http://www.redfin.com/AZ/Wickenburg/645-Sierra-Vista-Dr-85390/home/28353239,33.973886,-112.74597
320,Single Family Residential,560 W TOPEKA Dr,Wickenburg,AZ,85390.0,325000.0,3.0,2.0,1740.0,25302.0,2000,0.0,http://www.redfin.com/AZ/Wickenburg/560-N-Topeka-Dr-85390/home/27826190,33.972341899999996,-112.7486845
321,Single Family Residential,161 E CAVANESS Ave,Wickenburg,AZ,85390.0,249900.0,3.0,1.75,1484.0,10500.0,1976,0.0,http://www.redfin.com/AZ/Wickenburg/161-Cavaness-Ave-85390/home/27550536,33.974584899999996,-112.73320559999999
322,Single Family Residential,11108 N 190TH Ln,Surprise,AZ,85388.0,425000.0,3.0,2.0,1988.0,6360.0,2018,0.0,http://www.redfin.com/AZ/SURPRISE/11108-N-190TH-LN-85388/home/146067537,33.585228,-112.4695
323,Single Family Residential,17009 W Marconi Ave,Surprise,AZ,85388.0,242000.0,3.0,2.0,1419.0,4400.0,2004,72.0,http://www.redfin.com/AZ/Surprise/17009-W-Marconi-Ave-85388/home/28407007,33.62819520000001,-112.42465279999999
324,Single Family Residential,17624 W MAUI Ln,Surprise,AZ,85388.0,320000.0,3.0,2.0,2064.0,6584.0,2005,60.0,http://www.redfin.com/AZ/Surprise/17624-W-Maui-Ln-85388/home/28135707,33.622311100000005,-112.4376912
325,Single Family Residential,17570 W CHARTER OAK Rd,Surprise,AZ,85388.0,296000.0,3.0,2.0,2155.0,5943.0,2008,70.0,http://www.redfin.com/AZ/Surprise/17570-W-Charter-Oak-Rd-85388/home/28323315,33.5966158,-112.4370858
326,Single Family Residential,17406 W Andora St,Surprise,AZ,85388.0,426444.0,5.0,3.5,3551.0,6000.0,2020,99.0,http://www.redfin.com/AZ/Surprise/17406-W-Andora-St-85388/home/170074106,33.606299,-112.43348700000001
327,Single Family Residential,17639 W EVANS Dr,Surprise,AZ,85388.0,334900.0,3.0,2.0,2416.0,7975.0,2003,60.0,http://www.redfin.com/AZ/Surprise/17639-W-Evans-Dr-85388/home/28092243,33.6156625,-112.4385061
328,Single Family Residential,17675 W CHARTER OAK Rd,Surprise,AZ,85388.0,325000.0,3.0,2.0,2155.0,5830.0,2008,70.0,http://www.redfin.com/AZ/Surprise/17675-W-Charter-Oak-Rd-85388/home/28341332,33.596204799999995,-112.43880870000001
329,Single Family Residential,16605 N 169TH Ave,Surprise,AZ,85388.0,279900.0,3.0,2.0,1430.0,6717.0,2003,44.0,http://www.redfin.com/AZ/Surprise/16605-N-169th-Ave-85388/home/27257677,33.6351166,-112.4225108
330,Single Family Residential,17642 W CROCUS Dr,Surprise,AZ,85388.0,369900.0,5.0,3.5,2401.0,8283.0,2004,60.0,http://www.redfin.com/AZ/Surprise/17642-W-Crocus-Dr-85388/home/27326056,33.6145794,-112.4388553
331,Single Family Residential,14225 N 181ST Ave,Surprise,AZ,85388.0,525000.0,3.0,3.0,2717.0,43230.0,1997,0.0,http://www.redfin.com/AZ/Surprise/14225-N-181st-Ave-85388/home/27863498,33.6138238,-112.44772590000001
332,Single Family Residential,15871 N 182ND Ave,Surprise,AZ,85388.0,390000.0,3.0,2.5,2715.0,11308.0,2006,60.0,http://www.redfin.com/AZ/Surprise/15871-N-182nd-Ave-85388/home/28264601,33.6283477,-112.45086909999999
333,Single Family Residential,17743 W EVANS Dr,Surprise,AZ,85388.0,369000.0,4.0,2.5,3336.0,6380.0,2004,60.0,http://www.redfin.com/AZ/Surprise/17743-W-Evans-Dr-85388/home/28025470,33.615942,-112.4400893
334,Single Family Residential,16536 N 181ST Ave,Surprise,AZ,85388.0,379900.0,4.0,3.5,3064.0,5750.0,2018,60.0,http://www.redfin.com/AZ/Surprise/16536-N-181st-Ave-85388/home/27126230,33.6346078,-112.44938859999999
335,Single Family Residential,11267 N 187TH Dr,Surprise,AZ,85388.0,374500.0,4.0,2.75,2313.0,7321.0,2017,89.0,http://www.redfin.com/AZ/Surprise/11267-N-187th-Dr-85388/home/145074562,33.5865871,-112.4621925
336,Single Family Residential,14204 N 183RD Ave,Surprise,AZ,85388.0,375000.0,3.0,2.0,1344.0,43230.0,1982,0.0,http://www.redfin.com/AZ/Surprise/14204-N-183rd-Ave-85388/home/28373175,33.6133708,-112.45217290000001
337,Single Family Residential,15937 N CRISTINE Ln,Surprise,AZ,85388.0,309000.0,4.0,3.0,2379.0,5500.0,2004,72.0,http://www.redfin.com/AZ/Surprise/15937-N-Cristine-Ln-85388/home/28049423,33.629268599999996,-112.43056670000001
338,Single Family Residential,16862 W POST Dr,Surprise,AZ,85388.0,285000.0,4.0,2.0,1756.0,7328.0,2003,44.0,http://www.redfin.com/AZ/Surprise/16862-W-Post-Dr-85388/home/27570430,33.63529260000001,-112.4213557
339,Single Family Residential,17685 W STATLER Dr,Surprise,AZ,85388.0,379900.0,4.0,2.5,3435.0,6325.0,2005,50.0,http://www.redfin.com/AZ/Surprise/17685-W-Statler-Dr-85388/home/27591304,33.632347700000004,-112.43934420000001
340,Single Family Residential,19010 W YUCATAN Dr,Surprise,AZ,85388.0,369900.0,3.0,2.0,1988.0,6358.0,2018,89.0,http://www.redfin.com/AZ/SURPRISE/19010-W-YUCATAN-DR-85388/home/146067511,33.587714,-112.468359
341,Single Family Residential,17634 W Ironwood St,Surprise,AZ,85388.0,379999.0,5.0,3.0,3438.0,6900.0,2005,60.0,http://www.redfin.com/AZ/Surprise/17634-W-Ironwood-St-85388/home/28178704,33.6301114,-112.43834309999998
342,Single Family Residential,11709 N LUCKENBACH St,Surprise,AZ,85388.0,339995.0,2.0,2.0,1942.0,4700.0,2020,120.0,http://www.redfin.com/AZ/Surprise/11709-N-Luckenbach-St-85388/home/172430113,33.590897,-112.427374
343,Single Family Residential,11703 N LUCKENBACH St,Surprise,AZ,85388.0,379995.0,3.0,2.75,2505.0,4680.0,2020,120.0,http://www.redfin.com/AZ/Surprise/11703-N-Luckenbach-St-85388/home/172430111,33.590718,-112.42733500000001
344,Single Family Residential,17377 W WILDWOOD St,Surprise,AZ,85388.0,420995.0,2.0,2.5,2004.0,5500.0,2020,120.0,http://www.redfin.com/AZ/Surprise/17377-W-Wildwood-St-85388/home/172377550,33.588992,-112.432856
345,Single Family Residential,11497 N LUCKENBACH St,Surprise,AZ,85388.0,321995.0,2.0,2.0,1529.0,4680.0,2020,245.0,http://www.redfin.com/AZ/Surprise/11497-N-Luckenbach-St-85388/home/172245272,33.588881,-112.427631
346,Single Family Residential,11471 N LUCKENBACH St,Surprise,AZ,85388.0,355995.0,3.0,2.5,1818.0,5504.0,2020,245.0,http://www.redfin.com/AZ/Surprise/11471-N-Luckenbach-St-85388/home/172240619,33.5886,-112.42765
347,Single Family Residential,18810 W YUCATAN Dr,Surprise,AZ,85388.0,370000.0,3.0,2.0,2156.0,7149.0,2017,89.0,http://www.redfin.com/AZ/Surprise/18810-W-Yucatan-Dr-85388/home/143928657,33.5877133,-112.4641008
348,Single Family Residential,17191 W THOUSAND OAKS St,Surprise,AZ,85388.0,744995.0,4.0,3.5,3254.0,7700.0,2020,245.0,http://www.redfin.com/AZ/Surprise/17191-W-Thousand-Oaks-St-85388/home/171300473,33.594637,-112.428132
349,Single Family Residential,17191 W SAN MARCOS St,Surprise,AZ,85388.0,784154.0,4.0,3.5,3741.0,6600.0,2020,245.0,http://www.redfin.com/AZ/Surprise/17191-W-San-Marcos-St-85388/home/171280161,33.594637,-112.447028
350,Single Family Residential,17183 W SAN MARCOS St,Surprise,AZ,85388.0,609561.0,3.0,3.5,2220.0,6600.0,2020,245.0,http://www.redfin.com/AZ/Surprise/17183-W-San-Marcos-St-85388/home/171260216,33.594637,-112.428132
351,Single Family Residential,17175 W SAN MARCOS St,Surprise,AZ,85388.0,513250.0,2.0,2.0,2004.0,5500.0,2020,245.0,http://www.redfin.com/AZ/Surprise/17175-W-San-Marcos-St-85388/home/171259917,33.594637,-112.428132
352,Single Family Residential,17163 W THOUSAND OAKS St,Surprise,AZ,85388.0,402995.0,3.0,2.0,1520.0,5500.0,2020,245.0,http://www.redfin.com/AZ/Surprise/17163-W-Thousand-Oaks-St-85388/home/171250511,33.594637,-112.428132
353,Single Family Residential,17166 W THOUSAND OAKS St,Surprise,AZ,85388.0,481497.0,2.0,2.0,1520.0,5500.0,2020,245.0,http://www.redfin.com/AZ/Surprise/17166-W-Thousand-Oaks-St-85388/home/171249945,33.594637,-112.428132
354,Single Family Residential,13351 N 174th Ave,Surprise,AZ,85388.0,332650.0,3.0,3.0,1964.0,6000.0,2020,99.0,http://www.redfin.com/AZ/Surprise/13351-N-174th-Ave-85388/home/170074111,33.605736,-112.433053
355,Single Family Residential,18379 W STATLER St,Surprise,AZ,85388.0,353000.0,4.0,2.5,2604.0,7800.0,2009,65.0,http://www.redfin.com/AZ/Surprise/18379-W-Statler-St-85388/home/27861774,33.63177879999999,-112.4545244
356,Single Family Residential,16301 W KEARNEY Ln,Surprise,AZ,85387.0,309900.0,3.0,2.0,1427.0,6600.0,2004,133.0,http://www.redfin.com/AZ/Surprise/16301-W-Kearney-Ln-85387/home/27685015,33.6788406,-112.4091929
357,Single Family Residential,26114 N 155th Ln,Surprise,AZ,85387.0,334990.0,3.0,2.0,1658.0,56760.0,2020,0.0,http://www.redfin.com/AZ/Surprise/26114-N-155th-Ln-85374/home/172554656,33.627040799999996,-112.3951639
358,Single Family Residential,16783 W ROMERO Ln,Surprise,AZ,85387.0,379000.0,3.0,2.0,1950.0,8597.0,2004,133.0,http://www.redfin.com/AZ/Surprise/16783-W-Romero-Ln-85387/home/27617472,33.66845120000001,-112.41976340000001
359,Single Family Residential,17248 W MOLLY Ln,Surprise,AZ,85387.0,306015.0,4.0,2.5,1889.0,5857.0,2020,75.0,http://www.redfin.com/AZ/Surprise/17248-W-Molly-Ln-85387/home/170642256,33.727526399999995,-112.4414862
360,Single Family Residential,16822 W Rancho Laredo Dr,Surprise,AZ,85387.0,649000.0,5.0,3.0,2820.0,54625.0,2020,0.0,http://www.redfin.com/AZ/Surprise/16822-W-Rancho-Laredo-Dr-85387/home/172663049,33.7622002,-112.42453200000001
361,Mobile/Manufactured Home,22050 W ADOBE Rte,Surprise,AZ,85387.0,659000.0,3.0,2.0,1928.0,299257.0,1997,0.0,http://www.redfin.com/AZ/Surprise/22050-W-Adobe-Rd-85387/home/28129729,33.6866556,-112.5331
362,Single Family Residential,14432 W Honeysuckle Dr,Surprise,AZ,85387.0,329594.0,3.0,2.0,1700.0,4699.0,2020,79.0,http://www.redfin.com/AZ/Surprise/14432-W-Honeysuckle-Dr-85387/home/172659884,33.718136,-112.37165700000001
363,Single Family Residential,17246 W HERMOSA Dr,Surprise,AZ,85387.0,678900.0,2.0,2.5,2650.0,10994.0,2002,133.0,http://www.redfin.com/AZ/Surprise/17246-W-Hermosa-Dr-85387/home/28054308,33.6591624,-112.429775
364,Single Family Residential,29409 N 182ND Ave,Surprise,AZ,85387.0,305500.0,3.0,2.0,1465.0,52154.0,2020,0.0,http://www.redfin.com/AZ/Surprise/29409-N-182nd-Ave-85387/home/172652379,33.749866,-112.45321399999999
365,Single Family Residential,28615 N 153RD Ave,Surprise,AZ,85387.0,469800.0,3.0,2.0,2350.0,44386.0,2006,0.0,http://www.redfin.com/AZ/Surprise/28615-N-153rd-Ave-85387/home/27423043,33.7428886,-112.39017050000001
366,Single Family Residential,19105 N HAWTHORN Dr,Surprise,AZ,85387.0,399000.0,2.0,2.0,2014.0,9174.0,2002,133.0,http://www.redfin.com/AZ/Surprise/19105-N-Hawthorn-Dr-85387/home/27885577,33.6579316,-112.43003119999999
367,Single Family Residential,20936 N CANYON WHISPER Dr,Surprise,AZ,85387.0,268500.0,2.0,2.0,1330.0,6600.0,2005,133.0,http://www.redfin.com/AZ/Surprise/20936-N-Canyon-Whisper-Dr-85387/home/27334313,33.6756661,-112.42325579999999
368,Single Family Residential,14947 W RED FOX Rd,Surprise,AZ,85387.0,549777.0,3.0,2.5,2558.0,87280.0,2006,0.0,http://www.redfin.com/AZ/Surprise/14947-W-Red-Fox-Rd-85387/home/28182519,33.7373665,-112.3834648
369,Single Family Residential,16946 W SAGUARO PARK Ln,Surprise,AZ,85387.0,436490.0,3.0,3.0,2594.0,8750.0,2020,75.0,http://www.redfin.com/AZ/Surprise/16946-W-Saguaro-Park-Ln-85387/home/27380420,33.706615299999996,-112.4237162
370,Single Family Residential,18229 W VIA MONTOYA Dr,Surprise,AZ,85387.0,389500.0,4.0,3.5,3198.0,6095.0,2018,62.0,http://www.redfin.com/AZ/Surprise/18229-W-Via-Montoya-Dr-85387/home/146068403,33.686600899999995,-112.45099420000001
371,Single Family Residential,26798 N 175TH Ln,Surprise,AZ,85387.0,349999.0,4.0,2.5,2902.0,6600.0,2006,82.0,http://www.redfin.com/AZ/Surprise/26798-N-175th-Ln-85387/home/27462230,33.7262902,-112.4402057
372,Single Family Residential,26835 N 176TH Dr,Surprise,AZ,85387.0,294000.0,4.0,2.0,1950.0,6875.0,2006,82.0,http://www.redfin.com/AZ/Surprise/26835-N-176th-Dr-85387/home/27060283,33.7265833,-112.4406248
373,Single Family Residential,18902 N SUNSITES Dr,Surprise,AZ,85387.0,354000.0,2.0,2.0,1972.0,9125.0,2002,133.0,http://www.redfin.com/AZ/Surprise/18902-N-Sunsites-Dr-85387/home/27917900,33.6563567,-112.43666670000002
374,Single Family Residential,20965 N SEQUOIA CREST Dr,Surprise,AZ,85387.0,265500.0,2.0,2.0,1166.0,7200.0,2004,133.0,http://www.redfin.com/AZ/Sun-City-West/20965-N-Sequoia-Crest-Dr-85387/home/27998615,33.6748571,-112.41072959999998
375,Single Family Residential,16811 W CAMINO VIVAZ --,Surprise,AZ,85387.0,425000.0,4.0,3.0,2599.0,8688.0,2018,75.0,http://www.redfin.com/AZ/Surprise/16811-W-Camino-Vivaz-85387/home/27215935,33.6976755,-112.42236170000001
376,Single Family Residential,19620 N MAJESTIC VISTA Ct,Surprise,AZ,85387.0,368000.0,2.0,1.75,1872.0,9251.0,2004,133.0,http://www.redfin.com/AZ/Surprise/19620-N-Majestic-Vista-Ct-85387/home/27031585,33.6628529,-112.4278193
377,Single Family Residential,16590 W Calle Lejos St,Surprise,AZ,85387.0,397000.0,5.0,3.0,2660.0,10159.0,2017,69.0,http://www.redfin.com/AZ/Surprise/16590-Calle-Lejos-85387/home/27381978,33.7037247,-112.41559579999999
378,Single Family Residential,21203 N REDINGTON POINT Dr,Surprise,AZ,85387.0,320000.0,2.0,2.0,1688.0,7102.0,2004,133.0,http://www.redfin.com/AZ/Surprise/21203-N-Redington-Point-Dr-85387/home/27626058,33.676735,-112.41589840000002
379,Single Family Residential,26553 N 167TH Ave,Surprise,AZ,85387.0,382908.0,4.0,2.5,2800.0,11312.0,2020,66.0,http://www.redfin.com/AZ/Surprise/26553-N-167th-Ave-85387/home/27307345,33.724216,-112.42048999999999
380,Single Family Residential,16722 W ROWEL Rd,Surprise,AZ,85387.0,379413.0,3.0,2.0,2078.0,6905.0,2016,66.0,http://www.redfin.com/AZ/Surprise/16722-W-Rowel-Rd-85387/home/27307351,33.724276399999994,-112.42174250000001
381,Single Family Residential,20525 N VERMILLION CLIFFS Dr,Surprise,AZ,85387.0,350000.0,2.0,2.5,2185.0,11924.0,2003,133.0,http://www.redfin.com/AZ/Surprise/20525-N-Vermillion-Cliffs-Dr-85387/home/27956468,33.6710953,-112.4266784
382,Single Family Residential,17531 W FETLOCK Trl,Surprise,AZ,85387.0,309990.0,3.0,2.0,2126.0,7637.0,2015,82.0,http://www.redfin.com/AZ/Surprise/17531-W-Fetlock-Trl-85387/home/27384675,33.7306321,-112.4392983
383,Single Family Residential,24228 N 173RD Ave,Surprise,AZ,85387.0,442990.0,3.0,3.0,2559.0,7137.0,2020,178.0,http://www.redfin.com/AZ/Surprise/24228-N-173rd-Ave-85387/home/172346934,33.7067,-112.432
384,Single Family Residential,19607 N CRESCENT RIDGE Dr,Surprise,AZ,85387.0,464400.0,2.0,2.0,2194.0,8800.0,2003,133.0,http://www.redfin.com/AZ/Surprise/19607-N-Crescent-Ridge-Dr-85387/home/27947117,33.6625404,-112.42972240000002
385,Single Family Residential,24145 N 172ND Ln,Surprise,AZ,85387.0,397990.0,2.0,2.0,2113.0,6696.0,2020,178.0,http://www.redfin.com/AZ/Surprise/24145-N-172nd-Ln-85387/home/171562271,33.7067,-112.432
386,Single Family Residential,27313 N 148TH Dr,Surprise,AZ,85387.0,484900.0,3.0,2.0,2542.0,59048.0,2005,0.0,http://www.redfin.com/AZ/Surprise/27313-N-148th-Dr-85387/home/28102927,33.7310059,-112.3801818
387,Single Family Residential,17222 W CAVEDALE Dr,Surprise,AZ,85387.0,325950.0,4.0,2.5,3166.0,5750.0,2020,75.0,http://www.redfin.com/AZ/Surprise/17222-W-Cavedale-Dr-85387/home/172355346,33.72676920000001,-112.44118390000001
388,Single Family Residential,17230 W CAVEDALE Dr,Surprise,AZ,85387.0,292150.0,4.0,3.0,2183.0,5750.0,2020,75.0,http://www.redfin.com/AZ/Surprise/17230-W-Cavedale-Dr-85387/home/172355181,33.72676920000001,-112.44118390000001
389,Single Family Residential,17238 W CAVEDALE Dr,Surprise,AZ,85387.0,274950.0,3.0,2.5,1889.0,5750.0,2020,75.0,http://www.redfin.com/AZ/Surprise/17238-W-Cavedale-Dr-85387/home/172354760,33.72676920000001,-112.44118390000001
390,Single Family Residential,17246 W CAVEDALE Dr,Surprise,AZ,85387.0,260950.0,3.0,2.0,1546.0,5750.0,2020,75.0,http://www.redfin.com/AZ/Surprise/17246-W-Cavedale-Dr-85387/home/172354084,33.72676920000001,-112.44118390000001
391,Single Family Residential,24038 N 165TH Ln,Surprise,AZ,85387.0,375900.0,4.0,2.5,2325.0,7200.0,2018,75.0,http://www.redfin.com/AZ/Surprise/24038-N-165th-Ln-85387/home/27381943,33.7024786,-112.4158866
392,Single Family Residential,16040 W DALE Ln,Surprise,AZ,85387.0,499900.0,5.0,2.5,3861.0,108900.0,2000,7.0,http://www.redfin.com/AZ/Surprise/16040-W-Dale-Ln-85387/home/27609602,33.7429611,-112.4064455
393,Single Family Residential,21385 N CLOUDCROFT Ln,Surprise,AZ,85387.0,368000.0,2.0,1.75,1852.0,7935.0,2004,133.0,http://www.redfin.com/AZ/Surprise/21385-N-Cloudcroft-Ln-85387/home/28061193,33.6782434,-112.41124180000001
394,Single Family Residential,19626 N CANYON WHISPER Dr,Surprise,AZ,85387.0,315000.0,2.0,2.0,1500.0,6844.0,2003,133.0,http://www.redfin.com/AZ/Surprise/19626-N-Canyon-Whisper-Dr-85387/home/27940113,33.6627244,-112.43219640000001
395,Single Family Residential,16905 W ARTESIA Dr,Surprise,AZ,85387.0,629500.0,2.0,2.5,2628.0,15591.0,2002,125.0,http://www.redfin.com/AZ/Surprise/16905-W-Artesia-Dr-85387/home/27906105,33.6560077,-112.4218356
396,Single Family Residential,19531 N REGENTS PARK Dr,Surprise,AZ,85387.0,575000.0,3.0,2.0,2414.0,9535.0,2004,133.0,http://www.redfin.com/AZ/Surprise/19531-N-Regents-Park-Dr-85387/home/28003888,33.6622185,-112.4206947
397,Single Family Residential,19416 N REGENTS PARK Dr,Surprise,AZ,85387.0,719000.0,3.0,2.5,3389.0,13859.0,2003,133.0,http://www.redfin.com/AZ/Surprise/19416-N-Regents-Park-Dr-85387/home/27964713,33.660997200000004,-112.4222081
398,Single Family Residential,18036 W TIERRA DEL SOL Dr,Surprise,AZ,85387.0,395000.0,2.0,2.0,2075.0,8709.0,2003,125.0,http://www.redfin.com/AZ/Surprise/18036-W-Tierra-Del-Sol-Dr-85387/home/27953201,33.654150200000004,-112.44737669999999
399,Mobile/Manufactured Home,15710 W REMUDA Dr,Surprise,AZ,85387.0,269900.0,4.0,3.0,1904.0,51848.0,2000,0.0,http://www.redfin.com/AZ/Surprise/15710-W-Remuda-Dr-85387/home/27407282,33.721481,-112.399817
400,Single Family Residential,27053 N 172ND Ln,Surprise,AZ,85387.0,409000.0,5.0,4.0,3897.0,7973.0,2006,82.0,http://www.redfin.com/AZ/Surprise/27053-N-172nd-Ln-85387/home/28359144,33.72865529999999,-112.43410559999998
401,Single Family Residential,16853 W CORTARO POINT Dr,Surprise,AZ,85387.0,315900.0,2.0,2.0,1184.0,6364.0,2003,133.0,http://www.redfin.com/AZ/Surprise/16853-W-Cortaro-Point-Dr-85387/home/28083631,33.6651909,-112.4225108
402,Mobile/Manufactured Home,16531 W DALE Ln,Surprise,AZ,85387.0,525000.0,3.0,2.0,1625.0,217800.0,1980,0.0,http://www.redfin.com/AZ/Sun-City-West/16531-W-Dale-Ln-85387/home/27940953,33.7413034,-112.41823559999999
403,Single Family Residential,27611 N 146th Ave,Surprise,AZ,85387.0,643000.0,4.0,3.5,3640.0,43616.0,2007,0.0,http://www.redfin.com/AZ/Surprise/27611-N-146th-Ave-85387/home/27331831,33.7337904,-112.37480330000001
404,Single Family Residential,17739 W CANTO BONITO Ln,Surprise,AZ,85387.0,289499.0,3.0,2.0,1427.0,7528.0,2002,125.0,http://www.redfin.com/AZ/Surprise/17739-W-Canto-Bonito-Ln-85387/home/27906623,33.6546519,-112.4410439
405,Single Family Residential,18715 N Poppy Ct,Surprise,AZ,85387.0,389900.0,2.0,2.0,2008.0,10071.0,2003,125.0,http://www.redfin.com/AZ/Surprise/18715-N-Poppy-Ct-85387/home/27939755,33.6543308,-112.4341289
406,Single Family Residential,18948 N ALAMEDA Dr,Surprise,AZ,85387.0,324500.0,2.0,2.0,1706.0,6820.0,2002,125.0,http://www.redfin.com/AZ/Surprise/18948-N-Alameda-Dr-85387/home/27523565,33.6570916,-112.43694609999999
407,Single Family Residential,21235 N MARIPOSA GROVE Ln,Surprise,AZ,85387.0,321900.0,2.0,2.0,1435.0,7200.0,2005,133.0,http://www.redfin.com/AZ/Surprise/21235-N-Mariposa-Grove-Ln-85387/home/28368462,33.6770527,-112.4088902
408,Single Family Residential,20419 N FOUNTAIN CREST Ct,Surprise,AZ,85387.0,428900.0,2.0,1.75,1870.0,14369.0,1997,125.0,http://www.redfin.com/AZ/Surprise/20419-N-Fountain-Crest-Ct-85374/home/26909225,33.6719437,-112.39508329999998
409,Single Family Residential,20143 N CACTUS FOREST Dr,Surprise,AZ,85387.0,314999.0,2.0,1.75,1854.0,6600.0,2003,125.0,http://www.redfin.com/AZ/Surprise/20143-N-Cactus-Forest-Dr-85387/home/27369584,33.6673453,-112.42404750000001
410,Single Family Residential,17426 W Hermosa Dr,Surprise,AZ,85387.0,320000.0,2.0,2.0,2167.0,8319.0,2002,133.0,http://www.redfin.com/AZ/Surprise/17426-W-Hermosa-Dr-85387/home/27932205,33.660301700000005,-112.4335934
411,Single Family Residential,16780 W DESERT BLOSSOM Way,Surprise,AZ,85387.0,305000.0,2.0,2.0,1482.0,6589.0,2003,125.0,http://www.redfin.com/AZ/Surprise/16780-W-Desert-Blossom-Way-85387/home/27963638,33.6671655,-112.41976340000001
412,Single Family Residential,17967 W Pradera Ln,Surprise,AZ,85387.0,429000.0,2.0,2.5,2539.0,9900.0,2003,251.0,http://www.redfin.com/AZ/Surprise/17967-W-Pradera-Ln-85387/home/27923002,33.6544654,-112.44604960000001
413,Single Family Residential,20747 N ENCHANTMENT Dr,Surprise,AZ,85387.0,439000.0,3.0,3.0,2019.0,9056.0,2004,133.0,http://www.redfin.com/AZ/Surprise/20747-N-Enchantment-Dr-85387/home/28018496,33.672453600000004,-112.42008940000001
414,Single Family Residential,19115 N ALAMEDA Dr,Surprise,AZ,85387.0,329000.0,2.0,1.75,1706.0,6600.0,2002,125.0,http://www.redfin.com/AZ/Surprise/19115-N-Alameda-Dr-85387/home/27318583,33.658435499999996,-112.4342453
415,Single Family Residential,19450 N PONDEROSA Ct,Surprise,AZ,85387.0,444000.0,2.0,2.0,1894.0,13151.0,2003,125.0,http://www.redfin.com/AZ/Surprise/19450-N-Ponderosa-Ct-85387/home/28076002,33.66158529999999,-112.42951059999999
417,Single Family Residential,20903 N BARBERRY Ln N,Surprise,AZ,85387.0,685000.0,2.0,2.5,3066.0,9900.0,2004,125.0,http://www.redfin.com/AZ/Surprise/20903-N-Barberry-Ln-85387/home/28074406,33.674099299999995,-112.41438500000001
418,Single Family Residential,14711 W PINNACLE VISTA Rd,Surprise,AZ,85387.0,529900.0,4.0,3.5,2605.0,44569.0,2006,0.0,http://www.redfin.com/AZ/Surprise/14711-W-Pinnacle-Vista-Rd-85387/home/28294311,33.730936299999996,-112.37771380000001
419,Single Family Residential,0 N 169th Ave,Surprise,AZ,85387.0,575000.0,4.0,2.0,2617.0,48025.0,2020,0.0,http://www.redfin.com/AZ/Surprise/N-169th-Ave-85387/home/144110799,33.77113,-112.426918
420,Single Family Residential,0 W Peak View Rd,Surprise,AZ,85387.0,680000.0,4.0,2.5,2800.0,207922.0,2020,0.0,http://www.redfin.com/AZ/Surprise/0-W-Peak-View-RD-85387/home/169242465,33.746623,-112.409985
421,Single Family Residential,9731 W Los Gatos Dr,Peoria,AZ,85383.0,470000.0,4.0,3.0,2223.0,6127.0,2015,80.0,http://www.redfin.com/AZ/Peoria/9731-W-Los-Gatos-Dr-85383/home/95458311,33.685444399999994,-112.2689289
422,Single Family Residential,9311 W PARKSIDE Ln,Peoria,AZ,85383.0,699500.0,4.0,3.5,3003.0,10981.0,2018,80.0,http://www.redfin.com/AZ/Peoria/9311-W-Parkside-Ln-85383/home/147877692,33.6918485,-112.25952109999999
423,Single Family Residential,10565 W VIA DEL SOL --,Peoria,AZ,85383.0,314900.0,3.0,2.0,1388.0,7623.0,1999,0.0,http://www.redfin.com/AZ/Peoria/10565-W-Via-Del-Sol-85383/home/27724072,33.6822342,-112.28788290000001
424,Single Family Residential,10023 W WIZARD Ln,Peoria,AZ,85383.0,465000.0,3.0,2.0,2142.0,8154.0,2013,70.0,http://www.redfin.com/AZ/Peoria/10023-W-Wizard-Ln-85383/home/49717669,33.6893322,-112.27505759999998
425,Single Family Residential,7726 W LOUISE Dr,Peoria,AZ,85383.0,432400.0,4.0,2.5,2162.0,7157.0,2001,40.0,http://www.redfin.com/AZ/Peoria/7726-W-Louise-Dr-85383/home/27362069,33.6832779,-112.22566440000001
426,Single Family Residential,10618 W DALEY Ln,Peoria,AZ,85383.0,294900.0,2.0,2.0,1358.0,8050.0,1999,0.0,http://www.redfin.com/AZ/Peoria/10618-W-Daley-Ln-85383/home/28127886,33.690530100000004,-112.2881158
427,Single Family Residential,22516 N 95TH Dr,Peoria,AZ,85383.0,395000.0,3.0,2.0,1790.0,5582.0,2019,80.0,http://www.redfin.com/AZ/Peoria/22516-N-95th-Dr-85383/home/147705620,33.689296,-112.264744
428,Single Family Residential,9266 W LOUISE Dr,Peoria,AZ,85383.0,720423.0,4.0,2.5,2685.0,10755.0,2016,85.0,http://www.redfin.com/AZ/Peoria/9266-W-Louise-Dr-85383/home/120123648,33.6838875,-112.2589233
429,Single Family Residential,9254 W LOUISE Dr,Peoria,AZ,85383.0,678569.0,3.0,2.5,2519.0,10982.0,2017,85.0,http://www.redfin.com/AZ/Peoria/9254-W-Louise-Dr-85383/home/120123638,33.6839102,-112.258664
430,Single Family Residential,9244 W LOUISE Dr,Peoria,AZ,85383.0,694796.0,4.0,3.5,3023.0,10905.0,2017,85.0,http://www.redfin.com/AZ/Peoria/9244-W-Louise-Dr-85383/home/120123630,33.683909,-112.25840339999999
431,Single Family Residential,8136 W CIELO GRANDE Ave,Peoria,AZ,85383.0,629000.0,5.0,3.5,4707.0,18455.0,2000,100.0,http://www.redfin.com/AZ/Peoria/8136-W-Cielo-Grande-Ave-85383/home/27864152,33.6994806,-112.23360490000002
432,Single Family Residential,10144 W EL CORTEZ Pl,Peoria,AZ,85383.0,630000.0,5.0,4.0,3418.0,9600.0,2015,137.0,http://www.redfin.com/AZ/Peoria/10144-W-El-Cortez-Pl-85383/home/27206876,33.717147499999996,-112.27756770000002
433,Single Family Residential,31071 N 117TH Dr,Peoria,AZ,85383.0,1159000.0,4.0,4.5,4074.0,18218.0,2019,188.0,http://www.redfin.com/AZ/Peoria/31071-N-117th-Dr-85383/home/147863993,33.7643893,-112.31298819999999
434,Single Family Residential,30754 N 138TH Ave N,Peoria,AZ,85383.0,525000.0,4.0,3.0,2537.0,6959.0,2014,82.0,http://www.redfin.com/AZ/Peoria/30754-N-138th-Ave-85383/home/56310066,33.76189,-112.35925800000001
435,Single Family Residential,25818 N 68TH Ave,Peoria,AZ,85383.0,435500.0,4.0,2.5,2866.0,7500.0,2000,26.0,http://www.redfin.com/AZ/Peoria/25818-N-68th-Ave-85383/home/27819936,33.7202954,-112.20640700000001
436,Single Family Residential,12717 W AUBURN Dr,Peoria,AZ,85383.0,549000.0,2.0,2.5,2120.0,7107.0,2013,259.0,http://www.redfin.com/AZ/Peoria/12717-W-Auburn-Dr-85383/home/40416075,33.742000700000006,-112.33419609999999
437,Single Family Residential,13165 W CRESTVALE Dr,Peoria,AZ,85383.0,395990.0,3.0,2.0,1779.0,6600.0,2020,72.0,http://www.redfin.com/AZ/Peoria/13165-W-Crestvale-Dr-85383/home/167817846,33.742543,-112.344273
438,Single Family Residential,11541 W ASHBY Dr,Peoria,AZ,85383.0,372990.0,3.0,2.0,1680.0,5727.0,2020,86.0,http://www.redfin.com/AZ/Peoria/11541-W-Ashby-Dr-85383/home/147835040,33.753017,-112.30916
439,Single Family Residential,28590 N 123RD Ln,Peoria,AZ,85383.0,379000.0,2.0,2.0,1635.0,7354.0,2004,259.0,http://www.redfin.com/AZ/Peoria/28590-N-123rd-Ln-85383/home/27331598,33.742214700000005,-112.32793259999998
440,Single Family Residential,30800 N 137TH Ln,Peoria,AZ,85383.0,450000.0,2.0,2.0,1800.0,5760.0,2016,86.0,http://www.redfin.com/AZ/Peoria/30800-N-137th-Ln-85383/home/56310096,33.7622306,-112.357876
441,Single Family Residential,26127 N 121ST Ave,Peoria,AZ,85383.0,315000.0,3.0,2.0,1671.0,4950.0,2017,50.0,http://www.redfin.com/AZ/Peoria/26127-N-121st-Ave-85383/home/27355426,33.7211266,-112.3206213
442,Single Family Residential,12642 W MORNING VISTA Dr,Peoria,AZ,85383.0,398000.0,5.0,3.0,2725.0,8069.0,2005,86.0,http://www.redfin.com/AZ/Peoria/12642-W-Morning-Vista-Dr-85383/home/28216143,33.7502664,-112.3335674
443,Single Family Residential,9568 W JJ Ranch Rd,Peoria,AZ,85383.0,615000.0,4.0,3.5,2844.0,16285.0,2018,108.0,http://www.redfin.com/AZ/Peoria/9568-W-Jj-Ranch-Rd-85383/home/145341945,33.706327200000004,-112.2653875
444,Single Family Residential,27270 N WHITEHORN Trl,Peoria,AZ,85383.0,435000.0,4.0,2.0,2561.0,7776.0,2004,62.0,http://www.redfin.com/AZ/Peoria/27270-N-Whitehorn-Trl-85383/home/27648421,33.7319377,-112.24881029999999
445,Single Family Residential,29030 N 125TH Ln,Peoria,AZ,85383.0,285000.0,3.0,2.5,1687.0,2550.0,2015,174.0,http://www.redfin.com/AZ/Peoria/29030-N-125th-Ln-85383/home/27448394,33.7470819,-112.33085279999999
446,Single Family Residential,28078 N 123RD Ln,Peoria,AZ,85383.0,624900.0,2.0,2.5,2610.0,8786.0,2004,259.0,http://www.redfin.com/AZ/Peoria/28078-N-123rd-Ln-85383/home/27612621,33.7379373,-112.3270943
447,Single Family Residential,8771 W Brooklite Ln,Peoria,AZ,85383.0,757628.0,4.0,3.5,3752.0,12000.0,2020,199.0,http://www.redfin.com/AZ/Peoria/8771-W-Brooklite-Ln-85383/home/147799120,33.709259,-112.248254
448,Single Family Residential,6822 W ROWEL Rd,Peoria,AZ,85383.0,459900.0,5.0,3.0,3272.0,9081.0,2000,26.0,http://www.redfin.com/AZ/Peoria/6822-W-Rowel-Rd-85383/home/27779696,33.724661600000005,-112.2078973
449,Single Family Residential,9837 W LARIAT Ln,Peoria,AZ,85383.0,710000.0,4.0,2.5,3199.0,10430.0,2016,135.0,http://www.redfin.com/AZ/Peoria/9837-W-Lariat-Ln-85383/home/105586400,33.722051,-112.2715978
450,Single Family Residential,8449 W Andrea Dr,Peoria,AZ,85383.0,425000.0,4.0,3.0,2640.0,6730.0,2003,62.0,http://www.redfin.com/AZ/Peoria/8449-W-Andrea-Dr-85383/home/27304968,33.7251781,-112.24243009999999
451,Single Family Residential,29079 N 124TH Dr,Peoria,AZ,85383.0,310000.0,3.0,3.0,2418.0,2760.0,2014,174.0,http://www.redfin.com/AZ/Peoria/29079-N-124th-Dr-85383/home/27282712,33.748823200000004,-112.32861940000001
452,Single Family Residential,8969 W SIERRA PINTA Dr,Peoria,AZ,85382.0,378000.0,2.0,2.0,1699.0,8973.0,1994,54.0,http://www.redfin.com/AZ/Peoria/8969-W-Sierra-Pinta-Dr-85382/home/27870972,33.6662234,-112.2514882
453,Single Family Residential,7211 W KINGS Ave,Peoria,AZ,85382.0,444900.0,5.0,3.0,2556.0,6170.0,2002,46.0,http://www.redfin.com/AZ/Peoria/7211-W-Kings-Ave-85382/home/27906514,33.6339619,-112.21350919999999
454,Single Family Residential,8716 W MEADOW Dr,Peoria,AZ,85382.0,270000.0,3.0,2.0,1332.0,3610.0,1988,0.0,http://www.redfin.com/AZ/Peoria/8716-W-Meadow-Dr-85382/home/28062369,33.643372799999995,-112.2468544
455,Single Family Residential,20450 N 92ND Ln,Peoria,AZ,85382.0,384990.0,4.0,2.5,2403.0,6007.0,2000,45.0,http://www.redfin.com/AZ/Peoria/20450-N-92nd-Ln-85382/home/27816454,33.6703304,-112.2579848
456,Single Family Residential,7313 W MONTE CRISTO Ave,Peoria,AZ,85382.0,399000.0,4.0,4.0,2200.0,6030.0,2012,126.0,http://www.redfin.com/AZ/Peoria/7313-W-Monte-Cristo-Ave-85382/home/27069883,33.631195399999996,-112.21607069999999
457,Single Family Residential,8633 W GROVERS Ave,Peoria,AZ,85382.0,324900.0,3.0,2.0,1991.0,7300.0,1991,4.0,http://www.redfin.com/AZ/Peoria/8633-W-Grovers-Ave-85382/home/28022148,33.6448783,-112.2458065
458,Townhouse,9447 W MORROW Dr,Peoria,AZ,85382.0,290000.0,2.0,2.0,1938.0,215.0,1984,294.0,http://www.redfin.com/AZ/Peoria/9447-W-Morrow-Dr-85382/home/27899289,33.653920899999996,-112.26366399999999
459,Single Family Residential,8931 W LONE CACTUS Dr,Peoria,AZ,85382.0,389900.0,4.0,2.0,1984.0,6438.0,1998,40.0,http://www.redfin.com/AZ/Peoria/8931-W-Lone-Cactus-Dr-85382/home/27492741,33.678154600000006,-112.25204699999999
460,Single Family Residential,9173 W ROSS Ave,Peoria,AZ,85382.0,279900.0,3.0,2.0,1272.0,5770.0,1999,45.0,http://www.redfin.com/AZ/Peoria/9173-W-Ross-Ave-85382/home/27748630,33.6735763,-112.2564014
461,Townhouse,18837 N 94TH Ave,Peoria,AZ,85382.0,354900.0,2.0,2.0,1483.0,202.0,1986,289.0,http://www.redfin.com/AZ/Peoria/18837-N-94th-Ave-85382/home/28195776,33.656069,-112.26266299999999
462,Single Family Residential,10630 W POTTER Dr,Peoria,AZ,85382.0,249000.0,2.0,2.0,1176.0,6310.0,1999,106.0,http://www.redfin.com/AZ/Peoria/10630-W-Potter-Dr-85382/home/28298373,33.6733275,-112.2880226
463,Single Family Residential,8784 W Fargo Dr,Peoria,AZ,85382.0,329900.0,3.0,2.0,2048.0,7320.0,1995,0.0,http://www.redfin.com/AZ/Peoria/8784-W-Fargo-Dr-85382/home/27791594,33.6294382,-112.24764609999998
464,Mobile/Manufactured Home,7001 W PATRICIA ANN Ln,Peoria,AZ,85382.0,140000.0,2.0,2.0,1345.0,8451.0,1972,0.0,http://www.redfin.com/AZ/Peoria/7001-W-Patricia-Ann-Ln-85382/home/27229438,33.629055,-112.2091315
465,Single Family Residential,7321 W PHELPS Rd,Peoria,AZ,85382.0,399000.0,3.0,2.5,2250.0,3600.0,2019,96.0,http://www.redfin.com/AZ/Peoria/7321-W-Phelps-Rd-85382/home/167679708,33.634836,-112.216179
466,Single Family Residential,9017 W YUKON Dr,Peoria,AZ,85382.0,479000.0,5.0,3.5,4011.0,7259.0,2001,52.0,http://www.redfin.com/AZ/Peoria/9017-W-Yukon-Dr-85382/home/28055617,33.668080200000006,-112.252536
467,Single Family Residential,10391 W RUNION Dr,Peoria,AZ,85382.0,275000.0,3.0,2.0,1734.0,4950.0,2000,106.0,http://www.redfin.com/AZ/Peoria/10391-W-Runion-Dr-85382/home/27918437,33.669896,-112.2837848
468,Single Family Residential,20508 N 90TH Ln,Peoria,AZ,85382.0,365000.0,3.0,2.0,1770.0,5988.0,2002,52.0,http://www.redfin.com/AZ/Peoria/20508-N-90th-Ln-85382/home/27770137,33.6716189,-112.25467830000001
469,Single Family Residential,7467 W MARY JANE Ln,Peoria,AZ,85382.0,480000.0,5.0,3.5,4032.0,11680.0,2000,64.0,http://www.redfin.com/AZ/Peoria/7467-W-Mary-Jane-Ln-85382/home/27796779,33.6265102,-112.2194471
470,Single Family Residential,19833 N 90TH Ave,Peoria,AZ,85382.0,336900.0,2.0,2.0,1495.0,403.0,1993,314.0,http://www.redfin.com/AZ/Peoria/19833-N-90th-Ave-85382/home/27282276,33.664488,-112.251369
471,Mobile/Manufactured Home,6935 W ZOE ELLA Way,Peoria,AZ,85382.0,150000.0,3.0,2.0,1344.0,9640.0,1973,0.0,http://www.redfin.com/AZ/Peoria/6935-W-Zoe-Ella-Way-85382/home/27228467,33.6256234,-112.20838629999999
