,property_type,address,city,state,zip_code,price,beds,baths,square_feet,lot_size,year_built,hoa_permonth,url,latitude,longitude
0,Single Family Residential,7712 Unicorn Tapestry Ct,Las Vegas,NV,89149,289000,3.0,2.5,2222.0,1742.0,2007.0,80.0,http://www.redfin.com/NV/Las-Vegas/7712-Unicorn-Tapestry-Ct-89149/home/29060658,36.3013617,-115.2915501
1,Single Family Residential,10749 Moon Flower Arbor Pl,Las Vegas,NV,89144,404000,4.0,2.5,1707.0,8712.0,2000.0,50.0,http://www.redfin.com/NV/Las-Vegas/10749-Moon-Flower-Arbor-Pl-89144/home/29114387,36.1698807,-115.330868
2,Single Family Residential,7285 Mer Soliel Ct,Las Vegas,NV,89118,405000,5.0,2.5,2641.0,3485.0,2018.0,24.0,http://www.redfin.com/NV/Las-Vegas/7285-Mer-Soliel-Ct-89118/home/146416878,36.056596299999995,-115.2327757
3,Condo/Co-op,7950 Flamingo Rd #2098,Las Vegas,NV,89147,153000,2.0,1.0,957.0,1358.0,1994.0,150.0,http://www.redfin.com/NV/Las-Vegas/7950-W-Flamingo-Rd-89147/unit-2098/home/29550535,36.1175564,-115.2644523
4,Single Family Residential,2813 Red Springs Dr,Las Vegas,NV,89135,680000,3.0,3.5,2508.0,6970.0,1999.0,245.0,http://www.redfin.com/NV/Las-Vegas/2813-Red-Springs-Dr-89135/home/29587231,36.13894260000001,-115.33778909999998
5,Townhouse,10411 Kitty Joyce Ave,Las Vegas,NV,89129,249900,3.0,2.5,1611.0,1307.0,2007.0,200.0,http://www.redfin.com/NV/Las-Vegas/10411-Kitty-Joyce-Ave-89129/home/29277188,36.247521,-115.32431729999999
6,Single Family Residential,12310 Kings Meadow Ct,Las Vegas,NV,89138,505000,4.0,2.5,2407.0,5663.0,2014.0,40.0,http://www.redfin.com/NV/Las-Vegas/12310-Kings-Meadow-Ct-89138/home/65558762,36.169186700000004,-115.36702269999999
7,Single Family Residential,2745 Mccoy Dr,Las Vegas,NV,89134,340000,2.0,1.75,1629.0,7841.0,1990.0,122.0,http://www.redfin.com/NV/Las-Vegas/2745-McCoy-Dr-89134/home/29153594,36.21087429999999,-115.3045709
8,Single Family Residential,7651 Lots Hills Dr,Las Vegas,NV,89179,300000,3.0,2.5,1740.0,2178.0,2014.0,38.0,http://www.redfin.com/NV/Las-Vegas/7651-Hills-Dr-89179/home/65558925,35.9952242,-115.2584993
9,Single Family Residential,10701 Button Willow Dr,Las Vegas,NV,89134,540000,3.0,2.5,2577.0,8276.0,1995.0,137.0,http://www.redfin.com/NV/Las-Vegas/10701-Button-Willow-Dr-89134/home/29105516,36.2069944,-115.3295254
10,Single Family Residential,8039 Villa Cano St,Las Vegas,NV,89131,499900,5.0,4.25,3775.0,6534.0,2004.0,80.0,http://www.redfin.com/NV/Las-Vegas/8039-Villa-Cano-St-89131/home/29855139,36.3062783,-115.2614861
11,Single Family Residential,8409 Lomack Ct,Las Vegas,NV,89145,273950,2.0,2.0,1184.0,4356.0,1983.0,,http://www.redfin.com/NV/Las-Vegas/8409-Lomack-Ct-89145/home/29215517,36.1709109,-115.27567859999998
12,Single Family Residential,9972 Erie Stream Way,Las Vegas,NV,89148,225000,2.0,2.5,1188.0,1742.0,2005.0,47.0,http://www.redfin.com/NV/Las-Vegas/9972-Erie-Stream-Way-89148/home/29032141,36.073792700000006,-115.3108676
13,Single Family Residential,807 Calstock Ct,Las Vegas,NV,89178,399900,3.0,2.5,2943.0,4356.0,2007.0,51.0,http://www.redfin.com/NV/Las-Vegas/807-Calstock-Ct-89178/home/29066329,36.039463299999994,-115.3074183
14,Single Family Residential,9709 Sienna Valley Ave,Las Vegas,NV,89149,429999,4.0,3.0,2026.0,6970.0,2005.0,70.0,http://www.redfin.com/NV/Las-Vegas/9709-Sienna-Valley-Ave-89149/home/29007433,36.302426000000004,-115.30778870000002
15,Single Family Residential,8804 Marble Dr,Las Vegas,NV,89134,388900,2.0,2.0,1637.0,7841.0,1989.0,138.0,http://www.redfin.com/NV/Las-Vegas/8804-Marble-Dr-89134/home/29149495,36.216029,-115.2869765
16,Townhouse,6442 Spring Jog St #6,Las Vegas,NV,89166,305900,3.0,2.5,1448.0,1307.0,2021.0,160.0,http://www.redfin.com/NV/Las-Vegas/6442-Spring-Jog-ST-89166/unit-6/home/172670115,36.430307899999995,-115.5207358
17,Condo/Co-op,555 Silverado Ranch Blvd #1044,Las Vegas,NV,89183,146500,1.0,1.0,705.0,,1999.0,163.0,http://www.redfin.com/NV/Las-Vegas/555-E-Silverado-Ranch-Blvd-89183/unit-1044/home/29070178,36.0119165,-115.15163740000001
18,Condo/Co-op,2000 Fashion Show Dr #3204,Las Vegas,NV,89109,218000,0.0,1.0,533.0,,2006.0,560.0,http://www.redfin.com/NV/Las-Vegas/2000-Fashion-Show-Dr-89109/unit-3204/home/29805665,36.129563,-115.17263500000001
19,Townhouse,6444 Spring Jog St #5,Las Vegas,NV,89166,305900,3.0,2.5,1448.0,1307.0,2021.0,160.0,http://www.redfin.com/NV/Las-Vegas/6444-Spring-Jog-ST-89166/unit-5/home/172670085,36.430307899999995,-115.5207358
20,Single Family Residential,6531 American Eagle Ave,Las Vegas,NV,89131,540000,4.0,2.75,3231.0,7841.0,2014.0,65.0,http://www.redfin.com/NV/Las-Vegas/6531-American-Eagle-Ave-89131/home/61437959,36.2762865,-115.23623970000001
21,Single Family Residential,9563 Vega Carpio Ave,Las Vegas,NV,89178,315000,3.0,2.5,2145.0,3485.0,2013.0,85.0,http://www.redfin.com/NV/Las-Vegas/9563-Vega-Carpio-Ave-89178/home/65556788,36.0221355,-115.3017466
22,Townhouse,10567 Ridge Glow Ave #30,Las Vegas,NV,89166,318900,3.0,2.5,1552.0,1307.0,2021.0,160.0,http://www.redfin.com/NV/Las-Vegas/10567-Ridge-Glow-AVE-89166/unit-30/home/172670055,36.430307899999995,-115.5207358
23,Condo/Co-op,2000 Fashion Show Dr #3203,Las Vegas,NV,89109,218000,0.0,1.0,534.0,,2006.0,560.0,http://www.redfin.com/NV/Las-Vegas/2000-Fashion-Show-Dr-89109/unit-3203/home/29805662,36.129563,-115.17263500000001
24,Condo/Co-op,2000 Fashion Show Dr #3202,Las Vegas,NV,89109,218000,0.0,1.0,533.0,,2006.0,560.0,http://www.redfin.com/NV/Las-Vegas/2000-Fashion-Show-Dr-89109/unit-3202/home/29805663,36.129563,-115.17263500000001
25,Townhouse,10563 Ridge Glow Ave #28,Las Vegas,NV,89166,295900,3.0,2.5,1448.0,1307.0,2021.0,160.0,http://www.redfin.com/NV/Las-Vegas/10563-Ridge-Glow-AVE-89166/unit-28/home/172670017,36.430307899999995,-115.5207358
26,Condo/Co-op,4300 Tara Ave Unit 3 (C),Las Vegas,NV,89102,149900,2.0,1.0,902.0,,1982.0,175.0,http://www.redfin.com/NV/Las-Vegas/4300-Tara-Ave-89102/unit-3-C/home/172670016,36.1393,-115.1982023
27,Townhouse,10559 Ridge Glow Ave #26,Las Vegas,NV,89166,304900,3.0,2.5,1448.0,1307.0,2021.0,160.0,http://www.redfin.com/NV/Las-Vegas/10559-Ridge-Glow-AVE-89166/unit-26/home/172669981,36.430307899999995,-115.5207358
28,Single Family Residential,3947 Zapotec Way,Las Vegas,NV,89103,299900,3.0,2.0,1526.0,6970.0,1981.0,,http://www.redfin.com/NV/Las-Vegas/3947-Zapotec-Way-89103/home/29546131,36.117259000000004,-115.23052890000001
29,Single Family Residential,835 Elmstone Pl,Las Vegas,NV,89138,739950,5.0,4.5,3089.0,4792.0,2019.0,,http://www.redfin.com/NV/Las-Vegas/835-Elmstone-Pl-89138/home/165791389,36.1601758,-115.3654703
30,Single Family Residential,9482 Ali Baba Ln,Las Vegas,NV,89148,320000,3.0,2.5,1613.0,4356.0,2003.0,19.0,http://www.redfin.com/NV/Las-Vegas/9482-W-Ali-Baba-Ln-89148/home/29915810,36.094651,-115.29925700000001
31,Townhouse,9303 Gilcrease Ave #1206,Las Vegas,NV,89149,170000,0.0,1.75,1121.0,5465.0,2005.0,161.0,http://www.redfin.com/NV/Las-Vegas/9303-Gilcrease-Ave-89149/unit-1206/home/29023410,36.3018086,-115.297506
32,Single Family Residential,4511 Colorado Ave,Las Vegas,NV,89104,249888,3.0,2.0,1684.0,7405.0,1978.0,,http://www.redfin.com/NV/Las-Vegas/4511-E-Colorado-Ave-89104/home/29407599,36.1555118,-115.0765548
33,Townhouse,2740 Heritage Ct,Las Vegas,NV,89121,204900,3.0,2.0,1610.0,3485.0,1970.0,195.0,http://www.redfin.com/NV/Las-Vegas/2740-Heritage-Ct-89121/home/29472277,36.14005770000001,-115.104703
34,Townhouse,10557 Ridge Glow Ave #25,Las Vegas,NV,89166,304900,3.0,2.5,1448.0,1307.0,2021.0,160.0,http://www.redfin.com/NV/Las-Vegas/10557-Ridge-Glow-AVE-89166/unit-25/home/172669896,36.430307899999995,-115.5207358
35,Condo/Co-op,11285 Vision Peak Ave #101,Las Vegas,NV,89135,383883,2.0,2.5,1563.0,3485.0,2020.0,237.0,http://www.redfin.com/NV/Las-Vegas/11285-Hidden-Peak-Ave-89135/unit-101/home/113672894,36.158182000000004,-115.3403896
36,Townhouse,2851 Valley View Blvd #1057,Las Vegas,NV,89102,179000,2.0,2.0,1272.0,2100.0,1989.0,290.0,http://www.redfin.com/NV/Las-Vegas/2851-S-Valley-View-Blvd-89102/unit-1057/home/29464726,36.140450200000004,-115.19547279999999
37,Condo/Co-op,11285 Hidden Peak Ave #102,Las Vegas,NV,89135,380426,2.0,2.0,1193.0,3485.0,2020.0,285.0,http://www.redfin.com/NV/Las-Vegas/11285-Hidden-Peak-Ave-89135/unit-102/home/113672953,36.158182000000004,-115.3403896
38,Townhouse,11327 Gravitation Dr,Las Vegas,NV,89135,465368,3.0,2.5,2298.0,1742.0,2019.0,265.0,http://www.redfin.com/NV/Las-Vegas/11327-Gravitation-Dr-89135/home/166486245,36.1560363,-115.34136809999998
39,Condo/Co-op,11270 Hidden Peak Ave #203,Las Vegas,NV,89135,333180,2.0,2.5,1387.0,17424.0,2020.0,285.0,http://www.redfin.com/NV/Las-Vegas/11270-Hidden-Peak-Ave-89135/unit-203/home/165920750,36.15851970000001,-115.34001780000001
40,Townhouse,11329 Gravitation Dr,Las Vegas,NV,89135,442843,3.0,2.5,2027.0,1742.0,2019.0,265.0,http://www.redfin.com/NV/Las-Vegas/11329-Gravitation-Dr-89135/home/165920468,36.1559652,-115.3414332
41,Single Family Residential,9091 Island Wolf Ave,Las Vegas,NV,89149,359999,4.0,2.5,2261.0,4792.0,2016.0,49.0,http://www.redfin.com/NV/Las-Vegas/9091-Island-Wolf-Ave-89149/home/109871203,36.3050476,-115.29396809999999
42,Townhouse,9925 Hemet Dr,Las Vegas,NV,89134,375000,2.0,1.75,1599.0,3049.0,1994.0,347.0,http://www.redfin.com/NV/Las-Vegas/9925-Hemet-Dr-89134/home/29151174,36.213997,-115.312954
43,Condo/Co-op,1812 Decatur Blvd #202,Las Vegas,NV,89108,115000,2.0,2.0,945.0,945.0,1985.0,190.0,http://www.redfin.com/NV/Las-Vegas/1812-N-Decatur-Blvd-89108/unit-202/home/29307134,36.1925145,-115.20535500000001
44,Condo/Co-op,2606 Durango #202,Las Vegas,NV,89117,128400,1.0,1.0,720.0,,1989.0,150.0,http://www.redfin.com/NV/Las-Vegas/2606-S-Durango-Dr-89117/unit-202/home/29015476,36.1408705,-115.2785866
45,Single Family Residential,10667 Sariah Skye Ave Lot 8,Las Vegas,NV,89166,344990,3.0,2.5,2138.0,3049.0,2020.0,47.0,http://www.redfin.com/NV/Las-Vegas/N-Shaumber-Rd-89166/unit-8/home/172669207,36.307125799999994,-115.3263332
46,Single Family Residential,9401 Cedar Heights Ave,Las Vegas,NV,89134,429999,4.0,3.0,2458.0,6098.0,1993.0,50.0,http://www.redfin.com/NV/Las-Vegas/9401-Cedar-Heights-Ave-89134/home/29153255,36.2043152,-115.300728
47,Condo/Co-op,813 Peachy Canyon Cir #201,Las Vegas,NV,89144,239000,2.0,2.0,1302.0,1302.0,2000.0,205.0,http://www.redfin.com/NV/Las-Vegas/813-Peachy-Canyon-Cir-89144/unit-201/home/29210634,36.1810219,-115.30958500000001
48,Single Family Residential,1220 Woodbridge Dr,Las Vegas,NV,89108,253900,3.0,2.0,1597.0,6970.0,1980.0,,http://www.redfin.com/NV/Las-Vegas/1220-Woodbridge-Dr-89108/home/29341977,36.185918799999996,-115.19035179999999
49,Single Family Residential,2933 Royal Coach Ct,Las Vegas,NV,89134,299900,2.0,1.75,1119.0,16117.0,1992.0,137.0,http://www.redfin.com/NV/Las-Vegas/2933-Royal-Coach-Ct-89134/home/29152317,36.2153411,-115.3018392
50,Townhouse,11313 Gravitation Dr,Las Vegas,NV,89135,516621,3.0,2.5,2203.0,1742.0,2019.0,265.0,http://www.redfin.com/NV/Las-Vegas/11313-Gravitation-Dr-89135/home/166486241,36.155635600000004,-115.34129009999998
51,Townhouse,11319 Gravitation Dr,Las Vegas,NV,89135,440273,3.0,2.5,2027.0,1742.0,2019.0,265.0,http://www.redfin.com/NV/Las-Vegas/11319-Gravitation-Dr-89135/home/166601044,36.1558674,-115.34129209999999
52,Single Family Residential,10525 Shanna Trellis Ave,Las Vegas,NV,89144,329000,3.0,2.0,1273.0,4356.0,2000.0,50.0,http://www.redfin.com/NV/Las-Vegas/10525-Shanna-Trellis-Ave-89144/home/29109137,36.1922114,-115.32623840000001
53,Condo/Co-op,11299 Glowing Ave #101,Las Vegas,NV,89135,404025,3.0,2.5,1851.0,3485.0,2020.0,285.0,http://www.redfin.com/NV/Las-Vegas/11299-Glowing-Cove-Ave-89129/unit-101/home/113672925,36.157957,-115.34066000000001
54,Townhouse,8721 Prairie Hill Dr,Las Vegas,NV,89134,234500,2.0,1.0,1046.0,2614.0,1990.0,195.0,http://www.redfin.com/NV/Las-Vegas/8721-Prairie-Hill-Dr-89134/home/29159297,36.2023261,-115.28452250000001
55,Single Family Residential,4971 Hayride St,Las Vegas,NV,89149,795000,7.0,4.5,4970.0,20038.0,1996.0,100.0,http://www.redfin.com/NV/Las-Vegas/4971-Hayride-St-89149/home/29098266,36.251141100000005,-115.2724258
56,Single Family Residential,9179 Weeping Hollow Ave,Las Vegas,NV,89178,439000,4.0,2.75,3231.0,4356.0,2006.0,37.0,http://www.redfin.com/NV/Las-Vegas/9179-Weeping-Hollow-Ave-89178/home/29067295,36.014109000000005,-115.2933662
57,Condo/Co-op,4400 Jones Blvd #2020,Las Vegas,NV,89103,169900,2.0,2.0,947.0,,1998.0,221.0,http://www.redfin.com/NV/Las-Vegas/4400-S-Jones-Blvd-89103/unit-2020/home/29449415,36.1083836,-115.2242301
58,Townhouse,3867 Terrazzo Ave,Las Vegas,NV,89115,155000,2.0,2.5,1178.0,871.0,1986.0,150.0,http://www.redfin.com/NV/Las-Vegas/3867-Terrazzo-Ave-89115/home/29363001,36.212981,-115.09024699999999
59,Single Family Residential,5518 Jacobs Field St,Las Vegas,NV,89148,299900,3.0,2.5,1824.0,3485.0,2001.0,,http://www.redfin.com/NV/Las-Vegas/5518-Jacobs-Field-St-89148/home/29869413,36.088626299999994,-115.29832040000001
60,Single Family Residential,2363 Rock Slide Cir,Las Vegas,NV,89115,260000,3.0,2.0,1597.0,4356.0,2010.0,40.0,http://www.redfin.com/NV/Las-Vegas/2363-Rock-Slide-Cir-89115/home/35623830,36.2024347,-115.0910498
61,Single Family Residential,5612 Pepperpike Ave,Las Vegas,NV,89130,270000,4.0,2.0,1585.0,4356.0,1999.0,60.0,http://www.redfin.com/NV/Las-Vegas/5612-Pepperpike-Ave-89130/home/29093173,36.2681161,-115.2198078
62,Single Family Residential,5962 Early Grace St,Las Vegas,NV,89148,389000,3.0,2.5,2480.0,5663.0,2002.0,75.0,http://www.redfin.com/NV/Las-Vegas/5962-Early-Grace-St-89148/home/29912905,36.0800998,-115.3008669
63,Condo/Co-op,1481 Living Desert Dr Unit A,Las Vegas,NV,89119,129950,3.0,2.25,1097.0,,1973.0,265.0,http://www.redfin.com/NV/Las-Vegas/1481-Living-Desert-Dr-89119/unit-A/home/29505624,36.1064709,-115.1330993
64,Single Family Residential,6006 Aripeka St,Henderson,NV,89011,220000,2.0,2.5,1193.0,2178.0,2007.0,130.0,http://www.redfin.com/NV/Henderson/6006-Aripeka-St-89011/home/29063112,36.079825,-115.0232054
65,Single Family Residential,,Las Vegas,NV,89119,379000,3.0,2.5,2294.0,7841.0,1979.0,,http://www.redfin.com/NV/Las-Vegas/Undisclosed-address-89119/home/29491113,36.117437200000005,-115.1256872
66,Townhouse,10713 Mission Lakes Ave,Las Vegas,NV,89134,270000,2.0,1.75,1236.0,3049.0,1998.0,395.0,http://www.redfin.com/NV/Las-Vegas/10713-Mission-Lakes-Ave-89134/home/29108877,36.193428999999995,-115.33229399999999
67,Single Family Residential,9535 Havasu Canyon Ave,Las Vegas,NV,89166,279000,3.0,2.5,1718.0,2178.0,2006.0,35.0,http://www.redfin.com/NV/Las-Vegas/9535-Havasu-Canyon-Ave-89166/home/29020788,36.3121171,-115.3051728
68,Single Family Residential,3200 Ridgecliff St,Las Vegas,NV,89129,385000,3.0,2.0,1630.0,9148.0,1999.0,48.0,http://www.redfin.com/NV/Las-Vegas/3200-Ridgecliff-St-89129/home/29104479,36.218686,-115.32063649999999
69,Condo/Co-op,778 Oakmont Ave #312,Las Vegas,NV,89109,129900,1.0,1.0,708.0,,1972.0,344.0,http://www.redfin.com/NV/Las-Vegas/778-Oakmont-Ave-89109/unit-312/home/29063383,36.139278600000004,-115.1465385
70,Single Family Residential,4741 Blue Moon Ln,Las Vegas,NV,89147,400000,5.0,3.0,2533.0,6098.0,1997.0,18.0,http://www.redfin.com/NV/Las-Vegas/4741-Blue-Moon-Ln-89147/home/29564561,36.1027838,-115.2648895
71,Single Family Residential,10534 Borborema St,Las Vegas,NV,89179,400000,3.0,3.5,2318.0,3920.0,2016.0,63.0,http://www.redfin.com/NV/Las-Vegas/10534-Borborema-St-89179/home/113140460,35.99754229999999,-115.2607683
72,Condo/Co-op,4381 Flamingo Rd #2805,Las Vegas,NV,89103,238888,0.0,1.0,615.0,,2006.0,552.0,http://www.redfin.com/NV/Las-Vegas/4381-W-Flamingo-Rd-89103/unit-2805/home/29789702,36.114414000000004,-115.1990639
73,Townhouse,5902 Sunlight Garden Way,Las Vegas,NV,89118,265000,2.0,2.5,1811.0,1742.0,1994.0,200.0,http://www.redfin.com/NV/Las-Vegas/5902-Sunlight-Garden-Way-89118/home/29576693,36.093381,-115.22228899999999
74,Condo/Co-op,2451 Rainbow Blvd #1096,Las Vegas,NV,89108,155000,2.0,2.0,1237.0,13132.0,1988.0,254.0,http://www.redfin.com/NV/Las-Vegas/2451-N-Rainbow-Blvd-89108/unit-1096/home/29062202,36.2060131,-115.243622
75,Single Family Residential,1249 Plum Canyon St,Las Vegas,NV,89142,202888,3.0,1.5,1278.0,1742.0,2003.0,49.0,http://www.redfin.com/NV/Las-Vegas/1249-Plum-Canyon-St-89142/home/29933466,36.1577901,-115.04203490000002
76,Single Family Residential,4811 Saputo Ave,Las Vegas,NV,89141,308000,3.0,2.0,1301.0,5227.0,2001.0,60.0,http://www.redfin.com/NV/Las-Vegas/4811-Saputo-Ave-89141/home/29849595,35.9898156,-115.20602959999998
77,Single Family Residential,9872 Masterpiece Dr,Las Vegas,NV,89148,520000,4.0,2.5,2513.0,9583.0,2002.0,80.0,http://www.redfin.com/NV/Las-Vegas/9872-Masterpiece-Dr-89148/home/29912995,36.078372200000004,-115.30836740000001
78,Single Family Residential,332 Broken Par Dr,Las Vegas,NV,89148,365000,4.0,3.0,2251.0,3485.0,2004.0,155.0,http://www.redfin.com/NV/Las-Vegas/332-Broken-Par-Dr-89148/home/29011390,36.0420526,-115.29475520000001
79,Single Family Residential,9677 Sound View Ave,Las Vegas,NV,89147,399990,4.0,2.75,2447.0,4356.0,2000.0,,http://www.redfin.com/NV/Las-Vegas/9677-Sound-View-Ave-89147/home/29557583,36.107801,-115.30354799999999
80,Condo/Co-op,2451 Rainbow Blvd #1033,Las Vegas,NV,89108,108000,1.0,1.0,720.0,,1988.0,170.0,http://www.redfin.com/NV/Las-Vegas/2451-N-Rainbow-Blvd-89108/unit-1033/home/29061581,36.204114399999995,-115.24354550000001
81,Condo/Co-op,9103 Alta Dr #1007,Las Vegas,NV,89145,935000,2.0,2.5,2271.0,,2006.0,2452.0,http://www.redfin.com/NV/Las-Vegas/9103-Alta-Dr-89145/unit-1007/home/29792339,36.166369,-115.292157
82,Single Family Residential,620 Bloomingfield Ln,Las Vegas,NV,89145,257000,3.0,1.75,1180.0,7841.0,1973.0,,http://www.redfin.com/NV/Las-Vegas/620-Bloomingfield-Ln-89145/home/29223581,36.1644736,-115.2594254
83,Single Family Residential,10805 Cain Ave,Las Vegas,NV,89166,320000,3.0,2.5,1943.0,4356.0,2010.0,31.0,http://www.redfin.com/NV/Las-Vegas/10805-Cain-Ave-89166/home/35656469,36.299769700000006,-115.3312383
84,Single Family Residential,5345 Hammond Ct,Las Vegas,NV,89110,245000,3.0,2.0,1284.0,3920.0,2001.0,,http://www.redfin.com/NV/Las-Vegas/5345-Hammond-Ct-89110/home/29863408,36.168414899999995,-115.05669879999999
85,Single Family Residential,4528 Califa Dr,Las Vegas,NV,89122,279500,3.0,2.0,1668.0,8712.0,1999.0,112.0,http://www.redfin.com/NV/Las-Vegas/4528-Califa-Dr-89122/home/29433330,36.1072005,-115.03364760000001
86,Single Family Residential,1416 Swanbrooke Dr,Las Vegas,NV,89144,390000,3.0,2.5,1800.0,4792.0,2000.0,55.0,http://www.redfin.com/NV/Las-Vegas/1416-Swanbrooke-Dr-89144/home/29113198,36.1884115,-115.34114540000002
87,Single Family Residential,9561 Sun Drop Ct,Las Vegas,NV,89147,355000,4.0,2.5,2168.0,3920.0,2000.0,,http://www.redfin.com/NV/Las-Vegas/9561-Sun-Drop-Ct-89147/home/29556832,36.1233452,-115.30056529999999
88,Single Family Residential,1105 Country Shadows Way,Las Vegas,NV,89123,327000,4.0,2.5,2036.0,4792.0,1997.0,29.0,http://www.redfin.com/NV/Las-Vegas/1105-Country-Shadows-Way-89123/home/29625701,36.031657700000004,-115.1384034
89,Townhouse,5021 Spencer St Unit C,Las Vegas,NV,89119,118900,2.0,1.5,828.0,2256.0,1979.0,170.0,http://www.redfin.com/NV/Las-Vegas/5021-Spencer-St-89119/unit-C/home/29512615,36.0981038,-115.12862520000002
90,Vacant Land,E Harmon Ave,Las Vegas,NV,89119,335000,,,,20038.0,,,http://www.redfin.com/NV/Las-Vegas/E-Harmon-Ave-89119/home/172665047,36.1078105,-115.14428249999999
91,Single Family Residential,4074 Arrowood Dr,Las Vegas,NV,89147,310000,3.0,2.5,1731.0,5663.0,1979.0,,http://www.redfin.com/NV/Las-Vegas/4074-Arrowood-Dr-89147/home/29547881,36.115733399999996,-115.2472466
92,Single Family Residential,9720 Ridge Creek Pl,Las Vegas,NV,89134,314900,3.0,1.75,1295.0,4792.0,1995.0,,http://www.redfin.com/NV/Las-Vegas/9720-Ridge-Creek-Pl-89134/home/29155924,36.192037299999996,-115.30869150000001
93,Single Family Residential,10128 Cypress Glen Ave,Las Vegas,NV,89134,449000,4.0,2.5,2292.0,5227.0,1996.0,55.0,http://www.redfin.com/NV/Las-Vegas/10128-Cypress-Gln-89134/home/29106390,36.2038205,-115.3164002
94,Single Family Residential,6542 Vigo Rd,Las Vegas,NV,89146,1098880,11.0,9.0,3733.0,16117.0,1978.0,,http://www.redfin.com/NV/Las-Vegas/6542-Vigo-Rd-89146/home/29543520,36.12771420000001,-115.23434950000001
95,Single Family Residential,9830 Marietta Cellars Ct,Las Vegas,NV,89141,389000,5.0,2.5,2667.0,3485.0,2018.0,31.0,http://www.redfin.com/NV/Las-Vegas/9830-Marietta-Cellars-Ct-89139/home/161735049,36.0110763,-115.2207178
96,Multi-Family (2-4 Unit),4961 Apollostar Ct,Las Vegas,NV,89115,400000,,,3290.0,14810.0,1982.0,,http://www.redfin.com/NV/Las-Vegas/4961-Apollostar-Ct-89115/home/29367292,36.1984588,-115.0651566
97,Single Family Residential,9613 Abbey Pond Ave,Las Vegas,NV,89148,375000,4.0,3.0,2383.0,3920.0,2017.0,50.0,http://www.redfin.com/NV/Las-Vegas/9613-Abbey-Pond-Ave-89148/home/113211183,36.070456,-115.3027189
98,Condo/Co-op,8255 S Las Vegas Blvd #1307,Las Vegas,NV,89123,459900,2.0,2.0,1338.0,,2008.0,620.0,http://www.redfin.com/NV/Las-Vegas/8255-S-Las-Vegas-Blvd-89123/unit-1307/home/29800296,36.0398518,-115.1760955
99,Condo/Co-op,8255 S Las Vegas Blvd #912,Las Vegas,NV,89123,449900,2.0,2.5,1573.0,,2008.0,723.0,http://www.redfin.com/NV/Las-Vegas/8255-S-Las-Vegas-Blvd-89123/unit-912/home/29800271,36.0398518,-115.1760955
100,Single Family Residential,5458 Walton Heath Ave,Las Vegas,NV,89142,329900,4.0,2.5,2172.0,4356.0,1987.0,32.0,http://www.redfin.com/NV/Las-Vegas/5458-Walton-Heath-Ave-89142/home/29416903,36.140660499999996,-115.0546385
101,Single Family Residential,8954 Indian Eagle Dr,Las Vegas,NV,89129,274000,3.0,2.5,1508.0,3049.0,1994.0,84.0,http://www.redfin.com/NV/Las-Vegas/8954-Indian-Eagle-Dr-89129/home/29123997,36.224146999999995,-115.291653
102,Single Family Residential,6326 Point Isabel Way,Las Vegas,NV,89122,295000,3.0,2.5,1722.0,3049.0,2017.0,55.0,http://www.redfin.com/NV/Las-Vegas/6326-Point-Isabel-Way-89122/home/143188508,36.090149200000006,-115.03494509999999
103,Condo/Co-op,2405 W Serene Ave #623,Las Vegas,NV,89123,220000,2.0,2.0,899.0,,2007.0,352.0,http://www.redfin.com/NV/Las-Vegas/2405-W-Serene-Ave-89123/unit-623/home/29494023,36.0206455,-115.1744881
104,Condo/Co-op,5055 Hacienda Ave #1056,Las Vegas,NV,89118,156000,2.0,2.0,893.0,,1999.0,185.0,http://www.redfin.com/NV/Las-Vegas/5055-W-Hacienda-Ave-89118/unit-1056/home/29831272,36.0927793,-115.2107517
105,Single Family Residential,3128 E University Ave,Las Vegas,NV,89121,549000,5.0,3.25,3437.0,13504.0,1980.0,,http://www.redfin.com/NV/Las-Vegas/3128-E-University-Ave-89121/home/29508032,36.1087633,-115.1067856
106,Single Family Residential,3034 Lenoir St,Las Vegas,NV,89135,515000,4.0,2.75,3023.0,5663.0,2001.0,,http://www.redfin.com/NV/Las-Vegas/3034-Lenoir-St-89135/home/29870611,36.1349641,-115.3350808
107,Single Family Residential,2571 Pacific Ave,Las Vegas,NV,89121,395000,3.0,2.25,2220.0,6970.0,1971.0,,http://www.redfin.com/NV/Las-Vegas/2571-Pacific-Ave-89121/home/29471053,36.1389791,-115.11482360000001
108,Townhouse,6245 Haiku Stairs St,Las Vegas,NV,89148,329000,3.0,2.5,1543.0,1307.0,2019.0,185.0,http://www.redfin.com/NV/Las-Vegas/6245-Haiku-Stairs-St-89148/home/166290927,36.075158,-115.280992
109,Single Family Residential,7999 Narnia Ave,Las Vegas,NV,89113,334000,4.0,3.0,2089.0,4356.0,2012.0,51.0,http://www.redfin.com/NV/Las-Vegas/7999-Narnia-Ave-89113/home/52628616,36.0918418,-115.2654452
110,Vacant Land,8175 Arville St #288,Las Vegas,NV,89139,287000,,,,2614.0,,395.0,http://www.redfin.com/NV/Las-Vegas/8175-Arville-St-89139/unit-288/home/127388481,36.0408755,-115.19959180000001
111,Single Family Residential,1094 N Linn Ln,Las Vegas,NV,89110,284900,3.0,1.75,1605.0,7405.0,1981.0,,http://www.redfin.com/NV/Las-Vegas/1094-N-Linn-Ln-89110/home/29380467,36.17984379999999,-115.04812820000001
112,Condo/Co-op,737 Oakmont Ave #1202,Las Vegas,NV,89109,160000,1.0,1.0,863.0,863.0,1972.0,275.0,http://www.redfin.com/NV/Las-Vegas/737-Oakmont-Ave-89109/unit-1202/home/29063533,36.138345799999996,-115.14672949999999
113,Single Family Residential,12109 Hermesa Colina Ave,Las Vegas,NV,89138,850000,5.0,4.5,3934.0,6970.0,2017.0,74.0,http://www.redfin.com/NV/Las-Vegas/12109-Hermesa-Colina-Ave-89138/home/143188682,36.17122929999999,-115.36202340000001
114,Condo/Co-op,2750 Durango Dr #1127,Las Vegas,NV,89117,139900,2.0,2.0,965.0,,1989.0,216.0,http://www.redfin.com/NV/Las-Vegas/2750-S-Durango-Dr-89117/unit-1127/home/29535296,36.139846999999996,-115.277454
115,Single Family Residential,4928 Whispering Spring Ave,Las Vegas,NV,89131,239900,2.0,2.0,990.0,4792.0,2002.0,80.0,http://www.redfin.com/NV/Las-Vegas/4928-Whispering-Spring-Ave-89131/home/28967925,36.299925099999996,-115.20973470000001
116,Multi-Family (2-4 Unit),1004 Jones Blvd,Las Vegas,NV,89108,348000,,,2808.0,7405.0,1963.0,,http://www.redfin.com/NV/Las-Vegas/1004-N-Jones-Blvd-89108/home/29187276,36.1820028,-115.2234896
117,Single Family Residential,6418 Wild Blue Ct,Las Vegas,NV,89135,775000,4.0,4.5,3126.0,6970.0,2018.0,82.0,http://www.redfin.com/NV/Las-Vegas/6418-Wild-Blue-Ct-89135/home/147875473,36.07191470000001,-115.3161414
118,Single Family Residential,3018 Binaggio Ct,Las Vegas,NV,89141,310000,3.0,2.5,1659.0,3485.0,2004.0,62.0,http://www.redfin.com/NV/Las-Vegas/3018-Binaggio-Ct-89141/home/28993303,35.9891196,-115.1817136
119,Single Family Residential,10085 Chestnut Wood Ave,Las Vegas,NV,89148,399999,4.0,3.0,2870.0,5227.0,2007.0,65.0,http://www.redfin.com/NV/Las-Vegas/10085-Chestnut-Wood-Ave-89148/home/29320760,36.0834542,-115.3129973
120,Condo/Co-op,1512 Blackcombe St #203,Las Vegas,NV,89128,215000,2.0,2.0,1204.0,,1996.0,186.0,http://www.redfin.com/NV/Las-Vegas/1512-Blackcombe-St-89128/unit-203/home/29206726,36.1880436,-115.26372579999999
121,Single Family Residential,10644 San Sicily St,Las Vegas,NV,89141,740000,5.0,4.5,4387.0,11326.0,2004.0,135.0,http://www.redfin.com/NV/Las-Vegas/10644-San-Sicily-St-89141/home/29000130,35.9959281,-115.21075359999999
122,Single Family Residential,7644 Bokhara St,Las Vegas,NV,89149,225000,3.0,2.5,1298.0,1742.0,2008.0,66.0,http://www.redfin.com/NV/Las-Vegas/7644-N-Bokhara-St-89149/home/29060341,36.3005098,-115.2892916
123,Single Family Residential,10026 Fort Pike St,Las Vegas,NV,89178,365000,5.0,3.0,2870.0,4792.0,2008.0,54.0,http://www.redfin.com/NV/Las-Vegas/10026-S-Fort-Pike-St-89178/home/29293779,36.0065174,-115.29118999999999
124,Single Family Residential,6150 Glenborough St,Las Vegas,NV,89115,285000,4.0,3.0,2070.0,4792.0,2006.0,55.0,http://www.redfin.com/NV/Las-Vegas/6150-Glenborough-St-89115/home/29178270,36.27257410000001,-115.07905670000001
125,Single Family Residential,,Las Vegas,NV,89123,425000,3.0,2.0,1821.0,20909.0,1972.0,,http://www.redfin.com/NV/Las-Vegas/Undisclosed-address-89123/home/29614343,36.0431619,-115.1209388
126,Single Family Residential,9947 Vermillion Cliffs Ave,Las Vegas,NV,89147,359900,3.0,2.0,1461.0,6970.0,1999.0,,http://www.redfin.com/NV/Las-Vegas/9947-Vermillion-Cliffs-Ave-89147/home/29555349,36.1217974,-115.309386
127,Single Family Residential,5310 Aurora Beam Ave,Las Vegas,NV,89122,227000,3.0,2.5,1319.0,1742.0,2007.0,46.0,http://www.redfin.com/NV/Las-Vegas/5310-Aurora-Beam-Ave-89122/home/29282875,36.090748299999994,-115.05695530000001
128,Condo/Co-op,4575 Dean Martin Dr #307,Las Vegas,NV,89103,649000,2.0,2.5,2494.0,,2005.0,1655.0,http://www.redfin.com/NV/Las-Vegas/4575-Dean-Martin-Dr-89103/unit-307/home/29793635,36.1067411,-115.18214590000001
129,Single Family Residential,7690 Aspen Color St,Las Vegas,NV,89139,305000,3.0,2.25,1494.0,3049.0,2003.0,112.0,http://www.redfin.com/NV/Las-Vegas/7690-Aspen-Color-St-89139/home/28980157,36.049834600000004,-115.2168206
130,Vacant Land,8175 Arville St #325,Las Vegas,NV,89139,195000,,,,2614.0,,395.0,http://www.redfin.com/NV/Las-Vegas/8175-Arville-St-89139/unit-325/home/105464067,36.0408755,-115.19959180000001
131,Townhouse,10429 Pacific Sageview Ln,Las Vegas,NV,89144,349900,2.0,2.0,1474.0,4356.0,1998.0,195.0,http://www.redfin.com/NV/Las-Vegas/10429-Pacific-Sageview-Ln-89144/home/29110398,36.191323,-115.323311
132,Single Family Residential,2629 Cottonwillow St,Las Vegas,NV,89135,299999,3.0,2.5,1178.0,3485.0,2001.0,,http://www.redfin.com/NV/Las-Vegas/2629-Cottonwillow-St-89135/home/29587078,36.1433323,-115.32739579999999
133,Single Family Residential,9328 White Waterfall Ave,Las Vegas,NV,89149,499900,3.0,2.5,2754.0,9583.0,2006.0,93.0,http://www.redfin.com/NV/Las-Vegas/9328-White-Waterfall-Ave-89149/home/29273967,36.294618299999996,-115.2999409
134,Single Family Residential,7990 Light Tower St,Las Vegas,NV,89139,289750,3.0,2.5,1494.0,2178.0,2006.0,120.0,http://www.redfin.com/NV/Las-Vegas/7990-Light-Tower-St-89139/home/29054675,36.044211,-115.2234433
135,Townhouse,8517 Glenmount Dr,Las Vegas,NV,89134,269900,2.0,2.0,1363.0,3049.0,1989.0,203.0,http://www.redfin.com/NV/Las-Vegas/8517-Glenmount-Dr-89134/home/29149555,36.211902,-115.28047
136,Single Family Residential,10292 Jersey Shore Ave,Las Vegas,NV,89135,349900,3.0,2.5,1878.0,3485.0,2004.0,48.0,http://www.redfin.com/NV/Las-Vegas/10292-Jersey-Shore-Ave-89135/home/28977184,36.1456635,-115.3175808
137,Single Family Residential,4280 Plumeria Mist St Lot 20,Las Vegas,NV,89129,467590,4.0,3.0,2300.0,8276.0,2020.0,88.0,http://www.redfin.com/NV/Las-Vegas/4280-Island-Mist-St-89130/unit-20/home/172663759,36.2630315,-115.21962930000001
138,Single Family Residential,4394 Plumeria Mist St Lot 29,Las Vegas,NV,89129,463990,4.0,3.0,2300.0,8276.0,2020.0,88.0,http://www.redfin.com/NV/Las-Vegas/4394-Island-Mist-St-89130/unit-29/home/172663716,36.2630315,-115.21962930000001
139,Single Family Residential,109 Cimarron Rd,Las Vegas,NV,89145,325000,3.0,2.0,1620.0,6534.0,1980.0,,http://www.redfin.com/NV/Las-Vegas/109-S-Cimarron-Rd-89145/home/29218600,36.1728767,-115.26861709999999
140,Single Family Residential,3657 Regatta Landing Dr,Las Vegas,NV,89141,587500,4.0,3.5,2867.0,6970.0,2017.0,83.0,http://www.redfin.com/NV/Las-Vegas/3657-Regatta-Landing-Dr-89141/home/144626704,35.95692329999999,-115.1886115
141,Single Family Residential,4382 Plumeria Mist St Lot 23,Las Vegas,NV,89129,484990,4.0,3.0,2538.0,8712.0,2020.0,88.0,http://www.redfin.com/NV/Las-Vegas/4382-Island-Mist-St-89130/unit-23/home/172663635,36.2630315,-115.21962930000001
142,Condo/Co-op,2750 Durango Dr #2154,Las Vegas,NV,89117,155000,2.0,2.0,965.0,965.0,1989.0,216.0,http://www.redfin.com/NV/Las-Vegas/2750-S-Durango-Dr-89117/unit-2154/home/29535221,36.1398182,-115.2783273
143,Condo/Co-op,4471 Dean Martin Dr #910,Las Vegas,NV,89103,919000,2.0,2.5,1962.0,,2007.0,1258.0,http://www.redfin.com/NV/Las-Vegas/4471-Dean-Martin-Dr-89103/unit-910/home/29814007,36.1085292,-115.18205420000001
144,Single Family Residential,2832 Alcoa Ave,Las Vegas,NV,89102,250000,3.0,1.75,1175.0,8276.0,1961.0,,http://www.redfin.com/NV/Las-Vegas/2832-Alcoa-Ave-89102/home/29464999,36.1435263,-115.1811115
145,Condo/Co-op,2374 Cardiff Ln Unit B,Las Vegas,NV,89108,125000,2.0,1.5,1032.0,,1972.0,210.0,http://www.redfin.com/NV/Las-Vegas/2374-Cardiff-Ln-89108/unit-B/home/29174507,36.202709399999996,-115.2185594
146,Condo/Co-op,6737 Charleston Blvd #3,Las Vegas,NV,89146,115000,2.0,2.0,996.0,,1985.0,200.0,http://www.redfin.com/NV/Las-Vegas/6737-W-Charleston-Blvd-89146/unit-3/home/29518396,36.157444700000006,-115.24120320000002
147,Condo/Co-op,5155 Tropicana Ave #1055,Las Vegas,NV,89103,200000,2.0,1.75,1063.0,,1995.0,157.0,http://www.redfin.com/NV/Las-Vegas/5155-W-Tropicana-Ave-89103/unit-1055/home/29578517,36.100356899999994,-115.21189
148,Single Family Residential,820 Teal Ave,Las Vegas,NV,89123,292000,3.0,2.5,1522.0,4356.0,1991.0,,http://www.redfin.com/NV/Las-Vegas/820-Teal-Ave-89123/home/29624265,36.042225200000004,-115.14449499999999
149,Single Family Residential,11898 Galvani St,Las Vegas,NV,89183,480000,4.0,2.5,2774.0,5227.0,2002.0,16.0,http://www.redfin.com/NV/Las-Vegas/11898-Galvani-St-89183/home/29945978,35.9737308,-115.16730840000001
150,Single Family Residential,5010 Smoke Ranch Rd,Las Vegas,NV,89108,365900,3.0,1.5,2032.0,37026.0,1946.0,,http://www.redfin.com/NV/Las-Vegas/5010-Smoke-Ranch-Rd-89108/home/29137128,36.2031896,-115.20751159999999
151,Single Family Residential,9801 Lenox Crest Pl,Las Vegas,NV,89134,385000,3.0,2.5,1734.0,5663.0,1996.0,,http://www.redfin.com/NV/Las-Vegas/9801-Lenox-Crest-Pl-89134/home/29155862,36.1935536,-115.3116547
152,Condo/Co-op,555 Silverado Ranch Blvd #1157,Las Vegas,NV,89183,160000,1.0,1.0,776.0,,1999.0,163.0,http://www.redfin.com/NV/Las-Vegas/555-E-Silverado-Ranch-Blvd-89183/unit-1157/home/29070952,36.0129439,-115.15063570000001
153,Single Family Residential,96 Daisy Springs Ct,Las Vegas,NV,89148,345000,3.0,2.5,1735.0,3485.0,2006.0,155.0,http://www.redfin.com/NV/Las-Vegas/96-Daisy-Springs-Ct-89148/home/29034121,36.0417449,-115.2856801
154,Single Family Residential,5208 Floralita St,Las Vegas,NV,89122,240000,3.0,2.5,1160.0,3920.0,2007.0,,http://www.redfin.com/NV/Las-Vegas/5208-Floralita-St-89122/home/28969490,36.0950821,-115.03425
155,Single Family Residential,6944 Cloud Cir,Las Vegas,NV,89145,325000,4.0,1.75,2298.0,7841.0,1970.0,,http://www.redfin.com/NV/Las-Vegas/6944-Cloud-Cir-89145/home/29225845,36.1659145,-115.24965459999999
156,Single Family Residential,10009 Sailfish Cir,Las Vegas,NV,89117,463000,4.0,2.5,2593.0,6970.0,1989.0,26.0,http://www.redfin.com/NV/Las-Vegas/10009-Sailfish-Cir-89117/home/29528196,36.135210799999996,-115.3140622
157,Single Family Residential,5466 Wilbur St,Las Vegas,NV,89119,215000,3.0,1.75,1080.0,7405.0,1963.0,,http://www.redfin.com/NV/Las-Vegas/5466-Wilbur-St-89119/home/29516152,36.090611200000005,-115.14076599999999
158,Single Family Residential,409 15th St,Las Vegas,NV,89101,175000,2.0,1.0,864.0,7405.0,1943.0,,http://www.redfin.com/NV/Las-Vegas/409-S-15th-St-89101/home/29348793,36.160787400000004,-115.131281
159,Single Family Residential,2481 Hollow Rock Ct,Las Vegas,NV,89135,689000,3.0,3.25,2712.0,7841.0,1999.0,245.0,http://www.redfin.com/NV/Las-Vegas/2481-Hollow-Rock-Ct-89135/home/29586679,36.144765299999996,-115.3412149
160,Single Family Residential,4702 Ondoro Ave,Las Vegas,NV,89141,345000,3.0,2.0,1658.0,5227.0,2001.0,,http://www.redfin.com/NV/Las-Vegas/4702-Ondoro-Ave-89141/home/29877966,35.9983321,-115.20464009999998
161,Condo/Co-op,4200 Valley View Blvd #2019,Las Vegas,NV,89103,214900,2.0,2.0,902.0,,1990.0,330.0,http://www.redfin.com/NV/Las-Vegas/4200-S-Valley-View-Blvd-89103/unit-2019/home/29283022,36.1128542,-115.1883331
162,Single Family Residential,10988 Carberry Hill St,Las Vegas,NV,89141,390000,4.0,2.5,2535.0,4356.0,2004.0,115.0,http://www.redfin.com/NV/Las-Vegas/10988-Carberry-Hill-St-89141/home/28992864,35.9899923,-115.1925981
163,Single Family Residential,5906 Dodd St,Las Vegas,NV,89122,199000,4.0,3.0,2062.0,6970.0,1959.0,,http://www.redfin.com/NV/Las-Vegas/5906-Dodd-St-89122/home/29435084,36.0956309,-115.0419885
164,Single Family Residential,1701 Enclave Ct,Las Vegas,NV,89134,12950000,4.0,6.5,13349.0,84506.0,1997.0,1275.0,http://www.redfin.com/NV/Las-Vegas/1701-Enclave-Ct-89134/home/29158361,36.1902947,-115.2958896
165,Single Family Residential,6193 Skyblush Ave,Las Vegas,NV,89131,874995,3.0,2.5,3313.0,21344.0,2020.0,130.0,http://www.redfin.com/NV/Las-Vegas/6193-Skyblush-Ave-89131/home/170370869,36.2843035,-115.22863799999999
166,Single Family Residential,6884 Acacia Breeze St,Las Vegas,NV,89131,946995,5.0,4.5,4325.0,21344.0,2020.0,130.0,http://www.redfin.com/NV/Las-Vegas/6884-Acacia-Breeze-St-89131/home/170370758,36.284646,-115.2276146
167,Single Family Residential,1990 Mill Pond Ln,Las Vegas,NV,89119,295000,3.0,2.0,1544.0,6098.0,1988.0,,http://www.redfin.com/NV/Las-Vegas/1990-Mill-Pond-Ln-89119/home/29594170,36.0577297,-115.12543240000001
168,Single Family Residential,6190 Luna View Ave,Las Vegas,NV,89131,871995,4.0,3.5,3691.0,21344.0,2020.0,130.0,http://www.redfin.com/NV/Las-Vegas/6190-Luna-View-Ave-89131/home/170370880,36.2839124,-115.22864080000001
169,Condo/Co-op,7100 Pirates Cove Rd #2099,Las Vegas,NV,89145,139999,2.0,1.75,1002.0,,1992.0,178.0,http://www.redfin.com/NV/Las-Vegas/7100-W-Pirates-Cove-Rd-89145/unit-2099/home/29200347,36.1765128,-115.2526746
170,Single Family Residential,,Las Vegas,NV,89117,485921,3.0,2.5,2706.0,8712.0,1988.0,26.0,http://www.redfin.com/NV/Las-Vegas/Undisclosed-address-89117/home/29529051,36.1345862,-115.3110769
171,Single Family Residential,11541 Bohemian Forest Ave,Las Vegas,NV,89138,799800,4.0,3.0,3276.0,10019.0,2004.0,98.0,http://www.redfin.com/NV/Las-Vegas/11541-Bohemian-Forest-Ave-89138/home/28986256,36.1740806,-115.35001059999999
172,Condo/Co-op,1361 University Ave #205,Las Vegas,NV,89119,73000,1.0,1.0,500.0,,1985.0,145.0,http://www.redfin.com/NV/Las-Vegas/1361-E-University-Ave-89119/unit-205/home/29504785,36.109055,-115.13490700000001
173,Single Family Residential,7330 Clearwater Cir,Las Vegas,NV,89147,294999,3.0,2.0,1195.0,11761.0,2000.0,,http://www.redfin.com/NV/Las-Vegas/7330-Clearwater-Cir-89147/home/29567053,36.11416989999999,-115.25155320000002
174,Townhouse,3989 Delos Dr,Las Vegas,NV,89103,224900,3.0,2.5,1631.0,3721.0,1988.0,184.0,http://www.redfin.com/NV/Las-Vegas/3989-Delos-Dr-89103/home/29543652,36.117022,-115.21087299999999
175,Condo/Co-op,135 Harmon Ave Unit 2009&11,Las Vegas,NV,89109,549900,2.0,2.0,1040.0,,2006.0,1296.0,http://www.redfin.com/NV/Las-Vegas/135-E-Harmon-Ave-89109/unit-2009-11/home/172662625,36.106794,-115.16655700000001
176,Single Family Residential,8568 Foundry Branch Ln,Las Vegas,NV,89113,532900,4.0,3.75,2877.0,6098.0,2015.0,98.0,http://www.redfin.com/NV/Las-Vegas/8568-Foundry-Branch-Ln-89113/home/100790313,36.0405536,-115.27734550000001
177,Single Family Residential,3325 Arby Ave,Las Vegas,NV,89118,399999,3.0,2.0,1584.0,22216.0,1986.0,,http://www.redfin.com/NV/Las-Vegas/3325-W-Arby-Ave-89118/home/29595458,36.0604827,-115.1849095
178,Single Family Residential,2012 Ardilea St,Las Vegas,NV,89135,499999,3.0,3.0,2742.0,3049.0,2007.0,83.0,http://www.redfin.com/NV/Las-Vegas/2012-Ardilea-St-89135/home/29320461,36.1512867,-115.3402195
179,Single Family Residential,595 Gilmorehill Ct,Las Vegas,NV,89148,474888,3.0,2.5,2191.0,9148.0,2014.0,155.0,http://www.redfin.com/NV/Las-Vegas/595-Gilmorehill-Ct-89148/home/65557934,36.0372256,-115.29498670000001
180,Condo/Co-op,2405 W Serene Ave #723,Las Vegas,NV,89123,223500,2.0,2.0,899.0,,2007.0,392.0,http://www.redfin.com/NV/Las-Vegas/2405-W-Serene-Ave-89123/unit-723/home/29494042,36.0206455,-115.1744881
181,Single Family Residential,8630 Rori Springs St,Las Vegas,NV,89178,425000,3.0,2.0,1987.0,5227.0,2017.0,49.0,http://www.redfin.com/NV/Las-Vegas/8630-Rori-Springs-St-89178/home/143191951,36.0308036,-115.3145344
182,Single Family Residential,3724 Rockland Dr,Las Vegas,NV,89129,375000,4.0,2.75,2167.0,6970.0,1994.0,,http://www.redfin.com/NV/Las-Vegas/3724-N-Rockland-Dr-89129/home/29129165,36.228231799999996,-115.2597496
183,Single Family Residential,7411 Page Ranch Ct,Las Vegas,NV,89131,519900,4.0,3.5,3005.0,12197.0,2003.0,75.0,http://www.redfin.com/NV/Las-Vegas/7411-Page-Ranch-Ct-89131/home/29849677,36.28911420000001,-115.2566702
184,Single Family Residential,10478 Skye Knoll Ave,Las Vegas,NV,89166,386849,4.0,3.0,2259.0,3485.0,2020.0,58.0,http://www.redfin.com/NV/Las-Vegas/10478-Skye-Knoll-Ave-89124/home/169228005,36.3077,-115.323
185,Single Family Residential,6263 Oread Ave,Las Vegas,NV,89139,249000,3.0,2.25,1211.0,1742.0,2005.0,78.0,http://www.redfin.com/NV/Las-Vegas/6263-Oread-Ave-89139/home/29035260,36.0535541,-115.22881540000002
186,Single Family Residential,6351 Abacus Farms Ct,Las Vegas,NV,89131,639900,6.0,4.5,4440.0,20038.0,2005.0,85.0,http://www.redfin.com/NV/Las-Vegas/6351-Abacus-Farms-Ct-89131/home/172077366,36.2952528,-115.2318487
187,Single Family Residential,7528 Comanche Canyon Ave,Las Vegas,NV,89113,404999,3.0,2.0,2007.0,6534.0,2003.0,51.0,http://www.redfin.com/NV/Las-Vegas/7528-Comanche-Canyon-Ave-89113/home/29952381,36.0463939,-115.25576720000001
188,Single Family Residential,7244 Boyd,Las Vegas,NV,89131,530000,4.0,2.5,3476.0,22216.0,1993.0,,http://www.redfin.com/NV/Las-Vegas/7244-Boyd-Ln-89131/home/29088809,36.29394370000001,-115.2224939
189,Single Family Residential,694 Glen Canyon Ct,Las Vegas,NV,89110,495000,4.0,3.25,3926.0,13504.0,1999.0,68.0,http://www.redfin.com/NV/Las-Vegas/694-Glen-Canyon-Ct-89110/home/29396635,36.1720905,-115.0283649
190,Vacant Land,Rancho,Las Vegas,NV,89108,290000,,,,30056.0,,,http://www.redfin.com/NV/Las-Vegas/N-Rancho-Dr-Unknown/home/50280986,36.2144422,-115.20952340000002
191,Single Family Residential,1901 Ski Slope Cir,Las Vegas,NV,89117,675000,5.0,2.75,3582.0,20038.0,1987.0,,http://www.redfin.com/NV/Las-Vegas/1901-Ski-Slope-Cir-89117/home/29522127,36.1504071,-115.26463490000002
192,Condo/Co-op,3150 Soft Breezes Dr #2013,Las Vegas,NV,89128,162500,2.0,2.0,981.0,,1989.0,190.0,http://www.redfin.com/NV/Las-Vegas/3150-N-Soft-Breezes-Dr-89128/unit-2013/home/29143920,36.216448799999995,-115.26462409999999
193,Townhouse,9011 Kimo St,Las Vegas,NV,89123,280000,3.0,1.75,1239.0,2614.0,2002.0,60.0,http://www.redfin.com/NV/Las-Vegas/9011-Kimo-St-89123/home/29874961,36.026376,-115.178458
194,Condo/Co-op,9580 Reno Ave #237,Las Vegas,NV,89148,187999,2.0,1.75,1151.0,,2003.0,184.0,http://www.redfin.com/NV/Las-Vegas/9580-W-Reno-Ave-89148/unit-237/home/29032079,36.0970339,-115.3015793
195,Single Family Residential,4953 Grey Mesa St,Las Vegas,NV,89149,789900,6.0,5.25,5020.0,22651.0,2001.0,120.0,http://www.redfin.com/NV/Las-Vegas/4953-Grey-Mesa-St-89149/home/29856946,36.25067979999999,-115.2659314
196,Condo/Co-op,270 Flamingo Rd #423,Las Vegas,NV,89169,299000,2.0,2.0,974.0,,1992.0,427.0,http://www.redfin.com/NV/Las-Vegas/270-E-Flamingo-Rd-89169/unit-423/home/29064625,36.115633100000004,-115.16036570000001
197,Single Family Residential,8624 Earl Creek St,Las Vegas,NV,89178,417000,4.0,2.75,2328.0,3920.0,2017.0,49.0,http://www.redfin.com/NV/Las-Vegas/8624-Earl-Creek-St-89178/home/145872464,36.0310591,-115.3111087
198,Single Family Residential,9398 Leafhopper Ct,Las Vegas,NV,89178,309900,4.0,2.5,1664.0,3485.0,2008.0,37.0,http://www.redfin.com/NV/Las-Vegas/9398-Leafhopper-Ct-89178/home/29607775,35.998641,-115.297872
199,Single Family Residential,809 Cactus Bloom Ln,Las Vegas,NV,89107,284888,4.0,2.25,1728.0,6970.0,1973.0,,http://www.redfin.com/NV/Las-Vegas/809-Cactus-Bloom-Ln-89107/home/29193074,36.180812,-115.23428
200,Single Family Residential,7612 Coyote Cave Ave,Las Vegas,NV,89113,424999,4.0,3.0,2435.0,5663.0,2006.0,60.0,http://www.redfin.com/NV/Las-Vegas/7612-Coyote-Cave-Ave-89113/home/29287385,36.0517605,-115.2573879
201,Single Family Residential,3441 Mountain Park St,Las Vegas,NV,89129,390000,3.0,2.0,1630.0,5227.0,2001.0,38.0,http://www.redfin.com/NV/Las-Vegas/3441-Mountain-Park-St-89129/home/29846891,36.2233325,-115.32221059999999
202,Single Family Residential,1138 Aspen Valley Ave,Las Vegas,NV,89123,410000,4.0,2.5,2156.0,7841.0,1998.0,30.0,http://www.redfin.com/NV/Las-Vegas/1138-Aspen-Valley-Ave-89123/home/29632039,36.0219996,-115.1383108
203,Single Family Residential,324 Warmside Dr,Las Vegas,NV,89145,294900,3.0,2.5,1760.0,4792.0,1986.0,,http://www.redfin.com/NV/Las-Vegas/324-Warmside-Dr-89145/home/29225510,36.169237,-115.24530159999998
204,Single Family Residential,10409 Broom Hill Dr,Las Vegas,NV,89134,365000,2.0,1.75,1533.0,6534.0,1995.0,128.0,http://www.redfin.com/NV/Las-Vegas/10409-Broom-Hill-Dr-89134/home/29106508,36.2055749,-115.322442
205,Condo/Co-op,211 Flamingo Rd #1416,Las Vegas,NV,89169,165000,1.0,1.0,922.0,,2006.0,652.0,http://www.redfin.com/NV/Las-Vegas/211-E-Flamingo-Rd-89169/unit-1416/home/29486875,36.1138154,-115.16300590000002
206,Single Family Residential,,Las Vegas,NV,89120,299888,3.0,2.5,2070.0,5227.0,1988.0,435.0,http://www.redfin.com/NV/Las-Vegas/Undisclosed-address-89120/home/29511567,36.0905335,-115.1050946
207,Condo/Co-op,7948 Diamond Rock Way #101,Las Vegas,NV,89128,169900,2.0,1.75,912.0,,1989.0,170.0,http://www.redfin.com/NV/Las-Vegas/7948-Diamond-Rock-Way-89128/unit-101/home/29206670,36.1848377,-115.26798970000002
208,Condo/Co-op,9975 Peace Way #1018,Las Vegas,NV,89147,229900,2.0,1.75,1078.0,,2003.0,178.0,http://www.redfin.com/NV/Las-Vegas/9975-Peace-Way-89147/unit-1018/home/29045286,36.107217299999995,-115.30689869999999
209,Condo/Co-op,3750 S Las Vegas Blvd #3703,Las Vegas,NV,89158,1850000,1.0,1.75,1652.0,,2007.0,2008.0,http://www.redfin.com/NV/Las-Vegas/3750-S-Las-Vegas-Blvd-89109/unit-3703/home/30523389,36.1061984,-115.1742939
210,Single Family Residential,5036 Stumbling Colt Ct,Las Vegas,NV,89131,324900,3.0,2.5,2238.0,5227.0,2003.0,45.0,http://www.redfin.com/NV/Las-Vegas/5036-Stumbling-Colt-Ct-89131/home/29954011,36.308065,-115.21112450000001
211,Condo/Co-op,3750 S Las Vegas Bl Blvd #3811,Las Vegas,NV,89158,1090000,1.0,1.5,1106.0,,2007.0,1599.0,http://www.redfin.com/NV/Las-Vegas/3750-S-Las-Vegas-Blvd-89158/unit-3811/home/30523379,36.1061984,-115.1742939
212,Condo/Co-op,10245 Maryland Pkwy #169,Las Vegas,NV,89183,179999,2.0,2.0,1053.0,,2002.0,165.0,http://www.redfin.com/NV/Las-Vegas/10245-S-Maryland-Pkwy-89183/unit-169/home/29941686,36.0030484,-115.13730220000001
213,Single Family Residential,381 Wisteria Ave,Las Vegas,NV,89107,220000,3.0,1.75,1200.0,6098.0,1956.0,,http://www.redfin.com/NV/Las-Vegas/381-Wisteria-Ave-89107/home/29233329,36.1676367,-115.21950670000001
214,Single Family Residential,10028 Pinnacle View Pl,Las Vegas,NV,89134,480000,5.0,2.75,2555.0,5227.0,1998.0,,http://www.redfin.com/NV/Las-Vegas/10028-Pinnacle-View-Pl-89134/home/29155896,36.195047100000004,-115.3157752
215,Condo/Co-op,8725 W Flamingo Rd #206,Las Vegas,NV,89147,169000,1.0,1.0,856.0,2500.0,1999.0,150.0,http://www.redfin.com/NV/Las-Vegas/8725-W-Flamingo-Rd-89147/unit-206/home/29559198,36.114290999999994,-115.28210200000001
216,Single Family Residential,6913 Cortez Ct,Las Vegas,NV,89145,309999,3.0,1.75,2132.0,9148.0,1972.0,,http://www.redfin.com/NV/Las-Vegas/6913-Cortez-Ct-89145/home/29224476,36.1723479,-115.2480801
217,Single Family Residential,7111 Shadow Crst,Las Vegas,NV,89119,315000,3.0,2.25,1685.0,4356.0,1988.0,,http://www.redfin.com/NV/Las-Vegas/7111-Shadow-Crest-Dr-89119/home/29594146,36.06076420000001,-115.1268222
218,Single Family Residential,10279 Meridian Hill Ave,Las Vegas,NV,89135,1250000,4.0,3.5,3275.0,8712.0,2018.0,120.0,http://www.redfin.com/NV/Las-Vegas/10279-Meridian-Hill-Ave-89178/home/147876096,36.062804,-115.31851699999999
219,Townhouse,7042 Burcot Ave Unit I64,Las Vegas,NV,89156,115000,2.0,1.75,1080.0,436.0,1985.0,220.0,http://www.redfin.com/NV/Las-Vegas/7042-Burcot-Ave-89156/unit-I64/home/29372701,36.198645,-115.018446
220,Condo/Co-op,9050 W Warm Springs Rd #2107,Las Vegas,NV,89148,180000,2.0,1.75,972.0,,2003.0,,http://www.redfin.com/NV/Las-Vegas/9050-W-Warm-Springs-Rd-89148/unit-2107/home/28979849,36.0582784,-115.2894607
221,Condo/Co-op,9101 Alta Drive Dr #507,Las Vegas,NV,89145,1150000,2.0,2.5,2271.0,,2006.0,2450.0,http://www.redfin.com/NV/Las-Vegas/9101-Alta-Dr-89145/unit-507/home/29792481,36.166960499999995,-115.29112620000001
222,Single Family Residential,9809 Miss Peach Ave,Las Vegas,NV,89145,450000,3.0,2.0,2033.0,6534.0,1999.0,321.0,http://www.redfin.com/NV/Las-Vegas/9809-Miss-Peach-Ave-89145/home/29212484,36.1592685,-115.3100111
223,Condo/Co-op,3976 Colors Ct #33,Las Vegas,NV,89103,120000,2.0,2.0,828.0,,1984.0,225.0,http://www.redfin.com/NV/Las-Vegas/3976-Colors-Ct-89103/unit-33/home/29502609,36.1232169,-115.1928477
224,Single Family Residential,5537 Spur Heel Ct,Las Vegas,NV,89148,375000,4.0,3.5,2482.0,5663.0,2006.0,27.0,http://www.redfin.com/NV/Las-Vegas/5537-Spur-Heel-Ct-89148/home/29320695,36.0880665,-115.3149418
225,Condo/Co-op,222 Karen Ave #608,Las Vegas,NV,89109,550000,2.0,1.75,1657.0,,2007.0,768.0,http://www.redfin.com/NV/Las-Vegas/222-Karen-Ave-89109/unit-608/home/29797872,36.1422514,-115.15260149999999
226,Single Family Residential,7309 Mountain Thicket St,Las Vegas,NV,89131,285000,3.0,2.0,1702.0,4356.0,1996.0,,http://www.redfin.com/NV/Las-Vegas/7309-N-Mountain-Thicket-St-89131/home/29089931,36.2942502,-115.2779937
227,Single Family Residential,4031 Colorado Ave,Las Vegas,NV,89104,274900,4.0,2.25,1584.0,6098.0,1979.0,,http://www.redfin.com/NV/Las-Vegas/4031-E-Colorado-Ave-89104/home/29410418,36.1561373,-115.0862382
228,Single Family Residential,6832 Vacarez Dr,Las Vegas,NV,89149,347236,3.0,2.5,2069.0,3080.0,2020.0,40.0,http://www.redfin.com/NV/Las-Vegas/6832-Vacarez-DR-89149/home/172543006,36.286183,-115.28116200000001
229,Townhouse,2303 Hallston St,Las Vegas,NV,89134,249000,2.0,1.75,1021.0,2614.0,1996.0,202.0,http://www.redfin.com/NV/Las-Vegas/2303-Hallston-St-89134/home/29107993,36.202635,-115.325217
230,Single Family Residential,6824 Vacarez Dr,Las Vegas,NV,89149,359637,4.0,3.0,2114.0,3080.0,2020.0,40.0,http://www.redfin.com/NV/Las-Vegas/6824-Vacarez-DR-89149/home/172543005,36.286183,-115.28116200000001
231,Single Family Residential,8414 Vacarez Dr,Las Vegas,NV,89149,335854,3.0,2.5,1768.0,3874.0,2020.0,40.0,http://www.redfin.com/NV/Las-Vegas/8414-Vacarez-DR-89149/home/172543007,36.286183,-115.28116200000001
232,Single Family Residential,6564 Cameron Peak Ct,Las Vegas,NV,89156,260000,3.0,2.5,1619.0,4356.0,1995.0,,http://www.redfin.com/NV/Las-Vegas/6564-Cameron-Peak-Ct-89156/home/28966229,36.212613,-115.028921
233,Single Family Residential,10193 Sunny Sky Ct,Las Vegas,NV,89148,370000,3.0,2.5,2028.0,3049.0,2017.0,82.0,http://www.redfin.com/NV/Las-Vegas/10193-Sunny-Sky-Ct-89148/home/143190626,36.0976006,-115.3149186
234,Condo/Co-op,2700 Rainbow Blvd #1096,Las Vegas,NV,89108,140000,2.0,2.0,997.0,,1989.0,,http://www.redfin.com/NV/Las-Vegas/2700-N-Rainbow-Blvd-89108/unit-1096/home/29780498,36.2105094,-115.24190349999999
235,Single Family Residential,7873 Buffalo Peak Ct,Las Vegas,NV,89178,575000,5.0,3.5,3655.0,8712.0,2016.0,32.0,http://www.redfin.com/NV/Las-Vegas/7873-Buffalo-Peak-Ct-89178/home/106487163,36.0045049,-115.26345409999999
236,Condo/Co-op,2700 Las Vegas Blvd #1906,Las Vegas,NV,89109,259900,1.0,1.0,778.0,,2006.0,430.0,http://www.redfin.com/NV/Las-Vegas/2700-S-Las-Vegas-Blvd-89109/unit-1906/home/29777538,36.138948299999996,-115.1616402
237,Single Family Residential,1067 Garden Cress Ct,Las Vegas,NV,89138,329500,3.0,2.0,1316.0,3920.0,2005.0,72.0,http://www.redfin.com/NV/Las-Vegas/1067-Garden-Cress-Ct-89138/home/29014667,36.1592334,-115.35693130000001
238,Single Family Residential,890 Armandito Dr,Las Vegas,NV,89138,579000,4.0,2.5,2869.0,6970.0,2004.0,48.0,http://www.redfin.com/NV/Las-Vegas/890-Armandito-Dr-89138/home/28986632,36.1639716,-115.34526559999999
239,Single Family Residential,2400 Juana Vista St,Las Vegas,NV,89102,290000,3.0,2.5,1664.0,8276.0,1960.0,,http://www.redfin.com/NV/Las-Vegas/2400-Juana-Vista-St-89102/home/29462236,36.145331299999995,-115.1994992
240,Single Family Residential,10360 Sipple St,Las Vegas,NV,89141,369000,3.0,2.5,2133.0,4356.0,2011.0,43.0,http://www.redfin.com/NV/Las-Vegas/10360-Sipple-St-89141/home/40233322,36.0012799,-115.2169132
241,Single Family Residential,6017 Morning Creek Ct,Las Vegas,NV,89130,399900,3.0,2.0,1754.0,10454.0,2000.0,23.0,http://www.redfin.com/NV/Las-Vegas/6017-Morning-Creek-Ct-89130/home/29824063,36.2717636,-115.2130229
242,Single Family Residential,4910 W Rush Ave,Las Vegas,NV,89141,369900,4.0,3.5,2579.0,4356.0,2009.0,44.0,http://www.redfin.com/NV/Las-Vegas/4910-W-Rush-Ave-89141/home/29322110,36.0006526,-115.20797479999999
243,Single Family Residential,4307 Harristown Dr,Las Vegas,NV,89115,275900,4.0,3.0,1933.0,2178.0,2019.0,47.0,http://www.redfin.com/NV/Las-Vegas/4307-Harristown-Dr-89115/home/163846637,36.2033355,-115.0798753
244,Single Family Residential,4909 Capo Gallo St,Las Vegas,NV,89130,395000,5.0,2.75,2805.0,5227.0,2003.0,74.0,http://www.redfin.com/NV/Las-Vegas/4909-Capo-Gallo-St-89130/home/28976729,36.2496088,-115.23353909999999
245,Single Family Residential,6341 Malachite Bay Ave,Las Vegas,NV,89130,365000,4.0,2.0,1775.0,6534.0,1997.0,28.0,http://www.redfin.com/NV/Las-Vegas/6341-Malachite-Bay-Ave-89130/home/29101422,36.258366200000005,-115.2321961
246,Single Family Residential,7677 Distant Mirage Ct,Las Vegas,NV,89139,299000,3.0,2.5,1656.0,5663.0,2002.0,19.0,http://www.redfin.com/NV/Las-Vegas/7677-Distant-Mirage-Ct-89139/home/29900640,36.050070399999996,-115.2203867
247,Single Family Residential,11217 Black Fire Opal Dr,Las Vegas,NV,89138,739000,3.0,2.25,2350.0,6534.0,2020.0,210.0,http://www.redfin.com/NV/Las-Vegas/Fire-Opal-Dr-89131/home/167633296,36.215453000000004,-115.342297
248,Single Family Residential,9128 Harvest Homes St,Las Vegas,NV,89123,575000,4.0,2.5,2940.0,12197.0,2002.0,83.0,http://www.redfin.com/NV/Las-Vegas/9128-Harvest-Homes-St-89123/home/29633620,36.02364229999999,-115.1353229
249,Single Family Residential,8795 Tangerine Sky Ave,Las Vegas,NV,89178,433000,4.0,3.0,2576.0,7841.0,2004.0,25.0,http://www.redfin.com/NV/Las-Vegas/8795-Tangerine-Sky-Ave-89178/home/29001447,36.0125356,-115.2838048
250,Single Family Residential,8379 Gourley Ave,Las Vegas,NV,89178,299000,3.0,2.5,1557.0,3920.0,2007.0,45.0,http://www.redfin.com/NV/Las-Vegas/8379-Gourley-Ave-89178/home/29607024,36.010478000000006,-115.27479879999999
251,Single Family Residential,549 Ellen Way,Las Vegas,NV,89104,314990,3.0,2.0,2214.0,8712.0,1957.0,,http://www.redfin.com/NV/Las-Vegas/549-Ellen-Way-89104/home/29455524,36.1508203,-115.14887250000001
252,Condo/Co-op,11870 Tevare Ln #2085,Las Vegas,NV,89138,385000,2.0,2.0,1532.0,1532.0,2019.0,224.0,http://www.redfin.com/NV/Las-Vegas/11870-Tevare-Ln-89138/unit-2085/home/146037534,36.1628864,-115.35485790000001
253,Condo/Co-op,5310 Portavilla Ct #102,Las Vegas,NV,89122,99900,1.0,1.0,723.0,,2001.0,155.0,http://www.redfin.com/NV/Las-Vegas/5310-Portavilla-Ct-89122/unit-102/home/29435469,36.0929177,-115.0452574
254,Single Family Residential,11165 Hickory Glen St,Las Vegas,NV,89179,335000,3.0,2.0,1867.0,4792.0,2006.0,33.0,http://www.redfin.com/NV/Las-Vegas/11165-Hickory-Glen-St-89179/home/28964054,35.98656210000001,-115.24456070000001
255,Single Family Residential,5141 Plymouth Bay Ct,Las Vegas,NV,89141,399900,4.0,2.5,2737.0,4792.0,2010.0,30.0,http://www.redfin.com/NV/Las-Vegas/5141-Plymouth-Bay-Ct-89141/home/35656486,36.0074453,-115.2110778
256,Single Family Residential,3211 Cheltenham St,Las Vegas,NV,89129,240000,2.0,2.5,1347.0,2178.0,1996.0,160.0,http://www.redfin.com/NV/Las-Vegas/3211-Cheltenham-St-89129/home/29126040,36.2194251,-115.28776370000001
257,Condo/Co-op,1909 Villa Palms Ct #106,Las Vegas,NV,89128,129000,1.0,1.0,560.0,,1995.0,132.0,http://www.redfin.com/NV/Las-Vegas/1909-Villa-Palms-Ct-89128/unit-106/home/29165360,36.1964789,-115.26898130000001
258,Single Family Residential,7641 Fabled Filigree St,Las Vegas,NV,89149,209900,3.0,2.5,1258.0,1742.0,2007.0,80.0,http://www.redfin.com/NV/Las-Vegas/7641-Fabled-Filigree-St-89149/home/29060686,36.3003594,-115.2920697
259,Single Family Residential,6907 Silver Rush St,Las Vegas,NV,89131,978995,4.0,4.5,4325.0,23087.0,2020.0,130.0,http://www.redfin.com/NV/Las-Vegas/6907-Silver-Rush-St-89131/home/170370811,36.2850559,-115.23011240000001
260,Single Family Residential,7312 Saybrook Point Dr,Las Vegas,NV,89128,219900,2.0,1.0,818.0,5227.0,1985.0,,http://www.redfin.com/NV/Las-Vegas/7312-Saybrook-Point-Dr-89128/home/29197264,36.188443400000004,-115.2524794
261,Single Family Residential,6484 Bentley Wood Ct,Las Vegas,NV,89130,259000,3.0,3.0,1404.0,1742.0,2007.0,62.0,http://www.redfin.com/NV/Las-Vegas/6484-W-Bentley-Wood-Ct-89130/home/29278432,36.246284,-115.2363112
262,Single Family Residential,3979 Kind Sky Ct,Las Vegas,NV,89147,399999,4.0,2.5,2350.0,6098.0,1996.0,,http://www.redfin.com/NV/Las-Vegas/3979-Kind-Sky-Ct-89147/home/29552814,36.1171339,-115.289662
263,Condo/Co-op,2961 Juniper Hills Blvd #102,Las Vegas,NV,89142,124900,2.0,2.0,891.0,2500.0,1987.0,225.0,http://www.redfin.com/NV/Las-Vegas/2961-Juniper-Hills-Blvd-89142/unit-102/home/29416332,36.137964200000006,-115.06102320000001
264,Single Family Residential,865 Shrubbery Ln,Las Vegas,NV,89110,213500,4.0,1.75,1134.0,3920.0,1983.0,,http://www.redfin.com/NV/Las-Vegas/865-Shrubbery-Ln-89110/home/29384334,36.1801157,-115.0948095
265,Single Family Residential,172 Flying Hills Ave,Las Vegas,NV,89148,415000,4.0,3.0,3027.0,4356.0,2003.0,157.0,http://www.redfin.com/NV/Las-Vegas/172-Flying-Hills-Ave-89148/home/28972139,36.0535512,-115.29325039999999
266,Condo/Co-op,11835 Portina Dr #2023,Las Vegas,NV,89138,394900,2.0,1.75,1762.0,,2006.0,224.0,http://www.redfin.com/NV/Las-Vegas/11835-Portina-Dr-89138/unit-2023/home/29051620,36.1618545,-115.35346159999999
267,Single Family Residential,5197 Bellaria Pl,Las Vegas,NV,89156,220000,3.0,2.5,1531.0,2178.0,2006.0,81.0,http://www.redfin.com/NV/Las-Vegas/5197-Bellaria-Pl-89156/home/29028153,36.199175,-115.0603378
268,Single Family Residential,8634 Vondel Park St Lot 26,Las Vegas,NV,89148,374138,3.0,2.5,1803.0,4347.0,2020.0,59.0,http://www.redfin.com/NV/Las-Vegas/8634-Vondel-Park-ST-89148/unit-26/home/172659058,36.06123529999999,-115.2896852
269,Single Family Residential,1021 Corsica Ln,Las Vegas,NV,89144,325000,3.0,1.75,1175.0,3920.0,1997.0,58.0,http://www.redfin.com/NV/Las-Vegas/1021-Corsica-Ln-89144/home/29112204,36.18394310000001,-115.3179975
270,Single Family Residential,11673 Raveno Bianco Pl,Las Vegas,NV,89141,449900,4.0,3.0,2300.0,7405.0,2004.0,43.0,http://www.redfin.com/NV/Las-Vegas/11673-Raveno-Bianco-Pl-89141/home/29003604,35.977642700000004,-115.18314950000001
271,Single Family Residential,9238 White Sapphire Ct,Las Vegas,NV,89178,330000,3.0,2.5,1837.0,3485.0,2018.0,59.0,http://www.redfin.com/NV/Las-Vegas/9238-White-Sapphire-Ct-89178/home/145873711,36.0200995,-115.3023019
272,Condo/Co-op,7885 Flamingo Rd #1021,Las Vegas,NV,89147,168000,2.0,2.0,934.0,,1997.0,256.0,http://www.redfin.com/NV/Las-Vegas/7885-W-Flamingo-Rd-89147/unit-1021/home/29562300,36.1130455,-115.26293940000001
273,Single Family Residential,697 Newquay Ct,Las Vegas,NV,89178,329000,4.0,2.5,2310.0,3485.0,2007.0,,http://www.redfin.com/NV/Las-Vegas/697-Newquay-Ct-89178/home/29067083,36.039401,-115.304727
274,Single Family Residential,6929 Welsh Cir,Las Vegas,NV,89108,299000,3.0,2.5,1363.0,4356.0,1984.0,,http://www.redfin.com/NV/Las-Vegas/6929-W-Welsh-Cir-89108/home/29130043,36.2275941,-115.245811
275,Single Family Residential,5456 Enchanted Rose St Lot 7,Las Vegas,NV,89148,315915,4.0,2.5,1645.0,2666.0,2020.0,59.0,http://www.redfin.com/NV/Las-Vegas/5456-Rose-St-89106/unit-7/home/172658909,36.1639535,-115.16773700000002
276,Single Family Residential,5250 Belmont Mill Ct,Las Vegas,NV,89122,344999,3.0,2.5,2036.0,3485.0,2018.0,17.0,http://www.redfin.com/NV/Las-Vegas/5250-Belmont-Mill-Ct-89122/home/147876712,36.0941734,-115.0379432
277,Single Family Residential,2313 Silver Bluff Ct,Las Vegas,NV,89134,638000,3.0,2.5,2330.0,11326.0,1994.0,50.0,http://www.redfin.com/NV/Las-Vegas/2313-Silver-Bluff-Ct-89134/home/29157992,36.2026316,-115.2888981
278,Condo/Co-op,4960 Harrison Dr #228,Las Vegas,NV,89120,99500,1.0,1.0,616.0,,1997.0,198.0,http://www.redfin.com/NV/Las-Vegas/4960-Harrison-Dr-89120/unit-228/home/29510351,36.0990612,-115.1117617
279,Single Family Residential,5117 Evergreen Ave,Las Vegas,NV,89107,245000,3.0,2.0,1705.0,8276.0,1959.0,,http://www.redfin.com/NV/Las-Vegas/5117-Evergreen-Ave-89107/home/29235643,36.162955600000004,-115.2114946
280,Single Family Residential,5468 Enchanted Rose St Lot 5,Las Vegas,NV,89148,311590,3.0,2.5,1645.0,2666.0,2020.0,59.0,http://www.redfin.com/NV/Spring-Valley/5468-Bryce-Rose-Ave-89148/unit-5/home/172658802,36.0757314,-115.3109685
281,Single Family Residential,2970 Full Lotus Dr,Las Vegas,NV,89138,709999,3.0,2.5,2183.0,6098.0,2018.0,210.0,http://www.redfin.com/NV/Las-Vegas/2970-Full-Lotus-Dr-89138/home/166577369,36.214847799999994,-115.33720509999999
282,Single Family Residential,8470 Angel River St,Las Vegas,NV,89123,669000,4.0,3.75,4391.0,18295.0,2007.0,180.0,http://www.redfin.com/NV/Las-Vegas/8470-Angel-River-St-89123/home/29457364,36.035766100000004,-115.1548713
283,Single Family Residential,5462 Enchanted Rose St Lot 6,Las Vegas,NV,89148,298415,3.0,2.5,1430.0,2666.0,2020.0,59.0,http://www.redfin.com/NV/Las-Vegas/5462-Rose-St-89106/unit-6/home/172658723,36.1639535,-115.16773700000002
284,Single Family Residential,9828 Hickory Run Ct,Las Vegas,NV,89178,440000,3.0,2.5,2462.0,6098.0,2007.0,100.0,http://www.redfin.com/NV/Las-Vegas/9828-Hickory-Run-Ct-89178/home/29292794,36.0101969,-115.26620919999999
285,Single Family Residential,11235 Carlin Farms St,Las Vegas,NV,89179,409990,4.0,2.5,2166.0,5663.0,2014.0,,http://www.redfin.com/NV/Las-Vegas/11235-Carlin-Farms-St-89179/home/52673408,35.985122,-115.25657759999999
286,Condo/Co-op,5751 Hacienda Ave #232,Las Vegas,NV,89122,123900,2.0,2.0,896.0,,1998.0,145.0,http://www.redfin.com/NV/Las-Vegas/5751-E-Hacienda-Ave-89122/unit-232/home/29438351,36.0920307,-115.0484622
287,Single Family Residential,6588 Lyon Estates Ave,Las Vegas,NV,89131,674990,3.0,3.25,3253.0,22216.0,2016.0,192.0,http://www.redfin.com/NV/Las-Vegas/6588-Lyon-Estates-Ave-89131/home/109609181,36.3047383,-115.23735649999999
288,Single Family Residential,7919 Woolly St,Las Vegas,NV,89149,339900,3.0,2.5,1872.0,3920.0,2017.0,50.0,http://www.redfin.com/NV/Las-Vegas/7919-Woolly-St-89149/home/144163751,36.3058191,-115.2952963
289,Single Family Residential,4700 Glenndavis Dr,Las Vegas,NV,89121,199900,3.0,2.0,1269.0,6534.0,1963.0,,http://www.redfin.com/NV/Las-Vegas/4700-S-Glenn-Davis-Dr-89121/home/29429680,36.1037963,-115.06844640000001
290,Single Family Residential,123 Staten Island Ave,Las Vegas,NV,89123,339999,3.0,2.0,1593.0,4356.0,2001.0,157.0,http://www.redfin.com/NV/Las-Vegas/123-Staten-Island-Ave-89123/home/29874900,36.0218799,-115.16684520000001
291,Single Family Residential,5474 Enchanted Rose St Lot 4,Las Vegas,NV,89148,299140,3.0,2.5,1430.0,2666.0,2020.0,59.0,http://www.redfin.com/NV/Las-Vegas/5474-Rose-St-89106/unit-4/home/172658454,36.1639535,-115.16773700000002
292,Single Family Residential,1055 Legato Dr,Las Vegas,NV,89123,350000,3.0,2.0,1582.0,6534.0,1992.0,,http://www.redfin.com/NV/Las-Vegas/1055-Legato-Dr-89123/home/29612366,36.0466239,-115.1393299
293,Condo/Co-op,210 Flamingo Rd #331,Las Vegas,NV,89169,164999,1.0,1.0,530.0,530.0,1992.0,220.0,http://www.redfin.com/NV/Las-Vegas/210-E-Flamingo-Rd-89169/unit-331/home/28967356,36.1168894,-115.1630547
294,Single Family Residential,6609 Messenger Ct,Las Vegas,NV,89108,259900,3.0,2.0,1294.0,3485.0,1984.0,,http://www.redfin.com/NV/Las-Vegas/6609-Messenger-Ct-89108/home/29117324,36.2426775,-115.2405318
295,Single Family Residential,10701 Heritage Hills Dr,Las Vegas,NV,89134,379900,2.0,1.75,1842.0,7841.0,1999.0,138.0,http://www.redfin.com/NV/Las-Vegas/10701-Heritage-Hills-Dr-89134/home/29108805,36.1950377,-115.3318402
296,Condo/Co-op,3722 Las Vegas Blvd #1403,Las Vegas,NV,89158,515000,1.0,1.0,780.0,,2007.0,761.0,http://www.redfin.com/NV/Las-Vegas/3722-S-Las-Vegas-Blvd-89158/unit-1403/home/30534183,36.1074109,-115.1746848
297,Single Family Residential,10554 Cloud Whisper Dr,Las Vegas,NV,89135,514900,4.0,2.75,2297.0,4356.0,2015.0,62.0,http://www.redfin.com/NV/Las-Vegas/10554-Cloud-Whisper-Dr-89135/home/109632505,36.079926,-115.32336799999999
298,Condo/Co-op,150 N Las Vegas Bl Blvd #1909,Las Vegas,NV,89101,309900,1.0,1.5,1002.0,,2007.0,467.0,http://www.redfin.com/NV/Las-Vegas/150-Las-Vegas-Blvd-N-89101/unit-1909/home/29813704,36.169877,-115.1395277
299,Single Family Residential,5443 Bradford Pear Dr,Las Vegas,NV,89122,230000,3.0,2.5,1362.0,2178.0,2007.0,110.0,http://www.redfin.com/NV/Las-Vegas/5443-Bradford-Pear-Dr-89122/home/29315552,36.089747100000004,-115.0247504
300,Single Family Residential,7573 Windy Meadow Ave,Las Vegas,NV,89178,625000,3.0,3.25,3148.0,9583.0,2016.0,78.0,http://www.redfin.com/NV/Las-Vegas/7573-Windy-Meadow-Ave-89178/home/113139823,36.0014101,-115.2570175
301,Vacant Land,8175 Arville St #55,Las Vegas,NV,89139,142900,,,,2614.0,,395.0,http://www.redfin.com/NV/Las-Vegas/8175-Arville-St-89139/unit-55/home/51176785,36.041882799999996,-115.2000426
302,Single Family Residential,7145 Beverly Glen Ave,Las Vegas,NV,89110,825000,4.0,3.75,7894.0,20038.0,1996.0,,http://www.redfin.com/NV/Las-Vegas/7145-Beverly-Glen-Ave-89110/home/29397137,36.1722636,-115.01569070000001
303,Single Family Residential,6772 Bristle Falls St,Las Vegas,NV,89149,389900,4.0,3.0,2681.0,3920.0,2016.0,55.0,http://www.redfin.com/NV/Las-Vegas/6772-Bristle-Falls-St-89149/home/102267563,36.284131,-115.3109139
304,Single Family Residential,9539 Colorado Blue St,Las Vegas,NV,89123,349900,3.0,2.5,2040.0,3920.0,2006.0,13.0,http://www.redfin.com/NV/Las-Vegas/9539-Colorado-Blue-St-89123/home/29039345,36.0162519,-115.1588781
305,Single Family Residential,6577 Keynote Dr,Las Vegas,NV,89118,479000,5.0,3.75,3368.0,8276.0,1997.0,,http://www.redfin.com/NV/Las-Vegas/6577-Keynote-Dr-89118/home/29579740,36.089362,-115.2358314
306,Single Family Residential,3863 Ruskin St,Las Vegas,NV,89147,538000,5.0,4.25,3369.0,14810.0,1995.0,49.0,http://www.redfin.com/NV/Las-Vegas/3863-Ruskin-St-89147/home/29553855,36.1192249,-115.2820453
307,Single Family Residential,101 N Buteowoods Ln,Las Vegas,NV,89144,769000,5.0,4.75,3461.0,8712.0,2001.0,80.0,http://www.redfin.com/NV/Las-Vegas/101-N-Buteo-Woods-Ln-89144/home/29112980,36.1747532,-115.32211799999999
308,Single Family Residential,11090 Torch Cactus Dr,Las Vegas,NV,89138,1395000,6.0,5.5,4141.0,13939.0,2018.0,185.0,http://www.redfin.com/NV/Las-Vegas/11090-Torch-Cactus-Dr-89134/home/145873069,36.211943,-115.34259399999999
309,Single Family Residential,10415 Scarpa,Las Vegas,NV,89178,350000,3.0,3.0,2225.0,3049.0,2014.0,87.0,http://www.redfin.com/NV/Las-Vegas/10415-Scarpa-St-89178/home/92906211,35.999910799999995,-115.2523405
310,Condo/Co-op,2000 Fashion Show Dr #5017,Las Vegas,NV,89109,208888,0.0,1.0,533.0,,2006.0,562.0,http://www.redfin.com/NV/Las-Vegas/2000-Fashion-Show-Dr-89109/unit-5017/home/29807616,36.129563,-115.17263500000001
311,Single Family Residential,7316 Saybrook Point Dr,Las Vegas,NV,89128,229900,3.0,1.0,912.0,5663.0,1985.0,,http://www.redfin.com/NV/Las-Vegas/7316-Saybrook-Point-Dr-89128/home/29197263,36.1884519,-115.2526183
312,Single Family Residential,4735 E Colorado Ave,Las Vegas,NV,89104,245000,3.0,2.0,1100.0,7405.0,1984.0,,http://www.redfin.com/NV/Las-Vegas/4735-E-Colorado-Ave-89104/home/29408022,36.1559715,-115.0714581
313,Condo/Co-op,1405 Nellis Blvd #1017,Las Vegas,NV,89104,140000,2.0,1.5,1080.0,,1998.0,201.0,http://www.redfin.com/NV/Las-Vegas/1405-S-Nellis-Blvd-89104/unit-1017/home/29403172,36.1562046,-115.0641443
314,Condo/Co-op,2300 E Silverado Ranch Blvd #1039,Las Vegas,NV,89183,139000,1.0,1.0,776.0,800.0,1997.0,160.0,http://www.redfin.com/NV/Las-Vegas/2300-E-Silverado-Ranch-Blvd-89183/unit-1039/home/29069676,36.0148669,-115.11924429999999
315,Condo/Co-op,5008 Rainbow Blvd #104,Las Vegas,NV,89118,125000,1.0,1.0,841.0,10530.0,1987.0,168.0,http://www.redfin.com/NV/Las-Vegas/5008-S-Rainbow-Blvd-89118/unit-104/home/29064948,36.0977241,-115.24174790000001
316,Single Family Residential,51 Living Edens Ct,Las Vegas,NV,89148,749990,5.0,4.5,4892.0,7841.0,2001.0,,http://www.redfin.com/NV/Las-Vegas/51-Living-Edens-Ct-89148/home/29873400,36.052394899999996,-115.2880415
317,Single Family Residential,4543 Mcleod Dr,Las Vegas,NV,89121,289900,3.0,1.75,1780.0,7405.0,1976.0,,http://www.redfin.com/NV/Las-Vegas/4543-McLeod-Dr-89121/home/29507764,36.1066601,-115.1102371
318,Condo/Co-op,8501 University Ave #2003,Las Vegas,NV,89147,175000,2.0,2.0,1019.0,,1998.0,165.0,http://www.redfin.com/NV/Las-Vegas/8501-W-University-Ave-89147/unit-2003/home/29560763,36.10905,-115.2776534
319,Single Family Residential,6770 Flamenco Ct,Las Vegas,NV,89139,399999,4.0,3.5,2627.0,3049.0,2012.0,37.0,http://www.redfin.com/NV/Las-Vegas/6770-Flamenco-Ct-89139/home/52623722,36.0364393,-115.2405318
320,Condo/Co-op,8000 Badura Ave #1021,Las Vegas,NV,89113,185000,2.0,2.0,914.0,8748.0,2004.0,138.0,http://www.redfin.com/NV/Las-Vegas/8000-W-Badura-Ave-89113/unit-1021/home/29065791,36.061372,-115.2643028
321,Vacant Land,Rainbow,Las Vegas,NV,89108,385000,,,,42689.0,,,http://www.redfin.com/NV/Las-Vegas/3061-N-Rainbow-Blvd-89108/home/172404951,36.2154032,-115.24455690000002
322,Single Family Residential,7570 Village Mist Ln,Las Vegas,NV,89113,259000,3.0,2.5,1443.0,2178.0,2005.0,30.0,http://www.redfin.com/NV/Las-Vegas/7570-Village-Mist-Ln-89113/home/29034691,36.0507046,-115.25779309999999
323,Single Family Residential,464 Astillero St St,Las Vegas,NV,89108,629900,3.0,2.5,2324.0,4090.0,2016.0,67.0,http://www.redfin.com/NV/Las-Vegas/464-Astillero-St-89138/home/109634842,36.1727616,-115.35822749999998
324,Single Family Residential,1101 Tamerack Ave,Las Vegas,NV,89106,213070,3.0,1.75,1442.0,6534.0,1955.0,,http://www.redfin.com/NV/Las-Vegas/1101-Tamerack-Ave-89106/home/29339506,36.1841391,-115.17958300000001
325,Single Family Residential,6481 Mountain Mesa Ave,Las Vegas,NV,89156,250000,3.0,1.75,1614.0,4792.0,1994.0,,http://www.redfin.com/NV/Las-Vegas/6481-Mountain-Mesa-Ave-89156/home/29361930,36.2048501,-115.03190990000002
326,Single Family Residential,717 Point Ridge Pl,Las Vegas,NV,89145,650000,3.0,2.0,2235.0,7841.0,2001.0,67.0,http://www.redfin.com/NV/Las-Vegas/717-Point-Ridge-Pl-89145/home/29114984,36.1646032,-115.3213309
327,Single Family Residential,8670 Fringed Tulip Ct Lot 20,Las Vegas,NV,89148,351013,4.0,2.0,1494.0,4087.0,2020.0,59.0,http://www.redfin.com/NV/Las-Vegas/8670-Fringed-Tulip-CT-89148/unit-20/home/172654188,36.06123529999999,-115.2896852
328,Single Family Residential,4 Montana Ct,Blue Diamond,NV,89004,5350000,3.0,2.75,3249.0,20473.0,2019.0,,http://www.redfin.com/NV/Blue-Diamond/4-Montana-Ct-89004/home/166487531,36.046625299999995,-115.4095615
329,Single Family Residential,1031 Palmerston St,Las Vegas,NV,89110,300000,3.0,2.75,2344.0,7405.0,1983.0,,http://www.redfin.com/NV/Las-Vegas/1031-Palmerston-St-89110/home/29380509,36.178581799999996,-115.0449541
330,Single Family Residential,6937 Graceful Cloud Ave,Henderson,NV,89011,228000,3.0,2.25,1426.0,2178.0,2006.0,125.0,http://www.redfin.com/NV/Henderson/6937-Graceful-Cloud-Ave-89011/home/29063178,36.07822,-115.021813
331,Single Family Residential,2208 Marble Gorge Dr,Las Vegas,NV,89117,375000,4.0,2.75,2571.0,7405.0,1992.0,105.0,http://www.redfin.com/NV/Las-Vegas/2208-Marble-Gorge-Dr-89117/home/29526025,36.146015000000006,-115.31028880000001
332,Single Family Residential,5562 Avent Ferry St,Las Vegas,NV,89148,299900,3.0,2.5,1738.0,3485.0,2005.0,35.0,http://www.redfin.com/NV/Las-Vegas/5562-Avent-Ferry-St-89148/home/29053720,36.0878849,-115.29984830000001
333,Single Family Residential,2468 Trumpet Creeper St,Las Vegas,NV,89115,254900,3.0,2.5,1363.0,2006.0,2020.0,47.0,http://www.redfin.com/NV/Las-Vegas/2468-Trumpet-Creeper-St-89115/home/166541282,36.2042109,-115.0786449
334,Single Family Residential,4330 Harristown Dr,Las Vegas,NV,89115,275900,4.0,3.0,1933.0,2178.0,2019.0,47.0,http://www.redfin.com/NV/Las-Vegas/4330-Harristown-Dr-89115/home/169230411,36.2035799,-115.0793922
335,Townhouse,5201 Torrey Pines Dr #1244,Las Vegas,NV,89118,225000,2.0,2.0,1297.0,,1995.0,185.0,http://www.redfin.com/NV/Las-Vegas/5201-S-Torrey-Pines-Dr-89118/unit-1244/home/29579999,36.0928272,-115.23438929999999
336,Single Family Residential,4325 Harristown Dr,Las Vegas,NV,89115,276900,4.0,3.0,1933.0,2178.0,2019.0,47.0,http://www.redfin.com/NV/Las-Vegas/4325-Harristown-Dr-89115/home/166124874,36.2033199,-115.0794817
337,Single Family Residential,4389 Panther Cove Dr,Las Vegas,NV,89115,247900,3.0,2.5,1295.0,2178.0,2020.0,47.0,http://www.redfin.com/NV/Las-Vegas/4389-Panther-Cove-Dr-89115/home/165846837,36.2037981,-115.07810900000001
338,Single Family Residential,2454 Creeping Rosemary Ct,Las Vegas,NV,89115,247900,3.0,2.5,1295.0,2178.0,2020.0,47.0,http://www.redfin.com/NV/LAS-VEGAS/2454-CREEPING-ROSEMARY-CT-89115/home/169230421,36.2135,-115.0905
339,Single Family Residential,4383 Panther Cove Dr,Las Vegas,NV,89115,246900,3.0,2.5,1295.0,2178.0,2020.0,47.0,http://www.redfin.com/NV/Las-Vegas/4383-Panther-Cove-Dr-89115/home/165846836,36.203790500000004,-115.07825079999999
340,Single Family Residential,3397 Blue Ribbon Downs St,Las Vegas,NV,89122,265000,3.0,2.0,1234.0,3049.0,2012.0,100.0,http://www.redfin.com/NV/Las-Vegas/3397-Blue-Ribbon-Downs-St-89122/home/146410765,36.1277316,-115.0469811
341,Single Family Residential,4380 Harristown Dr,Las Vegas,NV,89115,275900,4.0,3.0,1933.0,2178.0,2019.0,47.0,http://www.redfin.com/NV/Las-Vegas/4380-Harristown-Dr-89115/home/163774014,36.2036305,-115.07838810000001
342,Single Family Residential,4974 Mountain Pepper Dr,Las Vegas,NV,89148,449999,4.0,3.0,2664.0,4356.0,2013.0,55.0,http://www.redfin.com/NV/Las-Vegas/4974-Mountain-Pepper-Dr-89148/home/52594153,36.0988803,-115.31123799999999
343,Single Family Residential,7229 Pinon Crest Ct,Las Vegas,NV,89131,275000,3.0,2.0,1416.0,3920.0,1997.0,27.0,http://www.redfin.com/NV/Las-Vegas/7229-Pinon-Crest-Ct-89131/home/29090751,36.29233370000001,-115.2683624
344,Townhouse,5450 Morris St #1224,Las Vegas,NV,89122,190000,2.0,2.5,1169.0,1307.0,1995.0,225.0,http://www.redfin.com/NV/Las-Vegas/5450-Morris-St-89122/unit-1224/home/29436786,36.0909658,-115.0589531
345,Single Family Residential,4475 Annie Oakley Dr,Las Vegas,NV,89121,280000,4.0,2.0,2206.0,7405.0,1971.0,,http://www.redfin.com/NV/Las-Vegas/4475-Annie-Oakley-Dr-89121/home/29426249,36.1082854,-115.08751229999999
346,Condo/Co-op,3085 Casey Dr #103,Las Vegas,NV,89120,139900,2.0,2.0,987.0,,1995.0,186.0,http://www.redfin.com/NV/Las-Vegas/3085-Casey-Dr-89120/unit-103/home/29511186,36.0951229,-115.1072534
347,Condo/Co-op,4525 Dean Martin Dr #2803,Las Vegas,NV,89103,449000,2.0,1.75,1085.0,,2006.0,748.0,http://www.redfin.com/NV/Las-Vegas/4525-Dean-Martin-Dr-89103/unit-2803/home/29765184,36.1075956,-115.18216340000001
348,Single Family Residential,6136 Sierra Mist Ave,Las Vegas,NV,89139,295000,3.0,2.5,1601.0,2614.0,2004.0,157.0,http://www.redfin.com/NV/Las-Vegas/6136-Sierra-Mist-Ave-89139/home/28978624,36.0383057,-115.2265305
349,Single Family Residential,7316 Young Doe Ave,Las Vegas,NV,89130,259900,3.0,2.0,1252.0,4356.0,1999.0,15.0,http://www.redfin.com/NV/Las-Vegas/7316-Young-Doe-Ave-89130/home/29094673,36.272830400000004,-115.2548874
