,property_type,address,city,state,zip_code,price,beds,baths,square_feet,lot_size,year_built,hoa_permonth,url,latitude,longitude
0,Single Family Residential,2808 NW 81st Pl,Portland,OR,97229,675000,3.0,3.0,2542.0,21344.0,1991.0,4.0,http://www.redfin.com/OR/Portland/2808-NW-81st-Pl-97229/home/143049911,45.542664200000004,-122.7619486
1,Single Family Residential,15821 NW Trakehner Way,Portland,OR,97229,575000,5.0,3.0,2436.0,,1997.0,,http://www.redfin.com/OR/Portland/15821-NW-Trakehner-Way-97229/home/26584609,45.558034899999996,-122.8398279
2,Single Family Residential,2425 NE 44th Ave,Portland,OR,97213,699900,3.0,2.0,2622.0,4791.0,1920.0,,http://www.redfin.com/OR/Portland/2425-NE-44th-Ave-97213/home/26616082,45.540127399999996,-122.6181918
3,Single Family Residential,4014 SE 171st Ave,Portland,OR,97236,300000,3.0,1.0,1000.0,10018.0,1970.0,,http://www.redfin.com/OR/Portland/4014-SE-171st-Ave-97236/home/26539753,45.493264399999994,-122.48627169999999
4,Single Family Residential,227 SE 30th Pl Unit A & B,Portland,OR,97214,1025000,3.0,4.5,3148.0,2613.0,2016.0,,http://www.redfin.com/OR/Portland/227-SE-30th-Pl-97214/unit-A-B/home/172669782,45.5209611,-122.6341929
5,Single Family Residential,6925 SW Barbara Ln,Tigard,OR,97223,574900,3.0,2.5,2362.0,10454.0,1977.0,8.0,http://www.redfin.com/OR/Tigard/6925-SW-Barbara-Ln-97223/home/26725489,45.4501955,-122.7483862
6,Condo/Co-op,1420 NW Lovejoy St #201,Portland,OR,97209,364990,1.0,1.0,831.0,,1910.0,425.0,http://www.redfin.com/OR/Portland/1420-NW-Lovejoy-St-97209/unit-201/home/26372212,45.5299022,-122.6862342
7,Single Family Residential,7053 NW Snowdrop Ter,Portland,OR,97229,500000,4.0,2.5,1764.0,3049.0,2016.0,,http://www.redfin.com/OR/Portland/7053-NW-Ashbrook-Dr-97229/home/112776074,45.570628,-122.830794
8,Single Family Residential,7315 SE 66th Ave,Portland,OR,97206,549000,4.0,2.5,2448.0,4791.0,2017.0,,http://www.redfin.com/OR/Portland/7315-SE-66th-Ave-97206/home/26440124,45.4701777,-122.59545800000001
9,Single Family Residential,1805 NE 55th Ave,Portland,OR,97213,675000,3.0,2.0,2769.0,4791.0,1930.0,,http://www.redfin.com/OR/Portland/1805-NE-55th-Ave-97213/home/26589852,45.5358064,-122.6070977
10,Single Family Residential,1905 SE Division St,Portland,OR,97202,699000,4.0,2.0,2288.0,5227.0,1924.0,,http://www.redfin.com/OR/Portland/1905-SE-Division-St-97202/home/26552803,45.505003,-122.6465749
11,Condo/Co-op,6621 N Columbia Way #4,Portland,OR,97203,269900,3.0,1.5,1017.0,,1999.0,300.0,http://www.redfin.com/OR/Portland/6621-N-Columbia-Way-97203/unit-4/home/26577015,45.5935755,-122.73094420000001
12,Condo/Co-op,6744 N Pittsburg Ave,Portland,OR,97203,320000,2.0,1.5,1007.0,,2007.0,360.0,http://www.redfin.com/OR/Portland/6744-N-Pittsburg-Ave-97203/home/26445881,45.5868404,-122.7585557
13,Townhouse,6917 N Newcastle Ave,Portland,OR,97217,575000,4.0,2.5,2304.0,2613.0,2010.0,,http://www.redfin.com/OR/Portland/6917-N-Newcastle-Ave-97217/home/25838891,45.572795299999996,-122.69016640000001
14,Townhouse,1612 SE Clatsop St,Portland,OR,97202,749900,3.0,2.5,2440.0,2613.0,2016.0,,http://www.redfin.com/OR/Portland/1612-SE-Clatsop-St-97202/home/101096363,45.4606044,-122.6486176
15,Condo/Co-op,1926 W Burnside St #1108,Portland,OR,97209,315000,1.0,1.0,718.0,,2006.0,306.0,http://www.redfin.com/OR/Portland/1926-W-Burnside-St-97209/unit-1108/home/25742860,45.522831599999996,-122.6908851
16,Single Family Residential,4000 SW View Point Ter,Portland,OR,97239,549900,4.0,2.0,2140.0,4791.0,1925.0,,http://www.redfin.com/OR/Portland/4000-SW-View-Point-Ter-97239/home/26507656,45.4942855,-122.67783829999999
17,Single Family Residential,11390 NW Odeon Ln,Portland,OR,97229,685000,3.0,2.5,2803.0,4356.0,2014.0,30.0,http://www.redfin.com/OR/Portland/11390-NW-Odeon-Ln-97229/home/56335592,45.53672529999999,-122.7936916
18,Condo/Co-op,1500 SW Skyline Blvd #19,Portland,OR,97221,249900,2.0,2.0,1152.0,,1966.0,474.0,http://www.redfin.com/OR/Portland/1500-SW-Skyline-Blvd-97221/unit-19/home/164548076,45.51206810000001,-122.7315935
19,Single Family Residential,2815 NE 66th Ave,Portland,OR,97213,669900,4.0,3.0,2688.0,7405.0,1927.0,,http://www.redfin.com/OR/Portland/2815-NE-66th-Ave-97213/home/25818092,45.5430806,-122.595624
20,Townhouse,2215 SE Trolley Line Ln,Milwaukie,OR,97267,399900,4.0,2.5,1628.0,3484.0,2012.0,,http://www.redfin.com/OR/Milwaukie/2215-SE-Trolley-Line-Ln-97267/home/40268588,45.415484899999996,-122.64092120000001
21,Single Family Residential,8606 N Seward Ave,Portland,OR,97217,525000,4.0,2.0,2676.0,4791.0,1927.0,,http://www.redfin.com/OR/Portland/8606-N-Seward-Ave-97217/home/26607757,45.5848917,-122.70315120000001
22,Single Family Residential,151 Kingsgate Rd,Lake Oswego,OR,97035,499999,2.0,2.0,1585.0,4791.0,1981.0,88.0,http://www.redfin.com/OR/Lake-Oswego/151-Kingsgate-Rd-97035/home/26049304,45.4324396,-122.7293081
23,Single Family Residential,9918 SW 32nd Ave,Portland,OR,97219,662222,5.0,3.0,3511.0,9583.0,1967.0,,http://www.redfin.com/OR/Portland/9918-SW-32nd-Ave-97219/home/26310598,45.4535655,-122.7094067
24,Single Family Residential,8416 SE 146th Pl,Portland,OR,97236,564900,5.0,3.5,3954.0,7405.0,2007.0,38.0,http://www.redfin.com/OR/Portland/8416-SE-146th-Pl-97236/home/25749993,45.4623816,-122.51216570000001
25,Single Family Residential,15414 NW Energia St,Portland,OR,97229,545000,4.0,3.0,2232.0,6969.0,1996.0,,http://www.redfin.com/OR/Portland/15414-NW-Energia-St-97229/home/25739301,45.5606572,-122.83744420000001
26,Single Family Residential,4325 SE Tibbetts St,Portland,OR,97206,599900,3.0,1.0,3178.0,4791.0,1942.0,,http://www.redfin.com/OR/Portland/4325-SE-Tibbetts-St-97206/home/26425156,45.500782799999996,-122.617934
27,Single Family Residential,12215 SW Douglas St,Portland,OR,97225,485000,3.0,2.0,2179.0,10018.0,1948.0,10.0,http://www.redfin.com/OR/Portland/12215-SW-Douglas-St-97225/home/26727851,45.5045597,-122.80249769999999
28,Single Family Residential,7629 SW Hood Ave,Portland,OR,97219,880000,3.0,3.0,2456.0,5227.0,1990.0,,http://www.redfin.com/OR/Portland/7629-S-Hood-Ave-97219/home/25760392,45.4687321,-122.67467520000001
29,Townhouse,442 NE Bridgeton Rd,Portland,OR,97211,475000,3.0,3.5,2144.0,1306.0,1997.0,8.0,http://www.redfin.com/OR/Portland/442-NE-Bridgeton-Rd-97211/home/26549612,45.601608500000005,-122.6607422
30,Single Family Residential,9517 SW 53rd Ave,Portland,OR,97219,464900,4.0,2.5,1813.0,4791.0,1990.0,,http://www.redfin.com/OR/Portland/9517-SW-53rd-Ave-97219/home/26513065,45.4565528,-122.7316747
31,Single Family Residential,6393 SE Yamhill St,Portland,OR,97215,1295000,4.0,3.0,4426.0,14810.0,1971.0,,http://www.redfin.com/OR/Portland/6393-SE-Yamhill-St-97215/home/25761661,45.5165624,-122.5982564
32,Single Family Residential,11014 S Aventine Ave,Portland,OR,97219,975000,4.0,3.0,2964.0,12632.0,1941.0,,http://www.redfin.com/OR/Portland/11014-S-Aventine-Ave-97219/home/26616957,45.445802,-122.66395700000001
33,Condo/Co-op,3601 SW River Pkwy #1700,Portland,OR,97239,449000,2.0,1.0,1207.0,,2006.0,615.0,http://www.redfin.com/OR/Portland/3601-S-River-Pkwy-97239/unit-1700/home/26387293,45.4969581,-122.6703612
34,Condo/Co-op,104 Oswego Smt,Lake Oswego,OR,97035,195000,1.0,1.0,943.0,,1978.0,302.0,http://www.redfin.com/OR/Lake-Oswego/104-Oswego-Smt-97035/home/26461202,45.4357491,-122.71417659999999
35,Condo/Co-op,303 NW Uptown Ter Unit 1A,Portland,OR,97210,349000,1.0,1.0,637.0,,1990.0,233.0,http://www.redfin.com/OR/Portland/303-NW-Uptown-Ter-97210/unit-1A/home/26566101,45.524876299999995,-122.7022584
36,Condo/Co-op,1500 SW 5th Ave #906,Portland,OR,97201,419900,2.0,2.0,1319.0,,1973.0,663.0,http://www.redfin.com/OR/Portland/1500-SW-5th-Ave-97201/unit-906/home/25793868,45.5131095,-122.68021159999999
37,Single Family Residential,16570 SE Anna Eve Dr,Milwaukie,OR,97267,599995,5.0,2.5,2911.0,8276.0,2003.0,25.0,http://www.redfin.com/OR/Milwaukie/16570-SE-Anna-Eve-Dr-97267/home/26047825,45.402091399999996,-122.6015402
38,Single Family Residential,1822 SE 77th Ave,Portland,OR,97215,399900,3.0,1.0,1149.0,6969.0,1950.0,,http://www.redfin.com/OR/Portland/1822-SE-77th-Ave-97215/home/26298216,45.5097814,-122.58349579999998
39,Townhouse,10270 SW Windwood Way,Portland,OR,97225,532000,2.0,2.5,2082.0,1306.0,2005.0,312.0,http://www.redfin.com/OR/Portland/10270-SW-Windwood-Way-97225/home/26670789,45.514593,-122.782598
40,Vacant Land,NW Blue Sky Ln,Portland,OR,97229,250000,,,,6098.0,,21.0,http://www.redfin.com/OR/PORTLAND/NW-BLUE-SKY-LN-97229/home/144384597,45.544715999999994,-122.76933899999999
41,Single Family Residential,3290 NW Blue Sky Ln,Portland,OR,97229,875000,4.0,3.5,4026.0,6098.0,2019.0,21.0,http://www.redfin.com/OR/Portland/3290-NW-Blue-Sky-Ln-97229/home/144384589,45.545437,-122.76858600000001
42,Single Family Residential,3268 NW Blue Sky Ln,Portland,OR,97229,925000,4.0,3.5,3684.0,6534.0,2019.0,21.0,http://www.redfin.com/OR/Portland/3268-NW-Blue-Sky-Ln-97229/home/144384591,45.545275,-122.76868799999998
43,Single Family Residential,10826 NW Claire Ct,Portland,OR,97229,895000,5.0,3.5,4033.0,5662.0,2015.0,37.0,http://www.redfin.com/OR/Portland/10826-NW-Claire-Ct-97229/home/74914204,45.537426,-122.7881939
44,Single Family Residential,13212 SW Hazelcrest Way,Tigard,OR,97224,584900,4.0,2.5,2817.0,4791.0,2014.0,62.0,http://www.redfin.com/OR/Tigard/13212-SW-Hazelcrest-Way-97224/home/65681463,45.410724200000004,-122.81272050000001
45,Single Family Residential,6254 SW Burlingame Ave Unit A,Portland,OR,97239,928800,4.0,3.5,3199.0,12196.0,1996.0,,http://www.redfin.com/OR/Portland/6254-SW-Burlingame-Ave-97239/unit-A/home/26296477,45.4790136,-122.68921540000001
46,Single Family Residential,2823 SE Clinton St,Portland,OR,97202,715000,3.0,2.0,1964.0,2178.0,1907.0,,http://www.redfin.com/OR/Portland/2823-SE-Clinton-St-97202/home/26671700,45.5037276,-122.6370581
47,Single Family Residential,823 NE 199th Ave,Portland,OR,97230,395000,4.0,2.5,1948.0,6969.0,1980.0,,http://www.redfin.com/OR/Portland/823-NE-199th-Ave-97230/home/26506817,45.529074,-122.4581857
48,Multi-Family (2-4 Unit),6300 SE Windsor Ct,Portland,OR,97206,649950,4.0,4.0,2327.0,,2020.0,,http://www.redfin.com/OR/Portland/6300-SE-Windsor-Ct-97206/home/172448499,45.504483799999996,-122.59835159999999
49,Condo/Co-op,6645 W Burnside Rd #537,Portland,OR,97210,420000,2.0,2.0,1431.0,,1996.0,818.0,http://www.redfin.com/OR/Portland/6645-W-Burnside-Rd-97210/unit-537/home/26708656,45.519072200000004,-122.7461925
50,Single Family Residential,6120 SE Center St,Portland,OR,97206,329900,2.0,1.0,766.0,4791.0,1945.0,,http://www.redfin.com/OR/Portland/6120-SE-Center-St-97206/home/25828140,45.493601399999996,-122.5999827
51,Single Family Residential,4950 NE Halsey St,Portland,OR,97213,479000,3.0,1.0,1903.0,4791.0,1924.0,,http://www.redfin.com/OR/Portland/4950-NE-Halsey-St-97213/home/26626702,45.533525399999995,-122.61188500000002
52,Single Family Residential,6602 SE 62nd Ave,Portland,OR,97206,495000,3.0,1.0,879.0,10018.0,1953.0,,http://www.redfin.com/OR/Portland/6602-SE-62nd-Ave-97206/home/26398507,45.474870700000004,-122.59935630000001
53,Single Family Residential,6215 SE 49th Ave,Portland,OR,97206,425000,3.0,2.0,967.0,4791.0,1983.0,,http://www.redfin.com/OR/Portland/6215-SE-49th-Ave-97206/home/26601746,45.477408600000004,-122.61272209999998
54,Single Family Residential,2620 SE 68th Ave,Portland,OR,97206,550000,3.0,1.0,1163.0,6098.0,1956.0,,http://www.redfin.com/OR/Portland/2620-SE-68th-Ave-97206/home/26492527,45.5039523,-122.59338500000001
55,Single Family Residential,10149 NW Brady Ln,Portland,OR,97229,725000,5.0,3.5,3365.0,7840.0,2013.0,,http://www.redfin.com/OR/Portland/10149-NW-Brady-Ln-97229/home/52345225,45.5283711,-122.78143390000001
56,Single Family Residential,1009 SW Rivington Dr,Portland,OR,97201,2395000,3.0,2.5,4111.0,41817.0,1954.0,,http://www.redfin.com/OR/Portland/1009-SW-Rivington-Dr-97201/home/26424869,45.5080393,-122.6887531
57,Single Family Residential,12338 SE Harold St,Portland,OR,97236,419900,4.0,2.0,3106.0,13068.0,1966.0,,http://www.redfin.com/OR/Portland/12338-SE-Harold-St-97236/home/26434841,45.483075,-122.53601699999999
58,Condo/Co-op,1722 NW Riverscape St,Portland,OR,97209,634999,2.0,2.5,1615.0,,2011.0,353.0,http://www.redfin.com/OR/Portland/1722-NW-Riverscape-St-97209/home/40137382,45.538642200000005,-122.6883017
59,Single Family Residential,8421 N Bayard Ave,Portland,OR,97217,370000,2.0,1.0,1386.0,4791.0,1911.0,,http://www.redfin.com/OR/Portland/8421-N-Bayard-Ave-97217/home/26664520,45.58441129999999,-122.700704
60,Single Family Residential,15122 SE Harrison St,Portland,OR,97233,329900,3.0,1.5,1175.0,9147.0,1961.0,,http://www.redfin.com/OR/Portland/15122-SE-Harrison-St-97233/home/26551481,45.5086619,-122.50723329999998
61,Single Family Residential,10821 NE Fargo St,Portland,OR,97220,389900,4.0,2.0,1645.0,5662.0,1955.0,,http://www.redfin.com/OR/Portland/10821-NE-Fargo-St-97220/home/26550923,45.5457892,-122.5509919
62,Condo/Co-op,615 NW Lost Springs Ter #403,Portland,OR,97229,225000,1.0,1.0,703.0,,2008.0,310.0,http://www.redfin.com/OR/Portland/615-NW-Lost-Springs-Ter-97229/unit-403/home/25842237,45.5247295,-122.80106529999999
63,Condo/Co-op,930 NW Naito Pkwy Unit K-21,Portland,OR,97209,375000,2.0,2.0,1081.0,,1982.0,549.0,http://www.redfin.com/OR/Portland/930-NW-Naito-Pkwy-97209/unit-K21/home/26622235,45.5302363,-122.6748045
64,Single Family Residential,14756 SW Mulberry Dr,Tigard,OR,97224,499900,4.0,3.0,2413.0,5227.0,2011.0,25.0,http://www.redfin.com/OR/Portland/14756-SW-Mulberry-Dr-97224/home/26736711,45.402131700000005,-122.8288044
65,Single Family Residential,15373 SW 141st Ave,Portland,OR,97224,599000,5.0,3.0,3403.0,9147.0,2001.0,,http://www.redfin.com/OR/Portland/15373-SW-141st-Ave-97224/home/25749833,45.408969799999994,-122.8228717
66,Mobile/Manufactured Home,5615 SE Aldercrest Rd,Milwaukie,OR,97222,350000,3.0,2.0,1492.0,14374.0,1997.0,,http://www.redfin.com/OR/Milwaukie/5615-SE-Aldercrest-Rd-97222/home/26022293,45.4215147,-122.6044893
67,Townhouse,6419 N Montana Ave,Portland,OR,97217,389900,2.0,2.5,1143.0,5662.0,2020.0,209.0,http://www.redfin.com/OR/Portland/6419-N-Montana-Ave-97217/home/172665423,45.5694237,-122.6803675
68,Single Family Residential,3507 NE Glisan St,Portland,OR,97232,755000,4.0,2.5,2331.0,4791.0,1928.0,,http://www.redfin.com/OR/Portland/3507-NE-Glisan-St-97232/home/26583519,45.5266321,-122.6278112
69,Multi-Family (2-4 Unit),3607 SE 8th Ave,Portland,OR,97202,675000,6.0,2.0,4602.0,,1951.0,,http://www.redfin.com/OR/Portland/3607-SE-8th-Ave-97202/home/26573382,45.4967766,-122.6581547
70,Single Family Residential,12 Walking Woods Dr,Lake Oswego,OR,97035,568000,3.0,3.0,2177.0,8712.0,1979.0,88.0,http://www.redfin.com/OR/Lake-Oswego/12-Walking-Woods-Dr-97035/home/26489044,45.43773710000001,-122.7154995
71,Single Family Residential,322 NE 108th Ave,Portland,OR,97220,325000,2.0,1.0,1052.0,7405.0,1952.0,,http://www.redfin.com/OR/Portland/322-NE-108th-Ave-97220/home/25735294,45.5248033,-122.5521728
72,Condo/Co-op,708 NW Westover Ter,Portland,OR,97210,750000,3.0,2.5,2750.0,,1980.0,1436.0,http://www.redfin.com/OR/Portland/708-NW-Westover-Ter-97210/home/26562361,45.527587,-122.70391869999999
73,Condo/Co-op,11651 SE Fuller Rd #201,Milwaukie,OR,97222,178500,2.0,1.0,731.0,,2000.0,320.0,http://www.redfin.com/OR/Milwaukie/11651-SE-Fuller-Rd-97222/unit-201/home/172664985,45.4382189,-122.584399
74,Condo/Co-op,7716 SW Barnes Rd Unit C,Portland,OR,97225,205000,1.0,1.0,591.0,,1977.0,293.0,http://www.redfin.com/OR/Portland/7716-SW-Barnes-Rd-97225/unit-C/home/26580914,45.508005,-122.75678740000001
75,Condo/Co-op,4610 SW Comus Pl,Portland,OR,97219,215000,2.0,2.0,998.0,,1979.0,397.0,http://www.redfin.com/OR/Portland/4610-SW-Comus-Pl-97219/unit-4-E/home/26539068,45.446473700000006,-122.7237754
76,Vacant Land,9400 SE Hollywood Ave,Milwaukie,OR,97222,234900,,,,6969.0,,,http://www.redfin.com/OR/Milwaukie/9400-SE-Hollywood-Ave-97222/home/25968565,45.454962,-122.60229199999999
77,Single Family Residential,16905 NE Couch Ct,Portland,OR,97230,357000,3.0,1.0,1410.0,10018.0,1958.0,,http://www.redfin.com/OR/Portland/16905-NE-Couch-Ct-97230/home/26315324,45.5232964,-122.4889875
78,Single Family Residential,3935 SE Rex St,Portland,OR,97202,495947,3.0,2.0,1848.0,7405.0,1954.0,,http://www.redfin.com/OR/Portland/3935-SE-Rex-St-97202/home/26535834,45.46858710000001,-122.6219527
79,Single Family Residential,3229 NE 67th Ave,Portland,OR,97213,499900,3.0,1.0,2047.0,4791.0,1910.0,,http://www.redfin.com/OR/Portland/3229-NE-67th-Ave-97213/home/26550832,45.5467004,-122.5945851
80,Single Family Residential,805 NE 195th Ave,Portland,OR,97230,379900,3.0,2.5,1740.0,7840.0,1973.0,,http://www.redfin.com/OR/Portland/805-NE-195th-Ave-97230/home/26511332,45.5286584,-122.4624611
81,Townhouse,3218 NE 81st Ave,Portland,OR,97213,307000,3.0,2.0,1218.0,4791.0,1989.0,,http://www.redfin.com/OR/Portland/3218-NE-81st-Ave-97213/home/26471480,45.5456467,-122.5794925
82,Single Family Residential,3212 SE 170th Ave,Portland,OR,97236,319900,3.0,1.0,910.0,7405.0,1962.0,,http://www.redfin.com/OR/Portland/3212-SE-170th-Ave-97236/home/26478631,45.499467100000004,-122.48753300000001
83,Single Family Residential,16626 SE Lillian Way,Portland,OR,97236,529500,4.0,2.5,2584.0,11761.0,1991.0,,http://www.redfin.com/OR/Portland/16626-SE-Lillian-Way-97236/home/26485302,45.49062,-122.49187250000001
84,Single Family Residential,5030 SW Cameron Rd,Portland,OR,97221,599000,6.0,3.5,2866.0,11325.0,1968.0,,http://www.redfin.com/OR/Portland/5030-SW-Cameron-Rd-97221/home/26337594,45.4832769,-122.7291541
85,Single Family Residential,6675 SW Raleighview Ct,Portland,OR,97225,675000,4.0,2.5,2319.0,11325.0,1974.0,,http://www.redfin.com/OR/Portland/6675-SW-Raleighview-Ct-97225/home/26727841,45.498646,-122.7455125
86,Single Family Residential,7943 NW Royalfern Pl,Portland,OR,97229,569995,5.0,3.5,3008.0,5227.0,2017.0,50.0,http://www.redfin.com/OR/Portland/7943-NW-Royalfern-Pl-97229/home/112840696,45.5771567,-122.85565729999999
87,Condo/Co-op,4460 SW Scholls Ferry Rd #2,Portland,OR,97225,239900,2.0,2.0,1305.0,,1961.0,414.0,http://www.redfin.com/OR/Portland/4460-SW-Scholls-Ferry-Rd-97225/unit-2/home/101710428,45.4882658,-122.74511770000001
88,Single Family Residential,12812 SE Center St,Portland,OR,97236,399000,3.0,2.0,2000.0,6969.0,1960.0,,http://www.redfin.com/OR/Portland/12812-SE-Center-St-97236/home/26577065,45.4931021,-122.53184850000001
89,Single Family Residential,6535 SE Ketchum St,Milwaukie,OR,97267,615000,3.0,2.0,2161.0,7840.0,2015.0,26.0,http://www.redfin.com/OR/Milwaukie/6535-SE-Ketchum-St-97267/home/101100780,45.4207518,-122.5962358
90,Condo/Co-op,821 NE 90th Ave,Portland,OR,97220,239900,2.0,1.5,1248.0,,1976.0,383.0,http://www.redfin.com/OR/Portland/821-NE-90th-Ave-97220/home/26519438,45.528690999999995,-122.57222040000002
91,Single Family Residential,528 NE 92nd Ave,Portland,OR,97220,419900,3.0,2.0,1533.0,2178.0,2004.0,,http://www.redfin.com/OR/Portland/528-NE-92nd-Ave-97220/home/26536847,45.5268459,-122.56834909999999
92,Single Family Residential,6117 SE Francis St,Portland,OR,97206,675000,4.0,2.5,4235.0,4791.0,2010.0,,http://www.redfin.com/OR/Portland/6117-SE-Francis-St-97206/home/25859131,45.4946608,-122.59997539999999
93,Single Family Residential,2749 SW Bucharest Ct,Portland,OR,97225,750000,4.0,2.5,2705.0,11325.0,1977.0,,http://www.redfin.com/OR/Portland/2749-SW-Bucharest-Ct-97225/home/26556250,45.5030842,-122.74398059999999
94,Multi-Family (2-4 Unit),2904 SE 28th Ave,Portland,OR,97202,769500,5.0,4.0,4184.0,,1948.0,,http://www.redfin.com/OR/Portland/2904-SE-28th-Ave-97202/home/26648559,45.5017297,-122.6373597
95,Single Family Residential,532 NE 155th Ave,Portland,OR,97230,513000,3.0,2.5,2365.0,5227.0,2000.0,,http://www.redfin.com/OR/Portland/532-NE-155th-Ave-97230/home/25771227,45.5272564,-122.5033645
96,Multi-Family (2-4 Unit),5728 N Williams Ave,Portland,OR,97217,849900,5.0,3.0,3363.0,,1909.0,,http://www.redfin.com/OR/Portland/5728-N-Williams-Ave-97217/home/26504643,45.564363,-122.66657350000001
97,Single Family Residential,7810 SW Pitic Ln,Portland,OR,97223-9378,417500,3.0,1.0,960.0,11761.0,1971.0,,http://www.redfin.com/OR/Portland/7810-SW-Pitic-Ln-97223/home/26629305,45.4633524,-122.75446310000001
98,Single Family Residential,6420 SE 89th Ave,Portland,OR,97266,389000,3.0,1.5,1256.0,4356.0,1972.0,,http://www.redfin.com/OR/Portland/6420-SE-89th-Ave-97266/home/26511273,45.4762208,-122.57137639999999
99,Single Family Residential,2144 NE 78th Ave,Portland,OR,97213,399900,2.0,1.0,1082.0,4791.0,1947.0,,http://www.redfin.com/OR/Portland/2144-NE-78th-Ave-97213/home/26655982,45.537977000000005,-122.58279270000001
100,Single Family Residential,10575 SE Liebe St,Portland,OR,97266,399900,3.0,2.5,1493.0,3484.0,2020.0,,http://www.redfin.com/OR/Portland/10575-SE-Liebe-St-97266/home/170024356,45.486781,-122.554055
101,Single Family Residential,2796 SW Montgomery Dr,Portland,OR,97201,1124900,5.0,5.0,3802.0,4791.0,1910.0,,http://www.redfin.com/OR/Portland/2796-SW-Montgomery-Dr-97201/home/26397475,45.503289200000005,-122.70547590000001
102,Single Family Residential,12233 SE Gladstone St,Portland,OR,97236,349900,3.0,2.5,1317.0,4356.0,1999.0,,http://www.redfin.com/OR/Portland/12233-SE-Gladstone-St-97236/home/25775550,45.4926615,-122.53644640000002
103,Single Family Residential,2218 SE 130th Ave,Portland,OR,97233,384500,4.0,2.5,1495.0,4356.0,1996.0,,http://www.redfin.com/OR/Portland/2218-SE-130th-Ave-97233/home/26531649,45.50671129999999,-122.5290635
104,Single Family Residential,2035 SE 72nd Ave,Portland,OR,97215,599900,3.0,2.0,2723.0,9147.0,1952.0,,http://www.redfin.com/OR/Portland/2035-SE-72nd-Ave-97215/home/26598136,45.5084804,-122.58914140000002
105,Single Family Residential,7236 N Concord Ave,Portland,OR,97217,510000,3.0,2.0,2309.0,4791.0,1929.0,,http://www.redfin.com/OR/Portland/7236-N-Concord-Ave-97217/home/25775260,45.575863500000004,-122.6839564
106,Single Family Residential,315 NE 76th Ave,Portland,OR,97213,349900,2.0,1.0,1752.0,4791.0,1908.0,,http://www.redfin.com/OR/Portland/315-NE-76th-Ave-97213/home/26412509,45.5248923,-122.5850446
107,Single Family Residential,6715 SW 55th Ave,Portland,OR,97219,490000,4.0,2.0,1534.0,7840.0,1959.0,,http://www.redfin.com/OR/Portland/6715-SW-55th-Ave-97219/home/26316577,45.476136100000005,-122.7337351
108,Single Family Residential,9316 N Mohawk Ave,Portland,OR,97203,389900,3.0,2.0,897.0,4791.0,1981.0,,http://www.redfin.com/OR/Portland/9316-N-Mohawk-Ave-97203/home/26565192,45.593915100000004,-122.7456862
109,Townhouse,2004 SW Madison St Unit A,Portland,OR,97205,1200000,3.0,4.5,3210.0,1742.0,2016.0,,http://www.redfin.com/OR/Portland/2004-SW-Madison-St-97205/unit-A/home/55662724,45.519110999999995,-122.694584
110,Single Family Residential,3244 NE 45th Ave,Portland,OR,97213,1150000,5.0,3.0,3134.0,4791.0,1928.0,,http://www.redfin.com/OR/Portland/3244-NE-45th-Ave-97213/home/26473691,45.5467792,-122.6164457
111,Condo/Co-op,5715 NE Sacramento St #9,Portland,OR,97213,299000,2.0,2.0,875.0,,1968.0,307.0,http://www.redfin.com/OR/Portland/5715-NE-Sacramento-St-97213/unit-9/home/25788037,45.5401114,-122.6043785
112,Single Family Residential,819 SE 179th Ave,Portland,OR,97233,349900,3.0,2.5,2090.0,6969.0,1958.0,,http://www.redfin.com/OR/Portland/819-SE-179th-Ave-97233/home/25764333,45.5166369,-122.47909299999999
113,Single Family Residential,15934 SE Flavel Dr,Portland,OR,97236,455000,3.0,3.0,2294.0,6534.0,1999.0,33.0,http://www.redfin.com/OR/Portland/15934-SE-Flavel-Dr-97236/home/26527565,45.469282799999995,-122.49745130000001
114,Single Family Residential,4010 SW Vacuna St,Portland,OR,97219,540000,4.0,3.0,2050.0,10018.0,1988.0,,http://www.redfin.com/OR/Portland/4010-SW-Vacuna-St-97219/home/26399453,45.4416191,-122.7183622
115,Single Family Residential,12110 SE Boise St,Portland,OR,97266,270000,3.0,1.5,1006.0,4791.0,1955.0,,http://www.redfin.com/OR/Portland/12110-SE-Boise-St-97266/home/25795547,45.491884999999996,-122.53849509999999
116,Single Family Residential,821 SW Palatine St,Portland,OR,97219,829000,4.0,2.5,3776.0,20473.0,1941.0,,http://www.redfin.com/OR/Portland/821-SW-Palatine-St-97219/home/26454870,45.4449552,-122.68687460000001
117,Condo/Co-op,14819 NE Sacramento St #106,Portland,OR,97230,239900,2.0,2.0,1128.0,,1989.0,250.0,http://www.redfin.com/OR/Portland/14819-NE-Sacramento-St-97230/unit-106/home/26388197,45.541281,-122.50953100000001
118,Condo/Co-op,311 NW 12th Ave #1601,Portland,OR,97209,7000000,4.0,4.5,4500.0,,2007.0,3306.0,http://www.redfin.com/OR/Portland/311-NW-12th-Ave-97209/unit-1601/home/25836714,45.5253552,-122.68362509999999
119,Single Family Residential,4818 Barbara Lynn Way,Milwaukie,OR,97222,639955,3.0,3.0,2437.0,7840.0,2020.0,,http://www.redfin.com/OR/Portland/4818-Barbara-Lynn-WAY-97222/home/170955236,45.43059,-122.614101
120,Single Family Residential,355 NW 95th Ave,Portland,OR,97229,679000,5.0,3.0,3134.0,15245.0,1971.0,,http://www.redfin.com/OR/Portland/355-NW-95th-Ave-97229/home/26592037,45.5220575,-122.7763223
121,Vacant Land,23 NE 151st Ave,Portland,OR,97230,499000,,,,43560.0,,,http://www.redfin.com/OR/Portland/23-NE-151st-Ave-97230/home/26348956,45.522969,-122.508576
122,Single Family Residential,9110 SW 57th Ave,Portland,OR,97219,530000,4.0,3.0,1874.0,13503.0,1976.0,,http://www.redfin.com/OR/Portland/9110-SW-57th-Ave-97219/home/26462824,45.4595806,-122.734646
123,Single Family Residential,1739 SE Lexington St,Portland,OR,97202,699950,3.0,2.0,2438.0,4791.0,1915.0,,http://www.redfin.com/OR/Portland/1739-SE-Lexington-St-97202/home/25844876,45.467200299999995,-122.6461537
124,Condo/Co-op,255 SW Harrison St Unit 10G,Portland,OR,97201,249900,1.0,1.0,600.0,,1965.0,504.0,http://www.redfin.com/OR/Portland/255-SW-Harrison-St-97201/unit-10G/home/26604329,45.5104389,-122.6793503
125,Single Family Residential,6220 NE 42nd Ave,Portland,OR,97218,425000,3.0,1.0,1856.0,4791.0,1928.0,,http://www.redfin.com/OR/Portland/6220-NE-42nd-Ave-97218/home/26604310,45.568021,-122.62018429999999
126,Single Family Residential,5125 NE 22nd Ave,Portland,OR,97211,710000,3.0,2.0,2452.0,4791.0,1910.0,,http://www.redfin.com/OR/Portland/5125-NE-22nd-Ave-97211/unit-A/home/26551915,45.5600283,-122.6431311
127,Single Family Residential,8024 N Chautauqua Blvd,Portland,OR,97217,405000,3.0,2.5,1376.0,5662.0,1998.0,,http://www.redfin.com/OR/Portland/8024-N-Chautauqua-Blvd-97217/home/26463224,45.5817289,-122.7076182
128,Single Family Residential,5113 N Vanderbilt St,Portland,OR,97203,715000,5.0,3.0,3000.0,6098.0,1915.0,,http://www.redfin.com/OR/Portland/5113-N-Vanderbilt-St-97203/home/26496586,45.582248799999995,-122.72022920000002
129,Condo/Co-op,420 NW 11th Ave #1105,Portland,OR,97209,795000,1.0,1.5,1451.0,,2001.0,653.0,http://www.redfin.com/OR/Portland/420-NW-11th-Ave-97209/unit-1105/home/25740484,45.5263786,-122.68170220000002
130,Multi-Family (2-4 Unit),,Portland,OR,97211,600000,,,,,1910.0,,http://www.redfin.com/OR/Portland/Undisclosed-address-97211/home/146503225,45.5589071,-122.64715430000001
131,Multi-Family (5+ Unit),2417 SE Ankeny St,Portland,OR,97214,2800000,7.0,11.0,6590.0,,2018.0,,http://www.redfin.com/OR/Portland/2417-SE-Ankeny-St-97214/home/167707247,45.522225899999995,-122.6409598
132,Townhouse,7417 SW Pine St,Portland,OR,97223,499900,5.0,4.0,3669.0,17859.0,1950.0,,http://www.redfin.com/OR/Portland/7417-SW-Pine-St-97223/home/26630055,45.4435624,-122.75382090000001
133,Townhouse,9615 NW Silver Ridge Loop,Portland,OR,97229,459900,3.0,2.5,1694.0,3049.0,1994.0,539.0,http://www.redfin.com/OR/Portland/9615-NW-Silver-Ridge-Loop-97229/home/26459953,45.538513099999996,-122.77667029999999
134,Condo/Co-op,1926 W Burnside St #1404,Portland,OR,97209,345000,1.0,1.0,698.0,,2006.0,274.0,http://www.redfin.com/OR/Portland/1926-W-Burnside-St-97209/unit-1404/home/25743652,45.5227698,-122.69075959999999
135,Single Family Residential,6273 N Fessenden St,Portland,OR,97203,389000,3.0,2.5,1474.0,,2020.0,,http://www.redfin.com/OR/Portland/6273-N-Fessenden-St-97203/home/172660415,45.592367100000004,-122.7296822
136,Single Family Residential,6265 N Fessenden St,Portland,OR,97203,389000,3.0,2.5,1474.0,,2020.0,,http://www.redfin.com/OR/Portland/6265-N-Fessenden-St-97203/home/26302568,45.592357,-122.72981599999999
137,Single Family Residential,10938 SW 62nd Pl,Portland,OR,97219,399000,3.0,1.5,1126.0,5227.0,1976.0,,http://www.redfin.com/OR/Portland/10938-SW-62nd-Pl-97219/home/26457724,45.4463164,-122.7402767
138,Single Family Residential,6111 SE Clatsop St,Portland,OR,97206,351000,2.0,1.0,750.0,6098.0,1952.0,,http://www.redfin.com/OR/Portland/6111-SE-Clatsop-St-97206/home/26439402,45.4616665,-122.6003615
139,Condo/Co-op,2601 NW Raleigh St #10,Portland,OR,97210,275000,1.0,1.0,629.0,,1927.0,200.0,http://www.redfin.com/OR/Portland/2601-NW-Raleigh-St-97210/unit-10/home/26587991,45.5342551,-122.7052249
140,Condo/Co-op,920 NW Naito Pkwy Unit J20,Portland,OR,97209,334900,1.0,1.0,1742.0,,1982.0,426.0,http://www.redfin.com/OR/Portland/920-NW-Naito-Pkwy-97209/unit-J20/home/26440975,45.5300176,-122.67453359999999
141,Condo/Co-op,1015 NW 11th Ave #242,Portland,OR,97209,575000,0.0,1.0,1113.0,,2001.0,575.0,http://www.redfin.com/OR/Portland/1015-NW-11th-Ave-97209/unit-242/home/143132691,45.5302295,-122.68261399999999
142,Single Family Residential,10600 NW Flotoma Dr,Portland,OR,97229,449500,3.0,2.0,1458.0,10454.0,1966.0,,http://www.redfin.com/OR/Portland/10600-NW-Flotoma-Dr-97229/home/26615158,45.522161100000005,-122.78551850000001
143,Single Family Residential,6435 SE 22nd Ave,Portland,OR,97202,575000,4.0,2.0,2582.0,5662.0,1918.0,,http://www.redfin.com/OR/Portland/6435-SE-22nd-Ave-97202/home/26337476,45.4765394,-122.64339380000001
144,Single Family Residential,12021 NW Mcnamee Rd,Portland,OR,97231,750000,3.0,2.0,2396.0,374616.0,1956.0,,http://www.redfin.com/OR/Portland/12021-NW-McNamee-Rd-97231/home/165789002,45.609981,-122.83320400000001
145,Single Family Residential,3233 SE 31st Ave,Portland,OR,97202,875000,4.0,3.5,2668.0,2613.0,2017.0,,http://www.redfin.com/OR/Portland/3233a-SE-31st-Ave-97202/unit-A/home/113029165,45.499379,-122.6337305
146,Multi-Family (2-4 Unit),15704 NE Milton Pl,Portland,OR,97230,463000,6.0,6.0,1276.0,,2000.0,,http://www.redfin.com/OR/Portland/15704-NE-Milton-Pl-97230/home/26563274,45.5483831,-122.50136529999999
147,Single Family Residential,3322 NW 147th Pl,Portland,OR,97229,779000,4.0,2.5,,6098.0,,,http://www.redfin.com/OR/Portland/3322-NW-147th-Pl-97229/home/170145311,45.543782,-122.828629
148,Single Family Residential,3737 SW Humphrey Blvd,Portland,OR,97221,2295000,5.0,3.5,4102.0,280962.0,1956.0,,http://www.redfin.com/OR/Portland/3737-SW-Humphrey-Blvd-97221/home/26370086,45.5040362,-122.71582
149,Single Family Residential,1413 SE Birch St,Portland,OR,97214,487000,2.0,1.0,1808.0,3484.0,1924.0,,http://www.redfin.com/OR/Portland/1413-SE-Birch-St-97214/home/26548662,45.5068239,-122.650893
150,Townhouse,17140 SE Juliano Ct,Portland,OR,97236,279400,3.0,2.5,1184.0,1742.0,2004.0,,http://www.redfin.com/OR/Portland/17140-SE-Juliano-Ct-97236/home/26551602,45.50323529999999,-122.48613970000001
151,Condo/Co-op,1535 SW Clay St #136,Portland,OR,97201,315000,2.0,2.0,830.0,,1982.0,343.0,http://www.redfin.com/OR/Portland/1535-SW-Clay-St-97201/unit-136/home/26610596,45.516498600000006,-122.69053500000001
152,Condo/Co-op,1710 S Harbor Way #201,Portland,OR,97201,329000,1.0,1.0,811.0,,1986.0,523.0,http://www.redfin.com/OR/Portland/1710-S-Harbor-Way-97201/unit-201/home/26575634,45.5101494,-122.67411409999998
153,Single Family Residential,4938 N Princeton St,Portland,OR,97203,819995,4.0,3.5,3000.0,5662.0,2012.0,,http://www.redfin.com/OR/Portland/4938-N-Princeton-St-97203/home/40221734,45.5772408,-122.7227064
154,Condo/Co-op,1030 NW 12th Ave #312,Portland,OR,97209,369000,1.0,1.0,748.0,,2001.0,370.0,http://www.redfin.com/OR/Portland/1030-NW-12th-Ave-97209/unit-312/home/26607445,45.5302626,-122.68301340000001
155,Single Family Residential,14132 SE Fircrest Ct,Portland,OR,97236,549000,4.0,3.0,3201.0,10454.0,2002.0,15.0,http://www.redfin.com/OR/Portland/14132-SE-Fircrest-Ct-97236/home/25736982,45.4651828,-122.51778490000001
156,Single Family Residential,5405 SE 41st Ave,Portland,OR,97202,749500,5.0,4.0,3478.0,5662.0,1949.0,,http://www.redfin.com/OR/Portland/5405-SE-41st-Ave-97202/unit-A/home/26430548,45.4837276,-122.62081059999998
157,Single Family Residential,3900 NE 35th Pl,Portland,OR,97212,1100000,3.0,2.5,3000.0,5227.0,1928.0,,http://www.redfin.com/OR/Portland/3900-NE-35th-Pl-97212/home/26505301,45.550962,-122.62734099999999
158,Single Family Residential,8534 NE Holladay St,Portland,OR,97220,379900,3.0,2.0,1319.0,2613.0,2004.0,,http://www.redfin.com/OR/Portland/8534-NE-Holladay-St-97220/home/26552223,45.529979100000006,-122.5747471
159,Single Family Residential,1221 SE 80th Ave,Portland,OR,97215,425000,3.0,2.0,1704.0,4791.0,1951.0,,http://www.redfin.com/OR/Portland/1221-SE-80th-Ave-97215/home/26586038,45.5139881,-122.5816713
160,Single Family Residential,8331 SE Raymond Ct,Portland,OR,97266,369000,2.0,1.0,1149.0,,1951.0,,http://www.redfin.com/OR/Portland/8331-SE-Raymond-Ct-97266/home/26318167,45.4859876,-122.5771216
161,Single Family Residential,3653 SE Gladstone St,Portland,OR,97202,689900,6.0,3.0,3062.0,4791.0,1912.0,,http://www.redfin.com/OR/Portland/3653-SE-Gladstone-St-97202/home/26507788,45.4935522,-122.62538899999998
162,Condo/Co-op,730 SE Fairwinds Loop,Vancouver,WA,98661,365000,3.0,2.0,1324.0,,2001.0,237.0,http://www.redfin.com/WA/Vancouver/730-SE-Fairwinds-Loop-98661/unit-730/home/169139770,45.615925,-122.6529175
163,Vacant Land,4775 SW Beaverton Hillsdale Hwy,Portland,OR,97221,199000,,,,19602.0,,,http://www.redfin.com/OR/Portland/4775-SW-Beaverton-Hillsdale-Hwy-97221/home/172654278,45.4865995,-122.72598329999998
164,Single Family Residential,5956 NE Tillamook St,Portland,OR,97213,650000,4.0,2.5,2161.0,2613.0,2016.0,,http://www.redfin.com/OR/Portland/5956-NE-Tillamook-St-97213/home/65636313,45.5375102,-122.6019865
165,Single Family Residential,7430 SE 50th Ave,Portland,OR,97206,410888,3.0,2.0,1176.0,6098.0,1993.0,,http://www.redfin.com/OR/Portland/7430-SE-50th-Ave-97206/home/25752622,45.4692455,-122.611686
166,Condo/Co-op,12332 SE Holgate Blvd,Portland,OR,97236,288950,4.0,2.5,1667.0,,2008.0,230.0,http://www.redfin.com/OR/Portland/12332-SE-Holgate-Blvd-97236/home/25754387,45.4894485,-122.53608510000001
167,Condo/Co-op,908 SW Gaines St #24,Portland,OR,97239,244000,2.0,1.0,817.0,,1960.0,433.0,http://www.redfin.com/OR/Portland/908-S-Gaines-St-97239/unit-24/home/26657182,45.4965444,-122.68953219999999
168,Vacant Land,SW View Point Ter,Portland,OR,97239,350000,,,,4791.0,,,http://www.redfin.com/OR/PORTLAND/SW-VIEW-POINT-TER-97239/home/26535754,45.485486,-122.67744099999999
169,Single Family Residential,4619 NW Barnes Rd,Portland,OR,97210,1225000,3.0,3.0,2502.0,28749.0,1958.0,,http://www.redfin.com/OR/Portland/4619-NW-Barnes-Rd-97210/home/26614755,45.5217655,-122.72448030000001
170,Single Family Residential,2615 SE 43rd Ave,Portland,OR,97206,600000,3.0,1.5,2790.0,3920.0,1915.0,,http://www.redfin.com/OR/Portland/2615-SE-43rd-Ave-97206/home/26448856,45.5037102,-122.6182822
171,Unknown,199th And E Burnside St,Gresham,OR,97233,100000,,,,8712.0,,,http://www.redfin.com/OR/Gresham/Unknown-97030/home/143161873,45.515995000000004,-122.45878
172,Single Family Residential,5521 SE Hillwood Cir,Milwaukie,OR,97267,434900,3.0,2.5,2428.0,10018.0,1976.0,,http://www.redfin.com/OR/Milwaukie/5521-SE-Hillwood-Cir-97267/home/25983503,45.409130299999994,-122.6063075
173,Townhouse,7357 N Villard Ave,Portland,OR,97217,379000,2.0,2.5,1095.0,,2020.0,169.0,http://www.redfin.com/OR/Portland/7357-N-Villard-Ave-97217/home/172651520,45.576475099999996,-122.6978271
174,Other,6901 SE Oaks Park Way Unit E,Portland,OR,97202,550000,2.0,1.0,1232.0,,1974.0,526.0,http://www.redfin.com/OR/Portland/6901-SE-Oaks-Park-Way-97202/unit-E/home/53588837,45.4743689,-122.6623075
175,Single Family Residential,6462 SW Loop Dr,Portland,OR,97221,600000,3.0,2.5,2884.0,7405.0,1954.0,,http://www.redfin.com/OR/Portland/6462-SW-Loop-Dr-97221/home/26427596,45.4780472,-122.72228999999999
176,Single Family Residential,3335 SE 164th Ave,Portland,OR,97236,385000,3.0,1.5,2608.0,,1925.0,,http://www.redfin.com/OR/Portland/3335-SE-164th-Ave-97236/home/26435882,45.4983342,-122.4953436
177,Townhouse,3928 SE 34th Ave,Portland,OR,97202,625000,3.0,2.5,2503.0,2613.0,2016.0,,http://www.redfin.com/OR/Portland/3928-SE-34th-Ave-97202/home/49690100,45.494314700000004,-122.62949509999999
178,Townhouse,176 N Going St,Portland,OR,97217,689950,3.0,3.5,1912.0,1306.0,2020.0,,http://www.redfin.com/OR/Portland/176-N-Going-St-97217/home/170025306,45.5562348,-122.6678138
179,Single Family Residential,6958 SE 117th Pl,Portland,OR,97266,630000,4.0,3.5,3935.0,14374.0,2016.0,,http://www.redfin.com/OR/Portland/6958-SE-117th-Pl-97266/home/49680807,45.4720653,-122.5414706
180,Single Family Residential,15040 SE Bush St,Portland,OR,97236,389500,5.0,2.5,2230.0,10018.0,1968.0,,http://www.redfin.com/OR/Portland/15040-SE-Bush-St-97236/home/26335258,45.495069,-122.5077848
181,Single Family Residential,4535 NE 109th Ave,Portland,OR,97220,475000,4.0,2.0,2442.0,9147.0,1920.0,,http://www.redfin.com/OR/Portland/4535-NE-109th-Ave-97220/home/26414593,45.55607070000001,-122.55109099999999
182,Single Family Residential,3947 NE Rodney Ave,Portland,OR,97212,899000,5.0,3.0,3208.0,10018.0,1912.0,,http://www.redfin.com/OR/Portland/3947-NE-Rodney-Ave-97212/home/26544404,45.5514753,-122.66495069999999
183,Mobile/Manufactured Home,17111 SW Eldorado Dr,Tigard,OR,97224,85000,2.0,2.0,1440.0,,1975.0,,http://www.redfin.com/OR/Tigard/17111-SW-Eldorado-Dr-97224/home/26597184,45.395486,-122.80687209999999
184,Multi-Family (2-4 Unit),19022 NE Glisan St,Portland,OR,97230,450000,5.0,3.0,1800.0,,1961.0,,http://www.redfin.com/OR/Portland/19022-NE-Glisan-St-97230/home/26308923,45.525818799999996,-122.4671533
185,Condo/Co-op,1255 NW 9th Ave #902,Portland,OR,97209,365000,0.0,1.0,634.0,,2004.0,269.0,http://www.redfin.com/OR/Portland/1255-NW-9th-Ave-97209/unit-902/home/26579647,45.5317213,-122.68065130000001
186,Condo/Co-op,821 NW 11th Ave #609,Portland,OR,97209,799500,2.0,2.0,1330.0,,1998.0,603.0,http://www.redfin.com/OR/Portland/821-NW-11th-Ave-97209/unit-609/home/26554127,45.529229,-122.68260169999999
187,Multi-Family (2-4 Unit),2208 SE 170th Ave,Portland,OR,97233,425000,4.0,2.0,,,1951.0,,http://www.redfin.com/OR/Portland/2208-SE-170th-Ave-97233/unit-A/home/26482350,45.506583899999995,-122.4873438
188,Single Family Residential,2334 SE 42nd Ave,Portland,OR,97215,489900,3.0,2.0,988.0,4356.0,1977.0,,http://www.redfin.com/OR/Portland/2334-SE-42nd-Ave-97215/home/26405123,45.50607,-122.618769
189,Single Family Residential,1811 SE 42nd Ave,Portland,OR,97215,499999,3.0,1.0,2202.0,3920.0,1914.0,,http://www.redfin.com/OR/Portland/1811-SE-42nd-Ave-97215/home/26307858,45.5100187,-122.61948770000001
190,Townhouse,1556 NE 74th Ave,Portland,OR,97213,550000,3.0,2.5,1837.0,2613.0,2016.0,,http://www.redfin.com/OR/Portland/1556-NE-74th-Ave-97213/home/105518017,45.5343984,-122.58688559999999
191,Condo/Co-op,13593 SE Steele St,Portland,OR,97236,299900,3.0,2.5,1719.0,,2018.0,188.0,http://www.redfin.com/OR/Portland/13593-SE-Steele-St-97236/home/25864584,45.4850192,-122.524103
192,Single Family Residential,1353 SE 31st Ave,Portland,OR,97214,649000,4.0,2.0,2879.0,4791.0,1910.0,,http://www.redfin.com/OR/Portland/1353-SE-31st-Ave-97214/home/26394822,45.5128105,-122.63402659999998
193,Vacant Land,14307 SE Haze Ct #5,Milwaukie,OR,97267,189500,,,,8712.0,,,http://www.redfin.com/OR/Milwaukie/14307-SE-Haze-Ct-97267/unit-5/home/172648332,45.419798,-122.622277
194,Condo/Co-op,2336 SW Osage St #503,Portland,OR,97205,859000,3.0,2.0,1672.0,,1929.0,1374.0,http://www.redfin.com/OR/Portland/2336-SW-Osage-St-97205/unit-503/home/26460381,45.5229201,-122.6998409
195,Single Family Residential,7415 SW 77th Ave,Portland,OR,97223,969000,4.0,3.0,3030.0,7405.0,2020.0,,http://www.redfin.com/OR/Portland/7415-SW-77th-Ave-97223/home/170145324,45.466291999999996,-122.75681999999999
196,Condo/Co-op,1133 NW 11th Ave NW #203,Portland,OR,97209,647000,2.0,2.0,1391.0,,2004.0,710.0,http://www.redfin.com/OR/Portland/1133-NW-11th-Ave-97209/unit-203/home/26444352,45.53098,-122.6828665
197,Single Family Residential,8103 SW 54th Ave,Portland,OR,97219,700000,3.0,1.0,968.0,42253.0,1970.0,,http://www.redfin.com/OR/Portland/8103-SW-54th-Ave-97219/home/26342675,45.4663159,-122.7325987
198,Single Family Residential,2743 NE 137th Ave,Portland,OR,97230,379900,3.0,1.5,1460.0,9147.0,1959.0,,http://www.redfin.com/OR/Portland/2743-NE-137th-Ave-97230/home/26401719,45.5430175,-122.520913
199,Single Family Residential,6723 SE Tolman St,Portland,OR,97206,499000,4.0,2.5,1978.0,4791.0,2009.0,,http://www.redfin.com/OR/Portland/6723-SE-Tolman-St-97206/home/26650872,45.4775501,-122.5937987
200,Single Family Residential,16733 SE Fircrest Ct,Milwaukie,OR,97267,449000,5.0,3.0,2635.0,8276.0,1964.0,,http://www.redfin.com/OR/Milwaukie/16733-SE-Fircrest-Ct-97267/home/25910806,45.4020191,-122.6062504
201,Single Family Residential,9320 NW Skyview Ct,Portland,OR,97231,925000,4.0,3.5,4593.0,45302.0,2005.0,29.0,http://www.redfin.com/OR/Portland/9320-NW-Skyview-Ct-97231/home/26438478,45.592595700000004,-122.8308295
202,Single Family Residential,700 SW 48th Dr,Portland,OR,97221,1199000,3.0,3.5,3598.0,38332.0,1994.0,,http://www.redfin.com/OR/Portland/700-SW-48th-Dr-97221/home/26477321,45.5180882,-122.7257529
203,Condo/Co-op,841 S Gaines St #317,Portland,OR,97239,620000,1.0,1.5,1318.0,,2007.0,715.0,http://www.redfin.com/OR/Portland/841-S-Gaines-St-97239/unit-317/home/25742974,45.497035499999996,-122.6687413
204,Single Family Residential,5022 NE 23rd Ave,Portland,OR,97211,500000,3.0,2.0,1968.0,4791.0,1909.0,,http://www.redfin.com/OR/Portland/5022-NE-23rd-Ave-97211/home/26548178,45.5594604,-122.6416939
205,Townhouse,6417 N Montana Ave,Portland,OR,97217,389900,2.0,2.5,1143.0,5662.0,2020.0,209.0,http://www.redfin.com/OR/Portland/6417-N-Montana-Ave-97217/home/172647397,45.569404999999996,-122.6803676
206,Condo/Co-op,1030 NW Johnson St #322,Portland,OR,97209,765000,2.0,2.0,1353.0,,2000.0,645.0,http://www.redfin.com/OR/Portland/1030-NW-Johnson-St-97209/unit-322/home/26573331,45.5283911,-122.68196019999999
207,Single Family Residential,4025 SE Faith Ave Unit HS 13,Milwaukie,OR,97267,600900,4.0,2.5,2507.0,,2020.0,39.0,http://www.redfin.com/OR/Portland/4025-SE-Faith-Ave-97267/unit-HS-13/home/172647239,45.3913705,-122.62025849999999
208,Condo/Co-op,812 SE 27th Ave,Portland,OR,97214,329900,2.0,1.0,876.0,,1973.0,282.0,http://www.redfin.com/OR/Portland/812-SE-27th-Ave-97214/unit-2/home/25819401,45.516864399999996,-122.6378531
209,Single Family Residential,7736 N Olympia St,Portland,OR,97203,424900,3.0,2.5,1433.0,4356.0,2000.0,,http://www.redfin.com/OR/Portland/7736-N-Olympia-St-97203/home/26339396,45.5964236,-122.74236699999999
210,Single Family Residential,3612 NE 44th Ave,Portland,OR,97213,399900,1.0,1.0,500.0,4791.0,1926.0,,http://www.redfin.com/OR/Portland/3612-NE-44th-Ave-97213/home/26505732,45.549388,-122.6179597
211,Single Family Residential,11009 SE Mount Scott Blvd,Portland,OR,97266,739900,4.0,3.5,3059.0,23522.0,1968.0,,http://www.redfin.com/OR/Portland/11009-SE-Mt-Scott-Blvd-97266/home/26345217,45.4654606,-122.54957409999999
212,Condo/Co-op,1930 NW Irving St #205,Portland,OR,97210,539000,1.0,1.0,1436.0,,2003.0,728.0,http://www.redfin.com/OR/Portland/1930-NW-Irving-St-97209/unit-205/home/169132067,45.5275402,-122.6911898
213,Single Family Residential,2890 NW Ariel Ter,Portland,OR,97210,2100000,5.0,5.0,5574.0,8712.0,1928.0,,http://www.redfin.com/OR/Portland/2890-NW-Ariel-Ter-97210/home/26600594,45.5289419,-122.7114803
214,Single Family Residential,6314 NE Tillamook St,Portland,OR,97213,749000,4.0,3.0,2100.0,4356.0,1978.0,,http://www.redfin.com/OR/Portland/6314-NE-Tillamook-St-97213/home/26585195,45.5370907,-122.59816540000001
215,Single Family Residential,9525 NW Harvest Hill Dr,Portland,OR,97229,559500,4.0,3.0,2009.0,3049.0,2012.0,57.0,http://www.redfin.com/OR/Portland/9525-NW-Harvest-Hill-Dr-97229/home/26737740,45.5271223,-122.7747072
216,Single Family Residential,9090 NW Marshall St,Portland,OR,97229,749999,2.0,2.0,1760.0,,1975.0,,http://www.redfin.com/OR/Portland/9090-NW-Marshall-St-97229/home/26609047,45.530924600000006,-122.7697946
217,Single Family Residential,3416 SE Kathryn Ct,Milwaukie,OR,97222,308900,3.0,3.0,2356.0,6969.0,1958.0,,http://www.redfin.com/OR/Milwaukie/3416-SE-Kathryn-Ct-97222/home/26037107,45.4605743,-122.6274378
218,Single Family Residential,6639 SE 85th Ave,Portland,OR,97266,275000,2.0,1.0,770.0,6098.0,1911.0,,http://www.redfin.com/OR/Portland/6639-SE-85th-Ave-97266/home/25795366,45.4741419,-122.57621509999998
219,Condo/Co-op,841 S Gaines St #235,Portland,OR,97239,424900,1.0,1.0,935.0,,2007.0,564.0,http://www.redfin.com/OR/Portland/841-S-Gaines-St-97239/unit-235/home/25744161,45.4970303,-122.66845459999999
220,Single Family Residential,11000 NW Copeland St,Portland,OR,97229,899950,4.0,4.5,3452.0,19602.0,2012.0,,http://www.redfin.com/OR/Portland/11000-NW-Copeland-St-97229/home/25769447,45.5238914,-122.7902362
221,Single Family Residential,2802 NW Ariel Ter,Portland,OR,97210,775000,3.0,3.0,2201.0,5662.0,1981.0,,http://www.redfin.com/OR/Portland/2802-NW-Ariel-Ter-97210/home/25824671,45.526832500000005,-122.7074216
222,Single Family Residential,1536 SE 44th Ave,Portland,OR,97215,729000,3.0,2.0,2494.0,4791.0,1890.0,,http://www.redfin.com/OR/Portland/1536-SE-44th-Ave-97215/home/26515495,45.5114686,-122.6168813
223,Single Family Residential,6814 SE Fern Ave,Portland,OR,97206,384900,2.0,2.0,882.0,4791.0,1948.0,,http://www.redfin.com/OR/Portland/6814-SE-Fern-Ave-97206/home/25938011,45.4591907,-122.59309309999999
224,Vacant Land,8353 SE Down Ct,Milwaukie,OR,97267,200000,,,,12196.0,,,http://www.redfin.com/OR/Milwaukie/8353-SE-Down-Way-97267/home/25874497,45.400407,-122.5778
225,Single Family Residential,1634 NE Buffalo St,Portland,OR,97211,377000,3.0,1.0,980.0,4791.0,1970.0,,http://www.redfin.com/OR/Portland/1634-NE-Buffalo-St-97211/home/26567949,45.5745445,-122.64853400000001
226,Single Family Residential,9345 NE Broadway,Portland,OR,97220,382000,3.0,1.0,1613.0,10454.0,1939.0,,http://www.redfin.com/OR/Portland/9345-NE-Broadway-97220/home/26616099,45.5351781,-122.56583090000001
227,Vacant Land,NE Broadway,Portland,OR,97220,95000,,,,7405.0,,,http://www.redfin.com/OR/PORTLAND/NE-BROADWAY-97220/home/49695521,45.535199,-122.565569
228,Single Family Residential,13526 SE Sherman Dr,Portland,OR,97233,365000,4.0,2.0,2251.0,7405.0,1960.0,,http://www.redfin.com/OR/Portland/13526-SE-Sherman-Dr-97233/home/26512081,45.5055549,-122.5241947
229,Single Family Residential,3107 NE Alameda St,Portland,OR,97212,1075000,3.0,2.0,4183.0,7840.0,1942.0,,http://www.redfin.com/OR/Portland/3107-NE-Alameda-St-97212/home/26515246,45.549977500000004,-122.634262
230,Vacant Land,1952 SW Dickinson Ln E,Portland,OR,97219,360000,,,,40946.0,,,http://www.redfin.com/OR/Portland/1952-SW-Dickinson-Ln-97219/home/26301023,45.4388984,-122.69807859999999
231,Single Family Residential,9015 SW 19th Ave,Portland,OR,97219,899000,10.0,5.0,5624.0,11325.0,1956.0,,http://www.redfin.com/OR/Portland/9015-SW-19th-Ave-97219/home/26333018,45.460238700000005,-122.6975693
232,Condo/Co-op,288 SE Spokane St,Portland,OR,97202,1250000,2.0,3.0,3399.0,,1980.0,1333.0,http://www.redfin.com/OR/Portland/288-SE-Spokane-St-97202/unit-1/home/26488526,45.4637475,-122.66226699999999
233,Single Family Residential,6246 SE Scott Dr,Portland,OR,97215,740000,3.0,2.0,2909.0,9583.0,1860.0,,http://www.redfin.com/OR/Portland/6246-SE-Scott-Dr-97215/home/26397104,45.5185906,-122.59936370000001
234,Multi-Family (2-4 Unit),1577 SE Spokane St,Portland,OR,97202,1100000,8.0,4.0,3468.0,,1969.0,,http://www.redfin.com/OR/Portland/1577-SE-Spokane-St-97202/home/26634667,45.4652461,-122.6493321
235,Single Family Residential,9443 SW 52nd Ave,Portland,OR,97219,449000,4.0,2.0,1827.0,4791.0,1978.0,,http://www.redfin.com/OR/Portland/9443-SW-52nd-Ave-97219/home/26599652,45.456965600000004,-122.7306456
236,Single Family Residential,2810 NW Ariel Ter,Portland,OR,97210,1190000,4.0,3.5,3227.0,9583.0,1999.0,,http://www.redfin.com/OR/Portland/2810-NW-Ariel-Ter-97210/home/25817345,45.526866,-122.70771529999999
237,Condo/Co-op,5250 SW Landing Dr Unit 309B1,Portland,OR,97239,329900,1.0,1.0,774.0,,1980.0,507.0,http://www.redfin.com/OR/Portland/5250-SW-Landing-Dr-97239/unit-309B1/home/26543001,45.4856106,-122.67369620000001
238,Single Family Residential,2807 SW Plum Ct,Portland,OR,97219,589900,5.0,3.0,2680.0,8276.0,1969.0,,http://www.redfin.com/OR/Portland/2807-SW-Plum-Ct-97219/home/25764405,45.4564096,-122.70540659999999
239,Condo/Co-op,1001 NW Lovejoy St Unit TH102,Portland,OR,97209,839500,2.0,2.0,1668.0,,2006.0,990.0,http://www.redfin.com/OR/Portland/1001-NW-Lovejoy-St-97209/unit-TH102/home/26451587,45.5302119,-122.6814953
240,Single Family Residential,649 NW Alpine Ter,Portland,OR,97210,1100000,3.0,3.5,3481.0,11325.0,1936.0,,http://www.redfin.com/OR/Portland/649-NW-Alpine-Ter-97210/home/26606670,45.527484,-122.711027
241,Single Family Residential,11318 SW 49th Ave,Portland,OR,97219,450000,3.0,2.0,1239.0,6098.0,1973.0,,http://www.redfin.com/OR/Portland/11318-SW-49th-Ave-97219/home/26512947,45.4436772,-122.7267118
242,Single Family Residential,5140 NE Simpson St,Portland,OR,97218,368000,2.0,1.0,861.0,5227.0,1941.0,,http://www.redfin.com/OR/Portland/5140-NE-Simpson-St-97218/home/59348551,45.5648845,-122.60983940000001
243,Single Family Residential,3211 NW Luray Ter,Portland,OR,97210,775000,3.0,2.5,2286.0,19166.0,1983.0,,http://www.redfin.com/OR/Portland/3211-NW-Luray-Ter-97210/home/26521747,45.531413,-122.7149571
244,Single Family Residential,7385 SW 77th Ave,Portland,OR,97223,979000,4.0,4.0,3355.0,7405.0,2020.0,,http://www.redfin.com/OR/Portland/7385-SW-77th-Ave-97223/home/170145323,45.466509,-122.756819
245,Single Family Residential,313 N Holman St,Portland,OR,97217,1300000,6.0,4.5,4094.0,10018.0,1908.0,,http://www.redfin.com/OR/Portland/313-N-Holman-St-97217/home/26325353,45.5679473,-122.66989309999998
246,Single Family Residential,10155 SW Todd St,Portland,OR,97225,650000,4.0,2.5,2278.0,10018.0,1984.0,,http://www.redfin.com/OR/Portland/10155-SW-Todd-St-97225/home/25817541,45.5194544,-122.78153390000001
247,Single Family Residential,7130 NE 6th Ave,Portland,OR,97211,789900,4.0,3.0,2947.0,7405.0,1925.0,,http://www.redfin.com/OR/Portland/7130-NE-6th-Ave-97211/home/26468240,45.5749542,-122.6590695
248,Single Family Residential,16220 SE Sager Rd,Happy Valley,OR,97086,599900,5.0,4.0,3350.0,21780.0,1950.0,,http://www.redfin.com/OR/Portland/16220-SE-Sager-Rd-97086/home/26028743,45.4571069,-122.49623090000001
249,Single Family Residential,4038 NE 76th Ave,Portland,OR,97213,485000,3.0,1.0,2053.0,7405.0,1922.0,,http://www.redfin.com/OR/Portland/4038-NE-76th-Ave-97213/home/26432197,45.5522698,-122.5844879
250,Condo/Co-op,37 NE Skidmore St,Portland,OR,97211,625000,3.0,2.5,1690.0,,2017.0,172.0,http://www.redfin.com/OR/Portland/37-NE-Skidmore-St-97211/home/109498446,45.5546855,-122.6660297
251,Condo/Co-op,411 NW Flanders St #503,Portland,OR,97209,249900,1.0,1.0,727.0,,2001.0,435.0,http://www.redfin.com/OR/Portland/411-NW-Flanders-St-97209/unit-503/home/26540821,45.5261268,-122.6748455
252,Condo/Co-op,303 NW Uptown Ter Unit 2A,Portland,OR,97210,330000,1.0,1.0,622.0,,1990.0,233.0,http://www.redfin.com/OR/Portland/303-NW-Uptown-Ter-97210/unit-2A/home/26596699,45.524876299999995,-122.7022584
253,Condo/Co-op,411 NW Flanders St #701,Portland,OR,97209,625000,2.0,2.0,1659.0,,2001.0,1003.0,http://www.redfin.com/OR/Portland/411-NW-Flanders-St-97209/unit-701/home/26569556,45.526205700000006,-122.67493390000001
254,Condo/Co-op,3601 S River Pkwy #307,Portland,OR,97239,999950,2.0,2.5,2265.0,,2006.0,1180.0,http://www.redfin.com/OR/Portland/3601-S-River-Pkwy-97239/unit-307/home/25742645,45.4970839,-122.67025179999999
255,Single Family Residential,11841 NW Cedar Ct,Portland,OR,97229,639000,4.0,2.5,2582.0,5227.0,2016.0,32.0,http://www.redfin.com/OR/Portland/11841-NW-Cedar-Ct-97229/home/112775414,45.5356009,-122.7987148
256,Single Family Residential,10510 SW 30th Ave,Portland,OR,97219,699900,4.0,3.0,2614.0,12632.0,1992.0,,http://www.redfin.com/OR/Portland/10510-SW-30th-Ave-97219/unit-590/home/26389439,45.4498601,-122.70726859999999
257,Single Family Residential,7606 NE Alameda St,Portland,OR,97213,819000,3.0,3.0,4246.0,10018.0,1957.0,,http://www.redfin.com/OR/Portland/7606-NE-Alameda-St-97213/home/26602064,45.542505,-122.585146
258,Single Family Residential,3800 SW Humphrey Blvd,Portland,OR,97221,979000,3.0,3.0,2714.0,15681.0,1959.0,,http://www.redfin.com/OR/Portland/3800-SW-Humphrey-Blvd-97221/home/26305599,45.5035066,-122.71638130000001
259,Single Family Residential,4048 SE 112th Ave,Portland,OR,97266,439000,5.0,3.0,1776.0,7840.0,1949.0,,http://www.redfin.com/OR/Portland/4048-SE-112th-Ave-97266/unit-A/home/25833932,45.49267929999999,-122.5477101
260,Single Family Residential,2034 N Killingsworth St,Portland,OR,97217,559000,3.0,1.0,2152.0,4791.0,1908.0,,http://www.redfin.com/OR/Portland/2034-N-Killingsworth-St-97217/home/26440299,45.562495399999996,-122.6881775
261,Single Family Residential,7297 SW Arranmore Way,Portland,OR,97223,849969,4.0,3.0,5224.0,11761.0,1989.0,114.0,http://www.redfin.com/OR/Portland/7297-SW-Arranmore-Way-97223/home/26621543,45.473668700000005,-122.75195169999999
262,Single Family Residential,3606 NW Loriann Dr,Portland,OR,97229,825000,4.0,3.0,2942.0,8712.0,1995.0,15.0,http://www.redfin.com/OR/Portland/3606-NW-Loriann-Dr-97229/home/25826269,45.5459653,-122.80026670000001
263,Single Family Residential,7637 N Jersey St,Portland,OR,97203,769999,6.0,3.5,4224.0,4791.0,2010.0,,http://www.redfin.com/OR/Portland/7637-N-Jersey-St-97203/home/28898099,45.5873705,-122.7458043
264,Single Family Residential,817 SE 139th Ave,Portland,OR,97233,379900,3.0,1.5,1744.0,8276.0,1922.0,,http://www.redfin.com/OR/Portland/817-SE-139th-Ave-97233/home/26492610,45.5165919,-122.5213739
265,Single Family Residential,5663 SW Menefee Dr,Portland,OR,97239,995000,5.0,3.5,4525.0,7405.0,2005.0,,http://www.redfin.com/OR/Portland/5663-SW-Menefee-Dr-97239/home/26579628,45.482291100000005,-122.6852711
266,Single Family Residential,6604 N Columbia Way,Portland,OR,97203,379900,2.0,1.0,1008.0,6098.0,1950.0,,http://www.redfin.com/OR/Portland/6604-N-Columbia-Way-97203/home/26404700,45.5932915,-122.73058449999999
267,Single Family Residential,9522 NW Skyview Dr,Portland,OR,97231,1225000,4.0,4.0,4825.0,47044.0,2005.0,29.0,http://www.redfin.com/OR/Portland/9522-NW-Skyview-Dr-97231/home/26588965,45.5922108,-122.82691200000001
268,Townhouse,1403 NE 17th Ave,Portland,OR,97232,500000,2.0,2.5,1534.0,871.0,1999.0,,http://www.redfin.com/OR/Portland/1403-NE-17th-Ave-97232/home/25807209,45.533021000000005,-122.648645
269,Single Family Residential,7077 SW Valenta Ct,Portland,OR,97223,699950,4.0,2.5,3282.0,6098.0,2005.0,8.0,http://www.redfin.com/OR/Portland/7077-SW-Valenta-Ct-97223/home/26722672,45.4576528,-122.7493284
270,Multi-Family (5+ Unit),637 SE 190th Ave,Portland,OR,97233,2748000,36.0,18.0,14256.0,,1971.0,,http://www.redfin.com/OR/Portland/637-SE-190th-Ave-97233/home/26606325,45.5177866,-122.4688294
271,Condo/Co-op,14859 NE Sacramento St #129,Portland,OR,97230,259900,2.0,2.0,1200.0,,1991.0,250.0,http://www.redfin.com/OR/Portland/14859-NE-Sacramento-St-97230/unit-129/home/26656016,45.5420083,-122.50886090000002
272,Single Family Residential,2722 NE 15th Ave,Portland,OR,97212,890000,9.0,5.5,4275.0,4791.0,1910.0,,http://www.redfin.com/OR/Portland/2722-NE-15th-Ave-97212/home/26487537,45.5425245,-122.65012240000001
273,Condo/Co-op,1926 W Burnside St #1006,Portland,OR,97209,319000,1.0,1.0,723.0,,2006.0,304.0,http://www.redfin.com/OR/Portland/1926-W-Burnside-St-97209/unit-1006/home/25774499,45.522738700000005,-122.69053799999999
274,Single Family Residential,16050 SE Kelly St,Portland,OR,97236,269999,2.0,1.0,896.0,8276.0,1951.0,,http://www.redfin.com/OR/Portland/16050-SE-Kelly-St-97236/home/26537346,45.4991203,-122.4978992
275,Condo/Co-op,311 NW 12th Ave #703,Portland,OR,97209,624980,1.0,1.5,1033.0,,2007.0,742.0,http://www.redfin.com/OR/Portland/311-NW-12th-Ave-97209/unit-703/home/26451940,45.525385,-122.6835648
276,Single Family Residential,1610 NW Mayfield Rd,Portland,OR,97229,670000,3.0,2.5,,8712.0,1993.0,52.0,http://www.redfin.com/OR/Portland/1610-NW-Mayfield-Rd-97229/home/26626509,45.5347076,-122.7783633
277,Single Family Residential,14270 SW Koven Ct,Tigard,OR,97224,1025000,3.0,3.0,3688.0,20908.0,1995.0,233.0,http://www.redfin.com/OR/Tigard/14270-SW-Koven-Ct-97224/home/26715762,45.4168747,-122.8376858
278,Single Family Residential,5304 SE 34th Ave,Portland,OR,97202,534900,3.0,2.0,2285.0,7840.0,1948.0,,http://www.redfin.com/OR/Portland/5304-SE-34th-Ave-97202/home/26326788,45.484550299999995,-122.62901470000001
279,Townhouse,15722 NW Clubhouse Dr,Portland,OR,97229,415000,2.0,2.5,1822.0,2613.0,1996.0,91.0,http://www.redfin.com/OR/Portland/15722-NW-Clubhouse-Dr-97229/home/26560958,45.545294,-122.8393419
280,Single Family Residential,1717 N Dekum St,Portland,OR,97217,365000,2.0,1.0,773.0,4791.0,1924.0,,http://www.redfin.com/OR/Portland/1717-N-Dekum-St-97217/home/26429869,45.571876200000005,-122.6846814
281,Single Family Residential,7900 SE 7th Ave,Portland,OR,97202,995000,3.0,2.5,2625.0,2613.0,2020.0,,http://www.redfin.com/OR/Portland/7900-SE-7th-Ave-97202/home/26298129,45.467056,-122.65894140000002
282,Multi-Family (2-4 Unit),1115 SE 149th Pl,Portland,OR,97233,465500,4.0,2.0,,,1977.0,,http://www.redfin.com/OR/Portland/1115-SE-149th-Pl-97233/home/26396025,45.5151573,-122.5095733
283,Single Family Residential,7114 N Syracuse St,Portland,OR,97203,414000,2.0,1.0,748.0,4791.0,1951.0,,http://www.redfin.com/OR/Portland/7114-N-Syracuse-St-97203/home/26634777,45.5845998,-122.7419023
284,Single Family Residential,4795 SW Vesta St,Portland,OR,97219,849999,5.0,2.5,2519.0,4791.0,2020.0,,http://www.redfin.com/OR/Portland/4795-SW-Vesta-St-97219/home/170024183,45.441327,-122.726101
285,Single Family Residential,4315 SE 141st Ave,Portland,OR,97236,585000,5.0,3.0,2482.0,22651.0,2011.0,,http://www.redfin.com/OR/Portland/4315-SE-141st-Ave-97236/home/40552075,45.49088029999999,-122.51848390000002
286,Multi-Family (2-4 Unit),51 NE 146th Ave,Portland,OR,97230,350000,,,,,1950.0,,http://www.redfin.com/OR/Portland/51-NE-146th-Ave-97230/home/26539238,45.5232121,-122.5134818
287,Single Family Residential,6225 SW Old Scholls Ferry Rd,Portland,OR,97223,615790,3.0,2.5,2147.0,15245.0,1959.0,,http://www.redfin.com/OR/Portland/6225-SW-Scholls-Ferry-Rd-97223/home/26652413,45.475248,-122.767959
288,Condo/Co-op,12714 SE Sherman St,Portland,OR,97233,495000,4.0,1.5,1900.0,,2004.0,50.0,http://www.redfin.com/OR/Portland/12714-SE-Sherman-St-97233/unit-5/home/26456059,45.505087599999996,-122.53235759999998
289,Single Family Residential,12536 SE Rhone St,Portland,OR,97236,369500,3.0,2.5,1228.0,6534.0,1995.0,,http://www.redfin.com/OR/Portland/12536-SE-Rhone-St-97236/home/26324524,45.4954949,-122.53412390000001
290,Condo/Co-op,1718 NE 11th Ave #314,Portland,OR,97212,334900,1.0,1.0,814.0,,1998.0,429.0,http://www.redfin.com/OR/Portland/1718-NE-11th-Ave-97212/unit-314/home/26539043,45.5353445,-122.65382520000001
291,Single Family Residential,4214 NW 127th Ave,Portland,OR,97229,624900,4.0,2.5,2692.0,6098.0,1999.0,,http://www.redfin.com/OR/Portland/4214-NW-127th-Ave-97229/home/26704123,45.5500577,-122.8077491
292,Condo/Co-op,311 NW 12th Ave #804,Portland,OR,97209,1275000,2.0,2.5,2117.0,,2007.0,1568.0,http://www.redfin.com/OR/Portland/311-NW-12th-Ave-97209/unit-804/home/25744497,45.525382799999996,-122.6836876
293,Multi-Family (2-4 Unit),3148 SE Salmon St,Portland,OR,97214,775000,4.0,3.0,3230.0,,1908.0,,http://www.redfin.com/OR/Portland/3148-SE-Salmon-St-97214/home/26424885,45.514131899999995,-122.63268980000001
294,Single Family Residential,1808 NE Klickitat St,Portland,OR,97212,1665000,4.0,4.0,3909.0,4791.0,1920.0,,http://www.redfin.com/OR/Portland/1808-NE-Klickitat-St-97212/home/26607581,45.5465692,-122.6470247
295,Single Family Residential,3754 NE Bryce St,Portland,OR,97212,629900,3.0,1.5,2980.0,6098.0,1936.0,,http://www.redfin.com/OR/Portland/3754-NE-Bryce-St-97212/home/26304550,45.5494336,-122.6245945
296,Condo/Co-op,725 NW Flanders St #403,Portland,OR,97209,1150000,2.0,2.5,2261.0,,1921.0,724.0,http://www.redfin.com/OR/Portland/725-NW-Flanders-St-97209/unit-403/home/25832964,45.5260326,-122.6783892
297,Single Family Residential,6618 SE 51st Ave,Portland,OR,97206,290000,3.0,1.5,1800.0,6098.0,1946.0,,http://www.redfin.com/OR/Portland/6618-SE-51st-Ave-97206/home/26408266,45.4747278,-122.61006950000001
298,Single Family Residential,11501 SE Flavel St,Portland,OR,97266,405000,3.0,2.5,1700.0,3920.0,1979.0,220.0,http://www.redfin.com/OR/Portland/11501-SE-Flavel-St-97266/home/26505603,45.468987,-122.54340630000002
299,Single Family Residential,10600 NW Laidlaw Rd,Portland,OR,97229,1399000,4.0,3.0,3230.0,27442.0,2020.0,,http://www.redfin.com/OR/Portland/10600-NW-Laidlaw-Rd-97229/home/26635357,45.5483408,-122.78570359999999
300,Condo/Co-op,1001 NW Lovejoy St #503,Portland,OR,97209,450000,1.0,1.5,875.0,,2006.0,519.0,http://www.redfin.com/OR/Portland/1001-NW-Lovejoy-St-97209/unit-503/home/25808934,45.53061470000001,-122.6817902
301,Single Family Residential,1639 NE 104th Ave,Portland,OR,97220,349900,2.0,1.0,978.0,10454.0,1949.0,,http://www.redfin.com/OR/Portland/1639-NE-104th-Ave-97220/home/26431340,45.5347776,-122.55576200000002
302,Single Family Residential,5523 NE 25th Ave,Portland,OR,97211,649900,4.0,2.5,1681.0,2613.0,2020.0,,http://www.redfin.com/OR/Portland/5523-NE-25th-Ave-97211/home/172635433,45.563242100000004,-122.6405702
303,Condo/Co-op,1926 W Burnside St #310,Portland,OR,97209,324000,1.0,1.0,719.0,,2006.0,260.0,http://www.redfin.com/OR/Portland/1926-W-Burnside-St-97209/unit-310/home/25862161,45.52278629999999,-122.69045259999999
304,Single Family Residential,17456 SE Colina Vista Ave,Milwaukie,OR,97267,449000,4.0,2.5,2075.0,8712.0,1968.0,,http://www.redfin.com/OR/Milwaukie/17456-SE-Colina-Vista-Ave-97267/home/26002474,45.396931,-122.60320120000002
305,Condo/Co-op,255 SW Harrison St Unit 15b,Portland,OR,97201,229000,1.0,1.0,735.0,,1965.0,547.0,http://www.redfin.com/OR/Portland/255-SW-Harrison-St-97201/unit-15B/home/26625616,45.5104389,-122.6793503
306,Single Family Residential,401 NE 186th Ave,Portland,OR,97230,355000,3.0,2.0,1220.0,7405.0,1963.0,,http://www.redfin.com/OR/Portland/401-NE-186th-Ave-97230/home/26518816,45.525652799999996,-122.4720068
307,Condo/Co-op,1075 NW Northrup St #1214,Portland,OR,97209,1169000,2.0,2.5,1596.0,,2016.0,925.0,http://www.redfin.com/OR/Portland/1075-NW-Northrup-St-97209/unit-1214/home/112775269,45.5319937,-122.68176329999999
308,Condo/Co-op,1819 NE Multnomah St,Portland,OR,97232,285000,2.0,1.5,832.0,,1968.0,365.0,http://www.redfin.com/OR/Portland/1819-NE-Multnomah-St-97232/home/26500811,45.5317512,-122.64696470000001
309,Single Family Residential,12620 SE Lincoln St,Portland,OR,97233,339000,2.0,2.0,1465.0,9583.0,1950.0,,http://www.redfin.com/OR/Portland/12620-SE-Lincoln-St-97233/home/26668783,45.5080278,-122.5334301
310,Condo/Co-op,7524 SW Barnes Rd Unit B,Portland,OR,97225,149900,0.0,1.0,416.0,,1977.0,207.0,http://www.redfin.com/OR/Portland/7524-SW-Barnes-Rd-97225/unit-B/home/25862259,45.508789,-122.75425800000001
311,Single Family Residential,1814 NE Dekum St,Portland,OR,97211,699900,5.0,3.0,3055.0,4791.0,1947.0,,http://www.redfin.com/OR/Portland/1814-NE-Dekum-St-97211/home/25791032,45.571700899999996,-122.6462383
312,Single Family Residential,2602 SE Walnut St,Milwaukie,OR,97267,325000,2.0,1.0,804.0,4356.0,1950.0,,http://www.redfin.com/OR/Milwaukie/2602-SE-Walnut-St-97267/home/26090292,45.4188109,-122.6365106
313,Single Family Residential,2225 NE Jarrett St,Portland,OR,97211,791000,3.0,2.5,3022.0,2613.0,2014.0,,http://www.redfin.com/OR/Portland/2225-NE-Jarrett-St-97211/home/26517831,45.564594899999996,-122.64285490000002
314,Single Family Residential,6132 SW Tower Way,Portland,OR,97221,715000,5.0,2.0,2488.0,8276.0,1957.0,,http://www.redfin.com/OR/Portland/6132-SW-Tower-Way-97221/home/26335253,45.479273,-122.718301
315,Single Family Residential,3322 NE 13th Ave,Portland,OR,97212,558000,3.0,1.5,1085.0,4791.0,1925.0,,http://www.redfin.com/OR/Portland/3322-NE-13th-Ave-97212/home/26311640,45.547155700000005,-122.6521571
316,Condo/Co-op,726 NW 11th Ave #504,Portland,OR,97209,399900,1.0,1.0,752.0,,2000.0,359.0,http://www.redfin.com/OR/Portland/726-NW-11th-Ave-97209/unit-504/home/26531575,45.5281527,-122.68216890000001
317,Townhouse,11670 NE Pacific St,Portland,OR,97220,359000,3.0,2.0,1407.0,3920.0,2010.0,,http://www.redfin.com/OR/Portland/11670-NE-Pacific-St-97220/home/25865266,45.528884999999995,-122.54263700000001
318,Single Family Residential,1734 SE Clatsop St,Portland,OR,97202,625000,3.0,2.0,2083.0,4791.0,1910.0,,http://www.redfin.com/OR/Portland/1734-SE-Clatsop-St-97202/home/26626712,45.4605998,-122.6462611
319,Condo/Co-op,1205 SW Cardinell Dr #503,Portland,OR,97201,219900,1.0,1.0,570.0,,1951.0,430.0,http://www.redfin.com/OR/Portland/1205-SW-Cardinell-Dr-97201/unit-503/home/25767763,45.510976899999996,-122.6898399
320,Single Family Residential,3910 N Lombard St,Portland,OR,97217,569000,3.0,2.0,2448.0,4791.0,1927.0,,http://www.redfin.com/OR/Portland/3910-N-Lombard-St-97217/home/26319935,45.5769428,-122.7071737
321,Condo/Co-op,409 SW 70th Ter,Portland,OR,97225,424900,3.0,2.5,1884.0,,1982.0,354.0,http://www.redfin.com/OR/Portland/409-SW-70th-Ter-97225/home/26681602,45.516725,-122.749296
322,Condo/Co-op,1120 SW Ivory Loop,Gresham,OR,97080,304900,3.0,2.5,1202.0,,2003.0,85.0,http://www.redfin.com/OR/Gresham/1120-SW-Ivory-Loop-97080/unit-18/home/26622114,45.487857299999995,-122.48092709999999
323,Condo/Co-op,949 NW Overton St #309,Portland,OR,97209,1320000,3.0,3.0,2357.0,,2007.0,1008.0,http://www.redfin.com/OR/Portland/949-NW-Overton-St-97209/unit-309/home/26455126,45.5327863,-122.6808898
324,Condo/Co-op,9175 NW Germantown Rd,Portland,OR,97231,349900,2.0,2.5,2290.0,,2005.0,510.0,http://www.redfin.com/OR/Portland/9175-NW-Germantown-Rd-97231/home/26657102,45.5880946,-122.7752893
325,Single Family Residential,2741 SE 153rd Ave,Portland,OR,97236,340000,2.0,1.0,1023.0,6534.0,1950.0,,http://www.redfin.com/OR/Portland/2741-SE-153rd-Ave-97236/home/26596728,45.502349,-122.5061828
326,Condo/Co-op,4638 W Powell Blvd Unit U 255,Gresham,OR,97030,195000,2.0,2.0,1052.0,,2000.0,302.0,http://www.redfin.com/OR/Gresham/4638-W-Powell-Blvd-97030/unit-255/home/26371392,45.490418,-122.479059
327,Other,2915 NE Marine Dr Unit A-15,Portland,OR,97211,125000,1.0,1.0,924.0,,1940.0,,http://www.redfin.com/OR/Portland/2915-NE-Marine-Dr-97211/unit-A-15/home/101669395,45.6006079,-122.6349368
328,Mobile/Manufactured Home,11147 SW SW Royal Villa Dr,Tigard,OR,97224,48000,2.0,1.0,1056.0,,1977.0,,http://www.redfin.com/OR/Tigard/11147-SW-Royal-Villa-Dr-97224/home/26598434,45.3987479,-122.79298059999999
329,Vacant Land,7916 SE Lambert St,Portland,OR,97206,415750,,,,30056.0,,,http://www.redfin.com/OR/Portland/7916-SE-Lambert-St-97206/home/26300997,45.4666093,-122.5820727
330,Single Family Residential,5911 N Michigan Ave,Portland,OR,97217,474900,3.0,3.0,1617.0,1742.0,1910.0,,http://www.redfin.com/OR/Portland/5911-N-Michigan-Ave-97217/unit-A/home/26598127,45.565744200000005,-122.6771497
331,Single Family Residential,17420 SE Franklin Ct,Portland,OR,97236,420000,4.0,1.5,1684.0,12632.0,1956.0,,http://www.redfin.com/OR/Portland/17420-SE-Franklin-Ct-97236/home/26536763,45.4988519,-122.4839241
332,Single Family Residential,4909 SW Lowell St,Portland,OR,97221,600000,3.0,2.0,1908.0,10018.0,1948.0,,http://www.redfin.com/OR/Portland/4909-SW-Lowell-St-97221/home/25847715,45.4937944,-122.727492
333,Single Family Residential,6351 NE 37th Ave,Portland,OR,97211,625000,2.0,2.0,2524.0,6098.0,1956.0,,http://www.redfin.com/OR/Portland/6351-NE-37th-Ave-97211/home/25780100,45.569198799999995,-122.6257893
334,Single Family Residential,5931 S Corbett Ave,Portland,OR,97239,780000,3.0,2.5,2149.0,3920.0,2007.0,,http://www.redfin.com/OR/Portland/5931-S-Corbett-Ave-97239/home/26622002,45.480753799999995,-122.6771326
335,Single Family Residential,1 Pheasant Run,Lake Oswego,OR,97035,475000,3.0,2.5,1780.0,4356.0,1981.0,88.0,http://www.redfin.com/OR/Lake-Oswego/1-Pheasant-Run-97035/home/26511748,45.4390886,-122.708735
336,Single Family Residential,6425 SE 32nd Ave,Portland,OR,97202,1275000,4.0,3.5,3575.0,6098.0,1940.0,,http://www.redfin.com/OR/Portland/6425-SE-32nd-Ave-97202/home/26639364,45.47563770000001,-122.630698
337,Single Family Residential,4812 NE Mallory Ave,Portland,OR,97211,1750000,3.0,3.0,3486.0,12196.0,1910.0,,http://www.redfin.com/OR/Portland/4812-NE-Mallory-Ave-97211/home/26317361,45.5578839,-122.66330409999999
338,Single Family Residential,14531 SE Crystal St,Portland,OR,97236,484900,4.0,3.0,2692.0,6534.0,2006.0,38.0,http://www.redfin.com/OR/Portland/14531-SE-Crystal-St-97236/home/26613588,45.4629167,-122.51305959999999
339,Condo/Co-op,1219 NE 21st Ave #10,Portland,OR,97232,394995,2.0,1.5,990.0,,1979.0,300.0,http://www.redfin.com/OR/Portland/1219-NE-21st-Ave-97232/unit-10/home/26587319,45.531968400000004,-122.6451098
340,Condo/Co-op,836 S Curry St #508,Portland,OR,97239,739900,2.0,2.0,1525.0,,2006.0,880.0,http://www.redfin.com/OR/Portland/836-S-Curry-St-97239/unit-508/home/26599556,45.4972842,-122.66949679999999
341,Single Family Residential,1225 NE 42nd Ave,Portland,OR,97213,575000,4.0,3.0,2842.0,3049.0,1927.0,,http://www.redfin.com/OR/Portland/1225-NE-42nd-Ave-97213/home/25755883,45.532156,-122.620595
342,Single Family Residential,6428 SW 46th Pl,Portland,OR,97221,659000,3.0,2.0,2318.0,8276.0,1952.0,,http://www.redfin.com/OR/Portland/6428-SW-46th-Pl-97221/home/26460433,45.477641299999995,-122.72495990000002
343,Single Family Residential,4724 NE 107th Ave,Portland,OR,97220,465000,5.0,2.5,3548.0,4791.0,1915.0,,http://www.redfin.com/OR/Portland/4724-NE-107th-Ave-97220/home/26431898,45.5575874,-122.5523903
344,Single Family Residential,2758 N Kilpatrick St,Portland,OR,97217,560000,3.0,2.5,2294.0,2613.0,2018.0,,http://www.redfin.com/OR/Portland/2758-N-Kilpatrick-St-97217/home/49692748,45.58177379999999,-122.69568020000001
345,Single Family Residential,12863 NW Ethan Dr,Portland,OR,97229,749900,4.0,2.5,3274.0,4791.0,2013.0,74.0,http://www.redfin.com/OR/Portland/12863-NW-Ethan-Dr-97229/home/49792364,45.5595395,-122.8093659
346,Single Family Residential,15938 SE Henderson Way,Portland,OR,97236,489500,3.0,2.5,2594.0,10890.0,1999.0,33.0,http://www.redfin.com/OR/Portland/15938-SE-Henderson-Way-97236/home/26616822,45.4695123,-122.49866159999999
347,Single Family Residential,4995 SE Briar Ct,Milwaukie,OR,97267,504999,4.0,2.5,2239.0,5662.0,2006.0,,http://www.redfin.com/OR/Milwaukie/4995-SE-Briar-Ct-97267/home/26072489,45.3956414,-122.6123567
348,Multi-Family (2-4 Unit),35 NE 74th Ave,Portland,OR,97213,489900,2.0,2.0,1936.0,,1911.0,,http://www.redfin.com/OR/Portland/35-NE-74th-Ave-97213/home/172618411,45.5233768,-122.5871838
349,Single Family Residential,5523 N Atlantic Ave,Portland,OR,97217,974950,4.0,3.5,2800.0,4791.0,2018.0,,http://www.redfin.com/OR/Portland/5523-N-Atlantic-Ave-97217/home/147721578,45.563170299999996,-122.6966977
