SALE TYPE,SOLD DATE,PROPERTY TYPE,ADDRESS,CITY,STATE OR PROVINCE,ZIP OR POSTAL CODE,PRICE,BEDS,BATHS,LOCATION,SQUARE FEET,LOT SIZE,YEAR BUILT,DAYS ON MARKET,$/SQUARE FEET,HOA/MONTH,STATUS,NEXT OPEN HOUSE START TIME,NEXT OPEN HOUSE END TIME,URL (SEE http://www.redfin.com/buy-a-home/comparative-market-analysis FOR INFO ON PRICING),SOURCE,MLS#,FAVORITE,INTERESTED,LATITUDE,LONGITUDE
MLS Listing,,Single Family Residential,7516 Old Harding Pike,Nashville,TN,37221,375000,3,2.0,River Plantation,2034,13939,1988,6,184,35,Active,,,http://www.redfin.com/TN/Nashville/7516-Old-Harding-Pike-37221/home/108090209,REALTRACS,2175217,N,Y,36.062685,-86.9428154
MLS Listing,,Single Family Residential,5864 Seven Points Trce,Hermitage,TN,37076,389900,4,3.0,Meadows Of Seven Points,2464,13503,2000,7,158,18,Active,,,http://www.redfin.com/TN/Hermitage/5864-Seven-Points-Trce-37076/home/60767004,REALTRACS,2174804,N,Y,36.1502761,-86.578165
MLS Listing,,Townhouse,101 Morton Mill Cir,Nashville,TN,37221,379999,4,3.5,Morton Mill Estates,3450,1306,1987,7,110,288,Active,,,http://www.redfin.com/TN/Nashville/101-Morton-Mill-Cir-37221/home/60790949,REALTRACS,2174634,N,Y,36.065512,-86.9578049
MLS Listing,,Single Family Residential,5954 Temple Rd,Nashville,TN,37221,399900,4,3.5,Trebing,2050,40075,2000,14,195,,Active,,,http://www.redfin.com/TN/Nashville/5954-Temple-Rd-37221/home/104285352,REALTRACS,2172688,N,Y,36.041489,-86.951586
MLS Listing,,Single Family Residential,3504 Lealand Ln,Nashville,TN,37204,915000,4,3.5,Obrien,3654,16988,1988,28,250,,Active,,,http://www.redfin.com/TN/Nashville/3504-Lealand-Ln-37204/home/87822376,REALTRACS,2167964,N,Y,36.1103655,-86.7870927
MLS Listing,,Single Family Residential,811 Singleton Ln,Brentwood,TN,37027,1040000,5,5.5,Stonecrest,4303,26136,2018,90,242,100,Active,,,http://www.redfin.com/TN/Brentwood/811-Singleton-Ln-37027/home/144122180,REALTRACS,2148190,N,Y,36.0033275,-86.7088887
Redfin Data,,Condo/Co-op,1400 Quail Run,Nashville,TN,37214,192900,3,2.0,Nashville,1200,,1983,1,161,235,Pre On-Market,,,http://www.redfin.com/TN/Nashville/1400-Quail-Run-37214/home/108008176,Coming Soon,60714,N,Y,36.138515,-86.637599
MLS Listing,,Single Family Residential,1953 Deep Woods Trl,Nashville,TN,37214,324000,3,2.5,Woodland Point,2260,5662,2002,1,143,35,Active,,,http://www.redfin.com/TN/Nashville/1953-Deep-Woods-Trl-37214/home/108016151,REALTRACS,2177238,N,Y,36.1222126,-86.6245652
MLS Listing,,Single Family Residential,111 Ashlawn Ct,Nashville,TN,37215,320000,2,2.0,Burton Hills Village Of As,1343,1306,1986,1,238,315,Active,,,http://www.redfin.com/TN/Nashville/111-Ashlawn-Ct-37215/home/68719384,REALTRACS,2177237,N,Y,36.092959,-86.81865
MLS Listing,,Single Family Residential,3429 Shelby Bottoms,Nashville,TN,37206,639900,4,3.5,East Greenway Park,2769,,2020,1,231,145,Active,,,http://www.redfin.com/TN/Nashville/3429-Shelby-Bottoms-Bnd-37206/home/112484586,REALTRACS,2177229,N,Y,36.184784,-86.708208
MLS Listing,,Single Family Residential,1510 Demonbreun St Apt 506,Nashville,TN,37203,349900,1,1.0,Rhythm At Music Row,855,,2009,1,409,350,Active,,,http://www.redfin.com/TN/Nashville/1510-Demonbreun-St-37203/unit-506/home/60664455,REALTRACS,2177225,N,Y,36.1536483,-86.7893837
MLS Listing,,Single Family Residential,5212 Alyadar Dr,Hermitage,TN,37076,289900,3,2.0,Roxborough,1814,20037,1979,1,160,,Active,,,http://www.redfin.com/TN/Hermitage/5212-Alyadar-Dr-37076/home/68839270,REALTRACS,2177220,N,Y,36.1668745,-86.5781885
MLS Listing,,Single Family Residential,1605 Benjamin St,Nashville,TN,37206,325000,2,1.0,Weakley Home Place,1060,14810,1940,1,307,,Active,,,http://www.redfin.com/TN/Nashville/1605-Benjamin-St-37206/home/108020535,REALTRACS,2177209,N,Y,36.1867289,-86.7391032
MLS Listing,,Single Family Residential,916 Carolyn Ave,Nashville,TN,37216,300000,2,1.0,East Nashville,925,10454,1933,1,324,,Active,,,http://www.redfin.com/TN/Nashville/916-Carolyn-Ave-37216/home/108113232,REALTRACS,2177161,N,Y,36.1985117,-86.7471178
MLS Listing,,Single Family Residential,1709 Primrose Ave,Nashville,TN,37212,675000,3,3.0,Belmont Terrace,2826,7840,1930,1,239,,Active,,,http://www.redfin.com/TN/Nashville/1709-Primrose-Ave-37212/home/108004837,REALTRACS,2177153,N,Y,36.1199843,-86.7979251
MLS Listing,,Single Family Residential,8325 Parkfield Dr,Nolensville,TN,37135,539500,5,3.5,Burkitt Place Ph2f,2965,9147,2009,1,182,65,Active,,,http://www.redfin.com/TN/Nolensville/8325-Parkfield-Dr-37135/home/87878507,REALTRACS,2177150,N,Y,35.9833399,-86.6702964
MLS Listing,,Townhouse,949 Todd Preis Dr,Nashville,TN,37221,270000,3,2.5,River Plantation,1716,871,1976,1,157,250,Active,August-9-2020 01:00 PM,August-9-2020 04:00 PM,http://www.redfin.com/TN/Nashville/949-Todd-Preis-Dr-37221/unit-949/home/87806805,REALTRACS,2177140,N,Y,36.074205,-86.950961
MLS Listing,,Single Family Residential,225 53rd Ave N,Nashville,TN,37209,410000,2,1.0,Sylvan Park,884,6969,1947,1,464,,Active,,,http://www.redfin.com/TN/Nashville/225-53rd-Ave-N-37209/home/107999340,REALTRACS,2177109,N,Y,36.1475938,-86.8511882
MLS Listing,,Single Family Residential,2312 Shadow Ln,Nashville,TN,37216,214900,2,1.0,Inglewood,914,11325,1953,1,235,,Active,,,http://www.redfin.com/TN/Nashville/2312-Shadow-Ln-37216/home/108109302,REALTRACS,2177107,N,Y,36.2069312,-86.7058934
MLS Listing,,Single Family Residential,219 Sterling Point Cir,Nashville,TN,37209,435000,3,3.5,Charlotte Park,1994,871,2020,1,218,165,Active,August-8-2020 11:00 AM,August-8-2020 01:00 PM,http://www.redfin.com/TN/Nashville/Sterling-St-37209/home/148402048,REALTRACS,2177103,N,Y,36.157727,-86.863679
MLS Listing,,Single Family Residential,217 Sterling Point Cir,Nashville,TN,37209,440000,3,3.5,Charlotte Park,2028,871,2020,1,217,165,Active,August-8-2020 11:00 AM,August-8-2020 01:00 PM,http://www.redfin.com/TN/Nashville/Sterling-St-37209/home/148402047,REALTRACS,2177099,N,Y,36.157727,-86.863679
MLS Listing,,Townhouse,2261 Belle Creek Way,Nashville,TN,37221,330000,3,2.5,Harpeth Springs,1493,871,2019,1,221,105,Active,,,http://www.redfin.com/TN/Nashville/2261-Belle-Creek-Way-37221/home/148401523,REALTRACS,2177081,N,Y,36.0756702,-86.9657687
MLS Listing,,Townhouse,2308 Patrick Ave,Old Hickory,TN,37138,217625,2,2.5,Robinson Rowhouses,1177,,2020,1,185,135,Active,,,http://www.redfin.com/TN/Nashville/2308-Patrick-AVE-37138/home/172669876,REALTRACS,2177080,N,Y,36.26505578,-86.66276592
MLS Listing,,Single Family Residential,6315 Percy Dr,Nashville,TN,37205,464000,4,3.0,Warner Park Valley,1880,19602,1966,1,247,,Active,,,http://www.redfin.com/TN/Nashville/6315-Percy-Dr-37205/home/107984410,REALTRACS,2177079,N,Y,36.0897245,-86.8827734
MLS Listing,,Single Family Residential,1010 48th Ave N,Nashville,TN,37209,584900,3,3.0,4713 Kentucky Cottages,2237,871,2015,1,261,,Active,,,http://www.redfin.com/TN/Nashville/1010-48th-Ave-N-37209/home/102793423,REALTRACS,2177076,N,Y,36.1596125,-86.8449373
MLS Listing,,Single Family Residential,1101 Ozark St,Nashville,TN,37206,975000,5,5.0,Haynies Central Park,3863,7405,2019,1,252,,Active,August-8-2020 02:00 PM,August-8-2020 04:00 PM,http://www.redfin.com/TN/Nashville/1101-Ozark-St-37206/home/102802593,REALTRACS,2177075,N,Y,36.163421,-86.75196
MLS Listing,,Townhouse,729 Westcott Ln #128,Nolensville,TN,37135,311000,2,2.5,Burkitt Springs,1480,2178,2015,1,210,165,Active,,,http://www.redfin.com/TN/Nolensville/729-Westcott-Ln-37135/unit-128/home/144669077,REALTRACS,2177073,N,Y,35.9877057,-86.6669349
MLS Listing,,Single Family Residential,201 Scotland Pl,Nashville,TN,37205,1199500,4,3.5,Belle Meade,3501,28749,1945,1,343,,Active,August-9-2020 02:00 PM,August-9-2020 04:00 PM,http://www.redfin.com/TN/Nashville/201-Scotland-Pl-37205/home/108048593,REALTRACS,2177070,N,Y,36.1053201,-86.8626886
MLS Listing,,Vacant Land,41 Harbor Cove Dr,Old Hickory,TN,37138,360000,,,Brandywine Harbor,,20908,,1,,150,Active,,,http://www.redfin.com/TN/Old-Hickory/41-Harbor-Cove-Dr-37138/home/68906806,REALTRACS,2177061,N,Y,36.241259,-86.61269
MLS Listing,,Single Family Residential,831 Crestridge Dr,Nashville,TN,37204,910000,4,3.5,PLEASANT VALLEY,3196,,2020,1,285,,Active,,,http://www.redfin.com/TN/Nashville/831-Crestridge-Dr-37204/home/68828612,REALTRACS,2177046,N,Y,36.1109589,-86.7763856
MLS Listing,,Single Family Residential,1723B Nubell St Unit B,Nashville,TN,37208,349000,3,2.5,Homes At 1723 Nubell Stree,1489,871,2017,1,234,,Active,,,http://www.redfin.com/TN/Nashville/1723B-Nubell-St-37208/unit-B/home/172669388,REALTRACS,2177033,N,Y,36.1883699,-86.8141246
MLS Listing,,Single Family Residential,700 N 2nd St,Nashville,TN,37207,535000,4,3.0,Dr V S Lindsley,2468,7405,2013,1,217,,Active,August-9-2020 02:00 PM,August-9-2020 04:00 PM,http://www.redfin.com/TN/Nashville/700-N-2nd-St-37207/home/60736800,REALTRACS,2177019,N,Y,36.1831185,-86.7717035
MLS Listing,,Single Family Residential,909 Waggoner Ct E,Nashville,TN,37214,199900,3,2.5,Patio Villa,1496,7840,1998,1,134,,Active,,,http://www.redfin.com/TN/Nashville/909-Waggoner-Ct-E-37214/home/108056441,REALTRACS,2177016,N,Y,36.147495,-86.639783
MLS Listing,,Condo/Co-op,239 5th Ave N #402,Nashville,TN,37219,549000,2,2.0,Kress Lofts,1370,1306,1900,1,401,516,Active,,,http://www.redfin.com/TN/Nashville/239-5th-Ave-N-37219/unit-402/home/60643705,REALTRACS,2177009,N,Y,36.1640295,-86.7813843
MLS Listing,,Townhouse,1720 Delta Ave,Nashville,TN,37208,417000,4,3.5,The Artisan North,1979,,2020,1,211,195,Active,,,http://www.redfin.com/TN/Nashville/1720-Delta-Ave-37208/home/167937450,REALTRACS,2177007,N,Y,36.180888,-86.7992986
MLS Listing,,Condo/Co-op,607A 39th Ave N,Nashville,TN,37209,439999,3,2.5,Clifton,2023,,2020,1,217,,Active,,,http://www.redfin.com/TN/Nashville/607-39th-Ave-N-37209/home/108021131,REALTRACS,2177002,N,Y,36.155813,-86.833238
MLS Listing,,Single Family Residential,355 Binkley Dr,Nashville,TN,37211,231900,3,1.5,Caldwell Hall,1200,13939,1963,1,193,,Active,,,http://www.redfin.com/TN/Nashville/355-Binkley-Dr-37211/home/87823684,REALTRACS,2176997,N,Y,36.0799396,-86.7455121
MLS Listing,,Single Family Residential,2724 Hartford Dr,Nashville,TN,37210,379900,3,2.0,Hidden Acres,1404,11325,1948,1,271,,Active,,,http://www.redfin.com/TN/Nashville/2724-Hartford-Dr-37210/home/60827693,REALTRACS,2176995,N,Y,36.1128455,-86.732777
MLS Listing,,Condo/Co-op,162 4th Ave N #203,Nashville,TN,37219,624900,1,1.5,Ambrose,1067,1306,1890,1,586,196,Active,,,http://www.redfin.com/TN/Nashville/162-4th-Ave-N-37219/unit-203/home/108023333,REALTRACS,2176991,N,Y,36.1634487,-86.7781229
MLS Listing,,Condo/Co-op,162 4th Ave N #211,Nashville,TN,37219,624900,1,1.5,Ambrose,951,1306,1890,1,657,196,Active,,,http://www.redfin.com/TN/Nashville/162-4th-Ave-N-37219/unit-211/home/108107156,REALTRACS,2176990,N,Y,36.1633935,-86.7785856
MLS Listing,,Single Family Residential,437 Summit Oaks Dr,Nashville,TN,37221,574500,4,4.0,Summit Oaks,4286,6969,2006,1,134,35,Active,,,http://www.redfin.com/TN/Nashville/437-Summit-Oaks-Dr-37221/home/68774460,REALTRACS,2176981,N,Y,36.0809486,-86.9215157
MLS Listing,,Single Family Residential,6201 Louisiana Ave,Nashville,TN,37209,299900,3,2.0,Cherokee Park,1104,7840,1998,1,272,,Active,,,http://www.redfin.com/TN/Nashville/6201-Louisiana-Ave-37209/home/60681675,REALTRACS,2176979,N,Y,36.165052,-86.8642868
MLS Listing,,Single Family Residential,529 Shoreline Ln,Antioch,TN,37013,325000,4,2.5,Hamilton Chase,2044,6534,2017,1,159,20,Active,,,http://www.redfin.com/TN/Antioch/529-Shoreline-Ln-37013/home/102802811,REALTRACS,2176977,N,Y,36.0525534,-86.5873993
MLS Listing,,Single Family Residential,101 Summit Run Pl,Hermitage,TN,37076,298000,3,2.5,Summit Run,2071,7405,1997,1,144,23,Active,,,http://www.redfin.com/TN/Hermitage/101-Summit-Run-Pl-37076/home/108051951,REALTRACS,2176961,N,Y,36.190371,-86.6045213
MLS Listing,,Single Family Residential,96 Lutie St,Nashville,TN,37210,265000,2,1.0,Sterling Heights,965,9583,1960,1,275,,Active,,,http://www.redfin.com/TN/Nashville/96-Lutie-St-37210/home/108093367,REALTRACS,2176956,N,Y,36.1172624,-86.740832
MLS Listing,,Single Family Residential,500 N Wilson Blvd,Nashville,TN,37205,849900,3,2.5,Historic Richland,2414,,1933,1,352,,Active,,,http://www.redfin.com/TN/Nashville/500-N-Wilson-Blvd-37205/home/103942270,REALTRACS,2176952,N,Y,36.1369928,-86.8333488
MLS Listing,,Single Family Residential,1001 Petway Ave,Nashville,TN,37206,259900,2,1.0,GREENWOOD,827,12196,1951,1,314,,Active,,,http://www.redfin.com/TN/Nashville/1001-Petway-Ave-37206/home/108122843,REALTRACS,2176925,N,Y,36.1873365,-86.7521459
MLS Listing,,Single Family Residential,1016 Vaughn Crest Dr,Franklin,TN,37069,4550000,7,9.5,LaurelBrooke,14760,168577,2007,1,308,306,Active,,,http://www.redfin.com/TN/Franklin/1016-Vaughn-Crest-Blvd-37069/home/87861187,REALTRACS,2176922,N,Y,36.0407435,-86.9030029
MLS Listing,,Single Family Residential,304 April Ln,Nashville,TN,37211,284900,3,2.0,April Lane,1517,13939,1958,1,188,,Active,,,http://www.redfin.com/TN/Nashville/304-April-Ln-37211/home/108041251,REALTRACS,2176915,N,Y,36.0559882,-86.7121425
MLS Listing,,Single Family Residential,130 Brighton Close,Nashville,TN,37205,959000,4,4.0,Brighton Close,4315,3920,1998,1,222,325,Active,August-9-2020 02:00 PM,August-9-2020 04:00 PM,http://www.redfin.com/TN/Nashville/130-Brighton-Close-37205/home/108035507,REALTRACS,2176891,N,Y,36.1277064,-86.8300939
MLS Listing,,Condo/Co-op,703A Cleo Miller Dr,Nashville,TN,37206,269900,1,1.0,The Bailey @ West Eastland,749,,2018,1,360,195,Active,August-9-2020 01:00 PM,August-9-2020 04:00 PM,http://www.redfin.com/TN/Nashville/703A-Cleo-Miller-Dr-37206/home/147946746,REALTRACS,2176887,N,Y,36.18360402,-86.75043476
MLS Listing,,Single Family Residential,1021 Aldersgate Rd,Antioch,TN,37013,244900,3,2.0,Piccadilly Square,1568,7840,1986,1,156,,Active,August-9-2020 02:00 PM,August-9-2020 04:00 PM,http://www.redfin.com/TN/Antioch/1021-Aldersgate-Rd-37013/home/108099447,REALTRACS,2176883,N,Y,36.0828983,-86.6576881
MLS Listing,,Single Family Residential,911 Albert Ct,Nashville,TN,37204,965000,5,4.5,Albert Court Commons,3424,2613,2013,1,282,,Active,,,http://www.redfin.com/TN/Nashville/911-Albert-Ct-37204/home/108018953,REALTRACS,2176881,N,Y,36.1046255,-86.7870208
MLS Listing,,Single Family Residential,1948 Shaylin Loop,Antioch,TN,37013,212500,2,2.5,Barnes Crossing,1224,435,2006,1,174,121,Active,,,http://www.redfin.com/TN/Antioch/1948-Shaylin-Loop-37013/home/107593558,REALTRACS,2176877,N,Y,36.0311997,-86.7038142
MLS Listing,,Single Family Residential,6120 Stillmeadow Dr,Nashville,TN,37211,509000,4,3.0,Myrtlewood Estates,3498,20473,1987,1,146,,Active,,,http://www.redfin.com/TN/Nashville/6120-Stillmeadow-Dr-37211/home/107976339,REALTRACS,2176846,N,Y,36.037675,-86.7332093
MLS Listing,,Single Family Residential,5107B Michigan Ave,Nashville,TN,37209,365000,2,2.5,Row At 51st Townhomes,1286,435,2007,1,284,33,Active,August-9-2020 02:00 PM,August-9-2020 04:00 PM,http://www.redfin.com/TN/Nashville/5107B-Michigan-Ave-37209/home/172663998,REALTRACS,2176841,N,Y,36.158329,-86.849724
MLS Listing,,Townhouse,702 Fox Ridge Dr,Brentwood,TN,37027,234900,2,1.5,Brentwood Trace,1116,871,1982,1,210,150,Active,,,http://www.redfin.com/TN/Brentwood/702-Fox-Ridge-Dr-37027/home/108069468,REALTRACS,2176840,N,Y,36.0371966,-86.7748321
MLS Listing,,Townhouse,524 Belair Way,Nashville,TN,37215,450000,2,2.5,Burton Hills Village Of Be,2313,871,1985,1,195,250,Active,,,http://www.redfin.com/TN/Nashville/524-Belair-Way-37215/home/68717607,REALTRACS,2176836,N,Y,36.094519,-86.8156149
MLS Listing,,Single Family Residential,2404 Oakland Ave,Nashville,TN,37212,735000,4,2.0,Belmont,2457,6534,1920,1,299,,Active,,,http://www.redfin.com/TN/Nashville/2404-Oakland-Ave-37212/home/87805858,REALTRACS,2176828,N,Y,36.1268197,-86.7950602
MLS Listing,,Single Family Residential,1507 Douglas Ave,Nashville,TN,37206,464900,3,2.0,Dr E T Browns/Brownsville,1603,10454,1925,1,290,,Active,,,http://www.redfin.com/TN/Nashville/1507-Douglas-Ave-37206/home/68794003,REALTRACS,2176817,N,Y,36.1922714,-86.7388282
MLS Listing,,Single Family Residential,"910 Summit Oaks Ct, Lot 91",Nashville,TN,37221,427900,3,2.5,Still Springs Ridge,2410,,2021,1,178,1,Active,,,http://www.redfin.com/TN/Nashville/910-Summit-Oaks-Ct-37221/home/172663494,REALTRACS,2176789,N,Y,36.0875887,-86.9246596
MLS Listing,,Single Family Residential,2709 Charles Park Dr,Nashville,TN,37211,506990,4,2.5,Cameron Park,2707,,2020,1,187,85,Active,,,http://www.redfin.com/TN/Nashville/2709-Charles-Park-Dr-37211/home/172663493,REALTRACS,2176786,N,Y,36.0255249,-86.7377043
MLS Listing,,Single Family Residential,1911 Wildwood Ave,Nashville,TN,37212,524500,3,1.0,Belmont Terrace Annex,1286,10890,1943,1,408,,Active,,,http://www.redfin.com/TN/Nashville/1911-Wildwood-Ave-37212/home/107975199,REALTRACS,2176761,N,Y,36.1235991,-86.8012464
MLS Listing,,Single Family Residential,2286 Kirkwall Dr,Nolensville,TN,37135,579900,4,3.5,Burkitt Village Ph3,3530,11020,2020,1,164,45,Active,,,http://www.redfin.com/TN/Nolensville/2286-Kirkwall-Dr-37135/home/172663376,REALTRACS,2176760,N,Y,35.9804583,-86.6637079
MLS Listing,,Single Family Residential,6632 Clearbrook Dr,Nashville,TN,37205,685000,3,2.0,West Meade Park,2894,42688,1960,1,237,,Active,,,http://www.redfin.com/TN/Nashville/6632-Clearbrook-Dr-37205/home/108091578,REALTRACS,2176734,N,Y,36.0925771,-86.8962868
MLS Listing,,Townhouse,1309 Wade Ave,Nashville,TN,37212,795000,3,3.5,The Edge At Belmont Townho,2449,871,2015,1,325,150,Active,August-9-2020 02:00 PM,August-9-2020 04:00 PM,http://www.redfin.com/TN/Nashville/1309-Wade-Ave-37212/home/74157367,REALTRACS,2176719,N,Y,36.1368311,-86.7901274
MLS Listing,,Single Family Residential,2814 Eastland Ave,Nashville,TN,37206,599900,4,3.5,East Greenway Park,2651,,2020,1,226,145,Active,,,http://www.redfin.com/TN/Nashville/2814-Eastland-Ave-37206/home/112483963,REALTRACS,2176702,N,Y,36.185072,-86.710811
MLS Listing,,Townhouse,2306 Patrick Ave,Old Hickory,TN,37138,209900,2,2.5,Robinson Rowhouses,1123,,2020,1,187,135,Active,,,http://www.redfin.com/TN/Nashville/2306-Patrick-AVE-37138/home/172663156,REALTRACS,2176704,N,Y,36.26512138,-86.66283834
MLS Listing,,Vacant Land,624 W Green Ln,Nashville,TN,37207,69900,,,Whites Creek,,8712,,1,,,Active,,,http://www.redfin.com/TN/Nashville/624-W-Green-Ln-37207/home/60915030,REALTRACS,2176703,N,Y,36.2381454,-86.8196641
MLS Listing,,Single Family Residential,2206 Sandra Dr,Nashville,TN,37210,339900,3,1.0,Woodbine,1472,9583,1952,1,231,,Active,,,http://www.redfin.com/TN/Nashville/2206-Sandra-Dr-37210/home/87822301,REALTRACS,2176656,N,Y,36.1211202,-86.7345453
MLS Listing,,Single Family Residential,504 Menees Ln,Madison,TN,37115,278000,4,2.0,Neelys Bend,1329,40946,2005,1,209,,Active,,,http://www.redfin.com/TN/Madison/504-Menees-Ln-37115/home/87803226,REALTRACS,2176652,N,Y,36.2193453,-86.6584612
MLS Listing,,Single Family Residential,2925 Chapelwood Dr,Hermitage,TN,37076,249700,3,2.0,Fleetwood,1311,5662,1988,1,190,27,Active,,,http://www.redfin.com/TN/Hermitage/2925-Chapelwood-Dr-37076/home/108062647,REALTRACS,2176658,N,Y,36.1721473,-86.6163238
MLS Listing,,Single Family Residential,1409 Lillian St,Nashville,TN,37206,625000,4,2.0,Lockeland Springs,2092,7405,1920,1,299,,Active,August-9-2020 02:00 PM,August-9-2020 04:00 PM,http://www.redfin.com/TN/Nashville/1409-Lillian-St-37206/home/68809418,REALTRACS,2176651,N,Y,36.172881,-86.745625
MLS Listing,,Condo/Co-op,5001A Michigan,Nashville,TN,37209,569969,4,3.0,Nations,2217,,2020,1,257,,Active,,,http://www.redfin.com/TN/Nashville/5001-Michigan-Ave-37209/unit-A/home/87820625,REALTRACS,2176641,N,Y,36.1585565,-86.8477483
MLS Listing,,Single Family Residential,7260 Santeelah Way,Antioch,TN,37013,312900,3,2.0,Indian Creek Estates,1937,8276,2004,1,162,16,Active,August-9-2020 02:00 PM,August-9-2020 04:00 PM,http://www.redfin.com/TN/Antioch/7260-Santeelah-Way-37013/home/108137286,REALTRACS,2176629,N,Y,36.0092801,-86.6838295
MLS Listing,,Single Family Residential,3015 Brightwood Ave,Nashville,TN,37212,765000,3,2.0,Belmont Terrace Annex,2153,9583,1925,1,355,,Active,,,http://www.redfin.com/TN/Nashville/3015-Brightwood-Ave-37212/home/108114794,REALTRACS,2176609,N,Y,36.1189361,-86.7999657
MLS Listing,,Condo/Co-op,403 Westfield,Nashville,TN,37221,257000,3,2.5,Westfield,1586,,1987,1,162,175,Active,,,http://www.redfin.com/TN/Nashville/403-Westfield-Dr-37221/home/108094588,REALTRACS,2176592,N,Y,36.084551,-86.947218
MLS Listing,,Condo/Co-op,2020 Beech Ave Unit B15,Nashville,TN,37204,194900,1,1.0,Beechtree,625,435,1961,1,312,185,Active,,,http://www.redfin.com/TN/Nashville/2020-Beech-Ave-37204/unit-B15/home/108015346,REALTRACS,2176590,N,Y,36.1323084,-86.7802055
MLS Listing,,Single Family Residential,222 Walden Village Ln,Nashville,TN,37210,429900,3,2.5,Walden Village,1500,871,2017,1,287,136,Active,,,http://www.redfin.com/TN/Nashville/222-Walden-Village-Ln-37210/home/109505963,REALTRACS,2176583,N,Y,36.141691,-86.748912
MLS Listing,,Condo/Co-op,700 James Ave #14,Nashville,TN,37209,349900,2,2.5,Rows At The Annex,1175,871,2018,1,298,140,Active,,,http://www.redfin.com/TN/Nashville/700-James-Ave-37209/unit-14/home/144312164,REALTRACS,2176568,N,Y,36.1622204,-86.8702423
MLS Listing,,Single Family Residential,3915 Estes Rd,Nashville,TN,37215,647700,4,3.0,Estes Chase,2693,2178,1986,1,241,350,Active,,,http://www.redfin.com/TN/Nashville/3915-Estes-Rd-37215/home/68775925,REALTRACS,2176565,N,Y,36.1080266,-86.8382274
MLS Listing,,Single Family Residential,807 Redwood Dr,Nashville,TN,37220,769900,4,3.5,Forest Acres,2949,43124,1959,1,261,,Active,,,http://www.redfin.com/TN/Nashville/807-Redwood-Dr-37220/home/105728710,REALTRACS,2176552,N,Y,36.056071,-86.776811
MLS Listing,,Single Family Residential,253 New Sawyer Brown Rd,Nashville,TN,37221,310000,3,2.0,Stacy Square,1323,9583,1971,1,234,,Active,,,http://www.redfin.com/TN/Nashville/253-New-Sawyer-Brown-Rd-37221/home/108114381,REALTRACS,2176547,N,Y,36.0870301,-86.9413842
MLS Listing,,Single Family Residential,2909 Chapelwood Dr,Hermitage,TN,37076,291900,3,2.0,Fleetwood,1493,5662,1987,2,196,27,Active,,,http://www.redfin.com/TN/Hermitage/2909-Chapelwood-Dr-37076/home/68861789,REALTRACS,2176534,N,Y,36.1716411,-86.6164026
MLS Listing,,Single Family Residential,317 Sarver Ave,Madison,TN,37115,149900,4,2.0,Shannon Place,1552,16552,1948,2,97,,Active,,,http://www.redfin.com/TN/Madison/317-Sarver-Ave-37115/home/108024054,REALTRACS,2176531,N,Y,36.2751212,-86.7058521
MLS Listing,,Condo/Co-op,4846 Bevendean Dr Unit C10,Nashville,TN,37211,214900,2,1.0,Brighton Village,1000,,2009,2,215,132,Active,,,http://www.redfin.com/TN/Nashville/4846-Bevendean-Dr-37211/unit-C-10/home/105679080,REALTRACS,2176525,N,Y,36.0451819,-86.7382538
MLS Listing,,Single Family Residential,2407 Eden St,Nashville,TN,37208,230000,3,1.0,Hefferman,1064,7405,1940,2,216,,Active,,,http://www.redfin.com/TN/Nashville/2407-Eden-St-37208/home/60677067,REALTRACS,2176519,N,Y,36.1644537,-86.8126293
MLS Listing,,Single Family Residential,911 Phillips St,Nashville,TN,37208,525000,2,2.5,Hope Gardens,1824,3484,2007,2,288,,Active,August-9-2020 02:00 PM,August-9-2020 04:00 PM,http://www.redfin.com/TN/Nashville/911-Phillips-St-37208/home/68849289,REALTRACS,2176486,N,Y,36.1719167,-86.7924896
MLS Listing,,Townhouse,2318 Zermatt Ave,Nashville,TN,37211,264900,3,2.5,Rosemonte Townhomes,1400,871,2009,2,189,140,Active,August-9-2020 02:00 PM,August-9-2020 04:00 PM,http://www.redfin.com/TN/Nashville/2318-Zermatt-Ave-37211/home/62019345,REALTRACS,2176489,N,Y,36.0413967,-86.7210066
MLS Listing,,Single Family Residential,1023 Belvidere Dr,Nashville,TN,37204,849900,4,3.0,Green Hills/Lipscomb,2724,12632,1939,2,312,,Active,August-9-2020 02:00 PM,August-9-2020 04:00 PM,http://www.redfin.com/TN/Nashville/1023-Belvidere-Dr-37204/home/60832492,REALTRACS,2176474,N,Y,36.1027022,-86.7924362
MLS Listing,,Condo/Co-op,2929 Selena Dr Unit J-131,Nashville,TN,37211,162900,2,1.5,Kingswood,1043,1306,1974,2,156,215,Active,,,http://www.redfin.com/TN/Nashville/2929-Selena-Dr-37211/unit-J-131/home/172660479,REALTRACS,2176473,N,Y,36.1068051,-86.7327529
MLS Listing,,Single Family Residential,147 Harpeth Trace Smt #147,Nashville,TN,37221,369900,2,2.0,Harpeth Trace Highrise,1548,,1976,2,239,411,Active,,,http://www.redfin.com/TN/Nashville/147-Harpeth-Trace-Dr-37221/unit-147/home/103185119,REALTRACS,2176470,N,Y,36.077796,-86.891777
MLS Listing,,Single Family Residential,2161 Brookview Dr,Nashville,TN,37214,310000,3,2.0,Donelson Meadows,1658,20908,1956,2,187,,Active,,,http://www.redfin.com/TN/Nashville/2161-Brookview-Dr-37214/home/108036482,REALTRACS,2176462,N,Y,36.1751651,-86.6941367
MLS Listing,,Single Family Residential,967 Ashland Place Dr,Nashville,TN,37218,259900,2,2.5,Ashland Place Townhomes,1123,,2020,2,231,150,Active,,,http://www.redfin.com/TN/Nashville/967-Ashland-Place-Dr-37218/home/172632412,REALTRACS,2176454,N,Y,36.20728935,-86.85831624
MLS Listing,,Single Family Residential,937 Ashland Place Dr,Nashville,TN,37218,275000,3,2.5,Ashland Place Townhomes,1554,,2020,2,177,150,Active,,,http://www.redfin.com/TN/Nashville/937-Ashland-Place-Dr-37218/home/172660220,REALTRACS,2176452,N,Y,36.2069782,-86.85832536
MLS Listing,,Single Family Residential,939 Ashland Place Dr,Nashville,TN,37218,299900,3,3.0,Ashland Place Townhomes,1482,,2020,2,202,150,Active,,,http://www.redfin.com/TN/Nashville/939-Ashland-Place-Dr-37218/home/172660218,REALTRACS,2176450,N,Y,36.20682874,-86.85847307
MLS Listing,,Single Family Residential,1125 Hitt Ln,Goodlettsville,TN,37072,1685000,5,6.0,M O Shane Property,7008,398574,1984,2,240,,Active,,,http://www.redfin.com/TN/Goodlettsville/1125-Hitt-Ln-37072/home/108116925,REALTRACS,2176448,N,Y,36.312038,-86.735614
MLS Listing,,Single Family Residential,1514 Arthur Ave Unit A,Nashville,TN,37208,524900,3,2.5,Arthur Avenue Brownstones,1983,1306,2016,2,265,,Active,,,http://www.redfin.com/TN/Nashville/1514-Arthur-Ave-37208/unit-A/home/108046778,REALTRACS,2176430,N,Y,36.1760499,-86.798761
MLS Listing,,Single Family Residential,3833 Dr Walter S Davis Blvd,Nashville,TN,37209,434900,4,3.5,Nashville,2273,7405,2020,2,191,,Active,,,http://www.redfin.com/TN/Nashville/3833-S-Dr-Walter-Davis-Blvd-37209/home/87804762,REALTRACS,2176427,N,Y,36.1663219,-86.8343978
MLS Listing,,Single Family Residential,5216 Pennsylvania Ave,Nashville,TN,37209,699900,4,3.0,Nations,2691,7840,2016,2,260,,Active,August-9-2020 02:00 PM,August-9-2020 04:00 PM,http://www.redfin.com/TN/Nashville/5216-Pennsylvania-Ave-37209/home/109087268,REALTRACS,2176425,N,Y,36.1634144,-86.8519306
MLS Listing,,Condo/Co-op,700 James Ave #9,Nashville,TN,37209,369900,3,3.0,Rows At The Annex,1522,871,2020,2,243,140,Active,,,http://www.redfin.com/TN/Nashville/700-James-Ave-37209/unit-9/home/148398229,REALTRACS,2176414,N,Y,36.1622204,-86.8702423
MLS Listing,,Single Family Residential,1611B Porter Ave,Nashville,TN,37206,534900,3,3.5,Porter Avenue Townhomes,2370,1306,2017,2,226,,Active,August-9-2020 02:00 PM,August-9-2020 04:00 PM,http://www.redfin.com/TN/Nashville/1611B-Porter-Ave-37206/home/172308482,REALTRACS,2176413,N,Y,36.1964705,-86.7250163
MLS Listing,,Single Family Residential,431 Dupont Ave,Madison,TN,37115,150000,3,1.0,Woodlawn Estates,1260,8276,1940,2,119,,Active,,,http://www.redfin.com/TN/Madison/431-Dupont-Ave-37115/home/108109058,REALTRACS,2176411,N,Y,36.2664241,-86.7038668
MLS Listing,,Condo/Co-op,5602 Morrow Rd,Nashville,TN,37209,455000,3,3.5,Nations,1708,871,2016,2,266,150,Active,,,http://www.redfin.com/TN/Nashville/5602-Morrow-Rd-37209/unit-2/home/112484190,REALTRACS,2176387,N,Y,36.1592673,-86.8555037
MLS Listing,,Single Family Residential,814 N 5th St,Nashville,TN,37207,549900,4,3.0,Cleveland Park,2215,8276,2016,2,248,,Active,,,http://www.redfin.com/TN/Nashville/814-N-5th-St-37207/home/104210114,REALTRACS,2176384,N,Y,36.1852651,-86.7636809
MLS Listing,,Single Family Residential,960 Overton Lea Rd,Nashville,TN,37220,8000000,6,9.5,Bridle Path Estates,10462,178595,2018,2,765,,Active,,,http://www.redfin.com/TN/Nashville/960-Overton-Lea-Rd-37220/home/60906477,REALTRACS,2176380,N,Y,36.0764846,-86.7889454
MLS Listing,,Single Family Residential,2222 Weona Dr,Nashville,TN,37214,235000,2,1.0,Maplecrest,816,18730,1957,2,288,,Active,,,http://www.redfin.com/TN/Nashville/2222-Weona-Dr-37214/home/60857927,REALTRACS,2176379,N,Y,36.1794889,-86.6907872
MLS Listing,,Single Family Residential,217 Lovell St,Madison,TN,37115,219900,2,1.0,Overlook Estates,840,7405,1948,2,262,,Active,,,http://www.redfin.com/TN/Madison/217-Lovell-St-37115/home/107981377,REALTRACS,2176367,N,Y,36.2684116,-86.7080931
MLS Listing,,Single Family Residential,125 Fern Ave,Nashville,TN,37207,1200000,4,5.0,Weakley & Dodd/Brooklyn,4950,9583,2019,2,242,,Active,,,http://www.redfin.com/TN/Nashville/125-Fern-Ave-37207/home/60803469,REALTRACS,2176357,N,Y,36.1970557,-86.7811261
MLS Listing,,Single Family Residential,5417 Kentucky Ave,Nashville,TN,37209,620000,4,3.0,Nations/ West Nashville,2590,6098,2015,2,239,,Active,,,http://www.redfin.com/TN/Nashville/5417-Kentucky-Ave-37209/home/62360020,REALTRACS,2176352,N,Y,36.1595395,-86.8540952
MLS Listing,,Vacant Land,2940 Morgan Rd,Joelton,TN,37080,900000,,,Morgan Rd,,2445458,,2,,,Active,,,http://www.redfin.com/TN/Joelton/2940-Morgan-Rd-37080/home/62123935,REALTRACS,2176351,N,Y,36.338602,-86.857156
MLS Listing,,Single Family Residential,125 Abbottsford,Nashville,TN,37215,1255000,4,4.5,Abbottsford,5194,7840,1990,2,242,270,Active,,,http://www.redfin.com/TN/Nashville/125-Abbottsford-37215/home/108094623,REALTRACS,2176347,N,Y,36.1044992,-86.8275447
MLS Listing,,Vacant Land,7500 Wilkinson Rd,Joelton,TN,37080,600000,,,Morgan Rd,,2728162,,2,,,Active,,,http://www.redfin.com/TN/Joelton/7500-Wilkinson-Rd-37080/home/62123491,REALTRACS,2176344,N,Y,36.340925,-86.850779
MLS Listing,,Single Family Residential,4608 Georgia Ave,Nashville,TN,37209,299999,3,2.0,West Nashville,1372,6098,1920,2,219,,Active,,,http://www.redfin.com/TN/Nashville/4608-Georgia-Ave-37209/home/108086949,REALTRACS,2176338,N,Y,36.1557409,-86.843426
MLS Listing,,Single Family Residential,5950 Edmondson Pike,Nashville,TN,37211,526990,5,3.5,Cameron Park,3106,,2020,2,170,85,Active,,,http://www.redfin.com/TN/Nashville/5950-Edmondson-Pike-37211/home/101643907,REALTRACS,2176308,N,Y,36.025824,-86.741322
MLS Listing,,Single Family Residential,1202 Saturn Dr,Nashville,TN,37217,165000,2,1.0,Stardust Acres,859,10018,1948,2,192,,Active,,,http://www.redfin.com/TN/Nashville/1202-Saturn-Dr-37217/home/60813991,REALTRACS,2176303,N,Y,36.1241499,-86.6994936
MLS Listing,,Single Family Residential,5014 Madeline Dr,Nashville,TN,37211,240000,3,1.0,Fairlane Park,950,28749,1956,2,253,,Active,,,http://www.redfin.com/TN/Nashville/5014-Madeline-Dr-37211/home/68825385,REALTRACS,2176297,N,Y,36.0609008,-86.7108924
MLS Listing,,Single Family Residential,2890 Charles Park Dr,Nashville,TN,37211,516990,4,3.5,Cameron Park,2726,,2020,2,190,85,Active,,,http://www.redfin.com/TN/Nashville/2890-Charles-Park-Dr-37211/home/172658646,REALTRACS,2176294,N,Y,36.0255249,-86.7377043
MLS Listing,,Single Family Residential,277 Stephens Valley Blvd,Nashville,TN,37221,709900,3,2.5,Stephens Valley Sec3,2759,7405,2020,2,257,83,Active,,,http://www.redfin.com/TN/Nashville/Stephens-Valley-Blvd-37221/home/169632768,REALTRACS,2176291,N,Y,36.02851655,-86.96699103
MLS Listing,,Single Family Residential,1212 3rd Ave S,Nashville,TN,37210,799000,3,4.0,Wedgewood Houston Chestnut,2658,4356,2007,2,301,,Active,,,http://www.redfin.com/TN/Nashville/1212-3rd-Ave-S-37210/unit-A/home/108007329,REALTRACS,2176255,N,Y,36.144619,-86.764858
MLS Listing,,Single Family Residential,2611 Airpark Dr,Nashville,TN,37206,450000,3,2.0,Dugger Heights,1361,15681,1955,2,331,,Active,,,http://www.redfin.com/TN/Nashville/2611-Airpark-Dr-37206/home/107997209,REALTRACS,2176233,N,Y,36.1914201,-86.7064924
MLS Listing,,Condo/Co-op,3639 Hydes Ferry Rd,Nashville,TN,37218,349000,3,2.5,Hydes Ferry Venture Townho,1615,871,2019,2,216,94,Active,,,http://www.redfin.com/TN/Nashville/3639-Hydes-Ferry-Rd-37218/home/167934085,REALTRACS,2176222,N,Y,36.193158,-86.842347
MLS Listing,,Townhouse,210 Old Hickory Blvd #69 #69,Nashville,TN,37221,184900,2,1.5,Belle Forest,1116,435,1969,2,166,268,Active,,,http://www.redfin.com/TN/Nashville/210-Old-Hickory-Blvd-37221/unit-69/home/104323943,REALTRACS,2176219,N,Y,36.0803043,-86.9174238
MLS Listing,,Single Family Residential,600 Lakemeade Pt,Old Hickory,TN,37138,750000,4,5.0,Villas Of Lakemeade,4831,11761,2007,2,155,,Active,,,http://www.redfin.com/TN/Old-Hickory/600-Lake-Meade-Pt-37138/home/108120140,REALTRACS,2176210,N,Y,36.2450101,-86.6321322
MLS Listing,,Single Family Residential,787 Myhr Dr,Nashville,TN,37221,,3,3.0,Harpeth Valley Park,1982,13068,1969,2,,,Active,,,http://www.redfin.com/TN/Nashville/787-Myhr-Dr-37221/home/108011892,REALTRACS,2176202,N,Y,36.0572638,-86.9389532
MLS Listing,,Single Family Residential,4805A Tennessee Ave,Nashville,TN,37209,365000,3,2.5,West Park Townhomes,1606,871,2010,2,227,,Active,,,http://www.redfin.com/TN/Nashville/4805A-Tennessee-Ave-37209/home/105243336,REALTRACS,2176198,N,Y,36.160802,-86.8456742
MLS Listing,,Single Family Residential,2301 Chickering Ln,Nashville,TN,37215,1385000,4,4.5,Forest Hills/Chickering,4640,120661,1959,2,298,,Active,,,http://www.redfin.com/TN/Nashville/2301-Chickering-Ln-37215/home/108130410,REALTRACS,2176196,N,Y,36.067738,-86.859255
MLS Listing,,Single Family Residential,20 Rutledge St #307,Nashville,TN,37210,1525000,3,3.5,CityLights,2502,3049,2019,2,610,926,Active,,,http://www.redfin.com/TN/Nashville/20-Rutledge-St-37210/unit-307/home/163583053,REALTRACS,2176193,N,Y,36.1563236,-86.7698267
MLS Listing,,Single Family Residential,4916 Kentucky Ave,Nashville,TN,37209,629900,4,3.5,Nashville,2464,1306,2020,2,256,,Active,,,http://www.redfin.com/TN/Nashville/4916-Kentucky-Ave-37209/home/172657094,REALTRACS,2176179,N,Y,36.1601641,-86.8475094
MLS Listing,,Townhouse,1100 Russell St #102,Nashville,TN,37206,525000,2,2.5,MC3 Building,1536,871,2008,2,342,240,Active,August-9-2020 02:00 PM,August-9-2020 04:00 PM,http://www.redfin.com/TN/Nashville/1100-Russell-St-37206/unit-102/home/108139704,REALTRACS,2176167,N,Y,36.1750429,-86.749806
MLS Listing,,Single Family Residential,802 Lawrence St,Old Hickory,TN,37138,265000,3,1.5,Village Of Old Hickory,1180,5227,1927,2,225,,Active,,,http://www.redfin.com/TN/Old-Hickory/802-Lawrence-St-37138/home/108112816,REALTRACS,2176158,N,Y,36.2626553,-86.6471403
MLS Listing,,Single Family Residential,212 Sterling Oaks Pl,Brentwood,TN,37027,489900,4,2.5,Sterling Oaks,3543,6969,2000,2,138,50,Active,,,http://www.redfin.com/TN/Brentwood/212-Sterling-Oaks-Pl-37027/home/68854624,REALTRACS,2176157,N,Y,36.0353948,-86.7475145
MLS Listing,,Single Family Residential,4469 Frost St,Nashville,TN,37214,279900,3,2.5,Abbington Park,1487,8712,2004,3,188,23,Active,,,http://www.redfin.com/TN/Nashville/4469-Frost-St-37214/home/68842717,REALTRACS,2176144,N,Y,36.237524,-86.6947282
MLS Listing,,Single Family Residential,555 Church St #2100,Nashville,TN,37219,839900,2,2.5,Cumberland Penthouse,1451,871,1998,3,579,680,Active,,,http://www.redfin.com/TN/Nashville/555-Church-St-37219/unit-2100/home/60644695,REALTRACS,2176131,N,Y,36.1625812,-86.7811746
MLS Listing,,Single Family Residential,405 Amber Ct,Nashville,TN,37221,374900,3,2.0,Amber Hills,2134,12196,1995,3,176,10,Active,,,http://www.redfin.com/TN/Nashville/405-Amber-Ct-37221/home/107987949,REALTRACS,2176129,N,Y,36.0558779,-86.9521247
MLS Listing,,Single Family Residential,700 Boscobel St,Nashville,TN,37206,665000,3,2.0,J S Williams,2340,8712,1899,3,284,,Active,,,http://www.redfin.com/TN/Nashville/700-Boscobel-St-37206/home/108033978,REALTRACS,2176115,N,Y,36.1702245,-86.7582311
MLS Listing,,Single Family Residential,913B Delmas Ave,Nashville,TN,37216,479900,4,3.5,Nashville,2310,11325,2020,3,208,,Active,August-8-2020 02:00 PM,August-8-2020 04:00 PM,http://www.redfin.com/TN/Nashville/913-Delmas-Ave-37216/home/108112942,REALTRACS,2176106,N,Y,36.201163,-86.746046
MLS Listing,,Single Family Residential,9448 Little East Fork Rd,Franklin,TN,37064,925000,4,4.0,Little East Fork,3600,317988,2020,3,257,,Active,,,http://www.redfin.com/TN/Franklin/9448-E-Little-Fork-Rd-37064/home/172652808,REALTRACS,2176105,N,Y,36.0023083,-87.0248811
MLS Listing,,Single Family Residential,2529 Slaydon Dr,Nashville,TN,37207,289000,3,2.0,Shepardwood,1144,9583,1995,3,253,,Active,,,http://www.redfin.com/TN/Nashville/2529-Slaydon-Dr-37207/home/107998221,REALTRACS,2176102,N,Y,36.2109241,-86.7521859
MLS Listing,,Condo/Co-op,1122 Litton Ave #303,Nashville,TN,37216,235000,1,1.0,Solo East,806,871,2017,3,292,163,Active,,,http://www.redfin.com/TN/Nashville/1122-Litton-Ave-37216/unit-303/home/112483492,REALTRACS,2176099,N,Y,36.2020359,-86.7372762
MLS Listing,,Single Family Residential,1107 Jackson St,Nashville,TN,37208,460900,3,2.5,Hope Gardens,1577,2613,2007,3,292,,Active,,,http://www.redfin.com/TN/Nashville/1107-Jackson-St-37208/home/108088541,REALTRACS,2176097,N,Y,36.169444,-86.796008
MLS Listing,,Condo/Co-op,2727 Linmar Ave #2727,Nashville,TN,37215,239900,2,2.0,Linmar Place III,1000,1306,1988,3,240,180,Active,,,http://www.redfin.com/TN/Nashville/2727-Linmar-Ave-37215/unit-2727/home/172077168,REALTRACS,2176096,N,Y,36.126792,-86.816353
MLS Listing,,Single Family Residential,105 Cedar Ash Ct,Antioch,TN,37013,264000,3,2.5,Asheford Crossing,1838,8276,1996,3,144,15,Active,,,http://www.redfin.com/TN/Antioch/105-Cedar-Ash-Ct-37013/home/108133958,REALTRACS,2176084,N,Y,36.0441917,-86.6266305
MLS Listing,,Condo/Co-op,408 Rose Hall,Nashville,TN,37212,339900,2,2.0,Rose Hall,1250,1306,1988,3,272,300,Active,,,http://www.redfin.com/TN/Nashville/408-Rose-Hall-37212/home/107976394,REALTRACS,2176083,N,Y,36.140516,-86.816017
MLS Listing,,Townhouse,5519 Thalman Dr,Brentwood,TN,37027,339000,3,2.0,Brentwood Meadows,1890,9583,1987,3,179,,Active,August-9-2020 02:00 PM,August-9-2020 04:00 PM,http://www.redfin.com/TN/Brentwood/5519-Thalman-Dr-37027/home/108102870,REALTRACS,2176071,N,Y,36.044802,-86.749889
MLS Listing,,Single Family Residential,1005A Mitchell Rd,Nashville,TN,37206,459900,4,3.0,Rosebank,2046,12632,1955,3,225,,Active,,,http://www.redfin.com/TN/Nashville/1005-Mitchell-Rd-37206/home/108122960,REALTRACS,2176051,N,Y,36.1832676,-86.7147717
MLS Listing,,Single Family Residential,212 Aparna Ct,Whites Creek,TN,37189,699900,4,3.5,Creek Trail,3874,182080,2005,3,181,,Active,,,http://www.redfin.com/TN/Whites-Creek/212-Aparna-Ct-37189/home/108074563,REALTRACS,2176048,N,Y,36.2707369,-86.783645
MLS Listing,,Condo/Co-op,806 Olympic St #404,Nashville,TN,37203,423900,1,1.0,Alina,744,17424,2020,3,570,2901,Active,,,http://www.redfin.com/TN/Nashville/806-Olympic-St-37203/unit-404/home/172652061,REALTRACS,2176040,N,Y,36.1438572,-86.7797717
MLS Listing,,Single Family Residential,7355 Rolling River Pkwy,Nashville,TN,37221,,3,2.0,Rolling River Estates,2245,22215,1976,3,,48,Active,,,http://www.redfin.com/TN/Nashville/7355-Rolling-River-Pkwy-37221/home/108004976,REALTRACS,2176032,N,Y,36.0611972,-86.9704081
MLS Listing,,Condo/Co-op,1612A Douglas Ave,Nashville,TN,37206,525000,4,3.0,Dr E T Browns/Brownsville,2099,,2020,3,250,,Active,,,http://www.redfin.com/TN/Nashville/1612-Douglas-Ave-37206/home/107989802,REALTRACS,2176003,N,Y,36.1913956,-86.7346632
MLS Listing,,Condo/Co-op,1350 Rosa L Parks Blvd #415,Nashville,TN,37208,405000,2,2.0,Werthan Lofts,1144,435,2008,3,354,328,Active,,,http://www.redfin.com/TN/Nashville/1350-Rosa-L-Parks-Blvd-37208/unit-415/home/60658783,REALTRACS,2175997,N,Y,36.1774256,-86.7936844
MLS Listing,,Condo/Co-op,510 31st Ave N,Nashville,TN,37209,645000,3,3.5,Elevate At City Heights,2073,871,2018,3,311,135,Active,,,http://www.redfin.com/TN/Nashville/510-31st-Ave-N-37209/home/144498413,REALTRACS,2175961,N,Y,36.1550847,-86.8213842
MLS Listing,,Single Family Residential,2531 Ashwood Ave,Nashville,TN,37212,519000,2,1.0,Sunset Park,1032,7840,1931,3,503,,Active,,,http://www.redfin.com/TN/Nashville/2531-Ashwood-Ave-37212/home/87805237,REALTRACS,2175960,N,Y,36.1300604,-86.810089
MLS Listing,,Single Family Residential,4405 Scenic Dr,Nashville,TN,37204,749999,4,3.0,Green Hills,2069,38768,1955,3,362,,Active,,,http://www.redfin.com/TN/Nashville/4405-Scenic-Dr-37204/home/107985187,REALTRACS,2175946,N,Y,36.092707,-86.7953153
MLS Listing,,Condo/Co-op,508 31st Ave N,Nashville,TN,37209,645000,3,3.5,Elevate At City Heights,2073,871,2018,3,311,135,Active,,,http://www.redfin.com/TN/Nashville/508-31st-Ave-N-37209/home/144498412,REALTRACS,2175932,N,Y,36.155104,-86.821044
MLS Listing,,Single Family Residential,24 Northumberland,Nashville,TN,37215,2600000,5,6.0,Northumberland,7339,43560,1986,3,354,450,Active,,,http://www.redfin.com/TN/Nashville/24-Northumberland-37215/home/60738580,REALTRACS,2175921,N,Y,36.089459,-86.835309
MLS Listing,,Single Family Residential,1009B Glendale Ln,Nashville,TN,37204,1980000,5,4.0,Oak Hill,3494,21780,2012,3,567,,Active,,,http://www.redfin.com/TN/Nashville/1009B-Glendale-Ln-37204/home/172651264,REALTRACS,2175922,N,Y,36.0920916,-86.791734
MLS Listing,,Single Family Residential,5132 Boxcroft Pl,Nashville,TN,37205,1275000,3,3.5,Belle Meade / Boxcroft,3786,7840,1977,3,337,50,Active,,,http://www.redfin.com/TN/Nashville/5132-Boxcroft-Pl-37205/home/108003813,REALTRACS,2175885,N,Y,36.1034736,-86.8667986
MLS Listing,,Single Family Residential,1138 Tyne Blvd,Nashville,TN,37220,2600000,5,5.5,Oak Hill,6055,72309,2009,3,429,,Active,,,http://www.redfin.com/TN/Nashville/1138-Tyne-Blvd-37220/home/108115305,REALTRACS,2175852,N,Y,36.081036,-86.804765
MLS Listing,,Single Family Residential,6217 Deerbrook Dr,Nashville,TN,37221,432500,3,2.5,Traceside,2694,10454,1996,3,161,66,Active,,,http://www.redfin.com/TN/Nashville/6217-Deerbrook-Dr-37221/home/68770167,REALTRACS,2175833,N,Y,36.0333885,-86.9602549
MLS Listing,,Single Family Residential,1031 Rachels Square Dr,Hermitage,TN,37076,185500,2,1.5,Rachels Square,1032,,1985,3,180,50,Active,,,http://www.redfin.com/TN/Hermitage/1031-Rachels-Square-Dr-37076/home/108020920,REALTRACS,2175819,N,Y,36.200336,-86.605427
MLS Listing,,Single Family Residential,4620 Tara Dr,Nashville,TN,37215,949000,4,3.0,Tynewood Estates,3090,55321,1960,3,307,,Active,,,http://www.redfin.com/TN/Nashville/4620-Tara-Dr-37215/home/96850904,REALTRACS,2175793,N,Y,36.087367,-86.819671
MLS Listing,,Vacant Land,7730 Hwy 70 S,Nashville,TN,37221,1100000,,,Lcd Lots 1 & 2,,74487,,3,,,Active,,,http://www.redfin.com/TN/Nashville/7730-Hwy-70-S-37221/home/146451344,REALTRACS,2175791,N,Y,36.0833001,-86.9585233
MLS Listing,,Single Family Residential,252 Bonnacroft Dr,Hermitage,TN,37076,265000,3,1.5,Hermitage Hills,1658,11761,1967,3,160,,Active,,,http://www.redfin.com/TN/Hermitage/252-Bonnacroft-Dr-37076/home/107989427,REALTRACS,2175789,N,Y,36.1981633,-86.6260485
MLS Listing,,Single Family Residential,4902 Illinois Ave,Nashville,TN,37209,799900,4,1.0,West Nashville,3950,10890,1973,3,203,,Active,,,http://www.redfin.com/TN/Nashville/4902-Illinois-Ave-37209/home/172649734,REALTRACS,2175785,N,Y,36.158026,-86.846563
MLS Listing,,Single Family Residential,1611 Marshall Hollow Dr,Nashville,TN,37203,724900,4,3.5,Southgate Station,2709,,2020,3,268,100,Active,,,http://www.redfin.com/TN/Nashville/1611-Marshall-Hollow-Dr-37203/home/167945882,REALTRACS,2175777,N,Y,36.136539,-86.767479
MLS Listing,,Single Family Residential,472 High Point Ter,Brentwood,TN,37027,494950,3,2.5,Jackson Valley,2648,5227,2014,3,187,100,Active,,,http://www.redfin.com/TN/Brentwood/472-High-Point-Ter-37027/home/60711812,REALTRACS,2175776,N,Y,36.0040771,-86.6938195
MLS Listing,,Single Family Residential,7201 Natchez Pointe Dr,Nashville,TN,37221,627900,4,3.5,Natchez Pointe,3944,16552,2017,3,159,40,Active,,,http://www.redfin.com/TN/Nashville/7201-Natchez-Pointe-Dr-37221/home/60887423,REALTRACS,2175767,N,Y,36.045395,-86.982189
MLS Listing,,Townhouse,3831 W End Ave #27,Nashville,TN,37205,179000,1,1.0,3831 Condominiums,756,871,1963,3,237,179,Active,,,http://www.redfin.com/TN/Nashville/3831-W-End-Ave-37205/unit-27/home/108137120,REALTRACS,2175763,N,Y,36.1310362,-86.8340112
MLS Listing,,Single Family Residential,905 Weeping Willow Way,Goodlettsville,TN,37072,239500,3,2.0,Willow Village,1498,20037,2004,4,160,,Active,,,http://www.redfin.com/TN/Goodlettsville/905-Weeping-Willow-Way-37072/home/108056289,REALTRACS,2175736,N,Y,36.2908666,-86.7400402
MLS Listing,,Single Family Residential,1610 Forrest Ave,Nashville,TN,37206,999000,5,3.5,Lockeland,3814,6534,2017,4,262,,Active,,,http://www.redfin.com/TN/Nashville/1610-Forrest-Ave-37206/home/103949627,REALTRACS,2175732,N,Y,36.1775106,-86.7407624
MLS Listing,,Single Family Residential,1051 Nave Ct,Nashville,TN,37214,480850,4,3.5,Donelson Downs,2949,8276,2019,4,163,30,Active,August-8-2020 11:00 AM,August-8-2020 05:00 PM,http://www.redfin.com/TN/Nashville/1051-Nave-CT-37214/home/170507445,REALTRACS,2175700,N,Y,36.17356,-86.650834
MLS Listing,,Single Family Residential,8503 Newsom Station Rd,Nashville,TN,37221,739900,4,3.5,Nashville,3672,403365,2016,4,201,,Active,,,http://www.redfin.com/TN/Nashville/8503-Newsom-Station-Rd-37221/home/168903283,REALTRACS,2175699,N,Y,36.0897277,-86.9891483
MLS Listing,,Single Family Residential,1902 Hailey Ave,Nashville,TN,37218,339000,8,6.0,Haleys/Sheegog,2636,11325,1945,4,129,,Active,,,http://www.redfin.com/TN/Nashville/1902-Hailey-Ave-37218/home/60836460,REALTRACS,2175694,N,Y,36.1902174,-86.8314563
MLS Listing,,Single Family Residential,2980 Jenry Dr,Nashville,TN,37214,599450,5,4.5,Donelson Downs,3967,8276,2020,4,151,30,Active,August-8-2020 11:00 AM,August-8-2020 05:00 PM,http://www.redfin.com/TN/Nashville/2980-Jenry-Dr-37214/home/171170518,REALTRACS,2175685,N,Y,36.173806,-86.652988
MLS Listing,,Single Family Residential,945 Woodmont Blvd,Nashville,TN,37204,839900,4,3.5,945 Woodmont Boulevard,3011,2178,2020,4,279,,Active,,,http://www.redfin.com/TN/Nashville/945-Woodmont-Blvd-37204/home/87806382,REALTRACS,2175672,N,Y,36.1105264,-86.7865825
MLS Listing,,Single Family Residential,1423 Timber Valley Dr,Nashville,TN,37214,249500,4,2.5,Percy Priest Woods,1645,6534,1984,4,152,,Active,,,http://www.redfin.com/TN/Nashville/1423-Timber-Valley-Dr-37214/home/108113920,REALTRACS,2175665,N,Y,36.1291182,-86.6371168
MLS Listing,,Vacant Land,3420 Gwen Dr,Nashville,TN,37207,199000,,,Timberwood,,69696,,4,,,Active,,,http://www.redfin.com/TN/Nashville/3420-Gwen-Dr-37207/home/108023698,REALTRACS,2175658,N,Y,36.243729,-86.778247
MLS Listing,,Single Family Residential,146 Bonnafield Dr,Hermitage,TN,37076,294900,3,1.5,Hermitage Hills,1425,8712,1965,4,207,,Active,,,http://www.redfin.com/TN/Hermitage/146-Bonnafield-Dr-37076/home/107975650,REALTRACS,2175651,N,Y,36.2083525,-86.6323919
MLS Listing,,Single Family Residential,4612 Packard Dr,Nashville,TN,37211,235000,3,1.5,Haywood Forest,1067,7840,1980,4,220,,Active,,,http://www.redfin.com/TN/Nashville/4612-Packard-Dr-37211/home/108043589,REALTRACS,2175649,N,Y,36.063105,-86.690544
MLS Listing,,Single Family Residential,1205 Westridge Ct,Antioch,TN,37013,275000,3,2.0,Dreamland Estates,1329,13503,2007,5,207,,Active,,,http://www.redfin.com/TN/Antioch/1205-Westridge-Ct-37013/home/107976214,REALTRACS,2175610,N,Y,36.0336601,-86.7090783
MLS Listing,,Single Family Residential,5813 Vine Ridge Dr,Nashville,TN,37205,1729000,4,4.5,Hillwood Estates,5455,39639,2020,5,317,,Active,August-9-2020 01:00 PM,August-9-2020 01:30 PM,http://www.redfin.com/TN/Nashville/5813-Vine-Ridge-Dr-37205/home/60867680,REALTRACS,2175606,N,Y,36.1317219,-86.8651807
MLS Listing,,Single Family Residential,1000 Stainback Ave,Nashville,TN,37207,1200000,4,3.0,Cleveland Park,3554,14374,1899,5,338,,Active,,,http://www.redfin.com/TN/Nashville/1000-Stainback-Ave-37207/home/108052406,REALTRACS,2175605,N,Y,36.1882484,-86.7657245
MLS Listing,,Single Family Residential,4857 Cimarron Way,Antioch,TN,37013,250000,4,2.5,Apache Hills,1706,12632,1970,5,147,,Active,,,http://www.redfin.com/TN/Antioch/4857-Cimarron-Way-37013/home/85252807,REALTRACS,2175600,N,Y,36.0607481,-86.6861109
MLS Listing,,Condo/Co-op,1033 Dickerson Pike,Nashville,TN,37207,390000,2,2.5,First North Townhomes,1359,435,2016,5,287,179,Active,,,http://www.redfin.com/TN/Nashville/1033-Dickerson-Pike-37207/home/104495029,REALTRACS,2175597,N,Y,36.1905067,-86.7726362
MLS Listing,,Condo/Co-op,2120 Lebanon Pike #122,Nashville,TN,37210,210500,2,2.0,Easthaven,1126,1306,2002,5,187,110,Active,,,http://www.redfin.com/TN/Nashville/2120-Lebanon-Pike-37210/unit-122/home/108029171,REALTRACS,2175594,N,Y,36.1635517,-86.7015228
MLS Listing,,Single Family Residential,2935 Walnut Crest Dr,Antioch,TN,37013,315000,3,2.0,Forest View Park,2088,17859,1968,5,151,,Active,,,http://www.redfin.com/TN/Antioch/2935-Walnut-Crest-Dr-37013/home/108009740,REALTRACS,2175590,N,Y,36.0699113,-86.6266963
MLS Listing,,Single Family Residential,634 Westboro Dr,Nashville,TN,37209,385000,4,2.0,Westboro,1700,9147,1958,5,226,,Active,,,http://www.redfin.com/TN/Nashville/634-Westboro-Dr-37209/home/108052798,REALTRACS,2175589,N,Y,36.154898,-86.8776804
MLS Listing,,Single Family Residential,5644 Stoneway Trl,Nashville,TN,37209,475000,4,2.0,BROOKSIDE COURTS ADD,1676,13068,1964,5,283,,Active,,,http://www.redfin.com/TN/Nashville/5644-Stoneway-Trl-37209/home/108125960,REALTRACS,2175580,N,Y,36.1370426,-86.8611049
MLS Listing,,Single Family Residential,201 Kensington Park,Nashville,TN,37215,1095000,4,4.5,Abbottsford,7000,6098,1995,5,156,270,Active,,,http://www.redfin.com/TN/Nashville/201-Kensington-Park-37215/home/68781825,REALTRACS,2175545,N,Y,36.1079042,-86.8285644
MLS Listing,,Single Family Residential,106 Brookfield Ave,Nashville,TN,37205,2599999,5,6.0,Highlands Of Belle Meade,6514,20037,2020,5,399,,Active,,,http://www.redfin.com/TN/Nashville/106-Brookfield-Ave-37205/home/108067689,REALTRACS,2175531,N,Y,36.093718,-86.8748202
MLS Listing,,Single Family Residential,201 Delvin Dr,Antioch,TN,37013,279000,3,1.5,Valley Green,1465,10454,1973,5,190,,Active,,,http://www.redfin.com/TN/Antioch/201-Delvin-Dr-37013/home/108012579,REALTRACS,2175523,N,Y,36.0523526,-86.6926661
MLS Listing,,Single Family Residential,5025 Hillsboro Pike Unit 23C,Nashville,TN,37215,175000,1,1.0,Georgetown,771,435,1969,5,227,286,Active,,,http://www.redfin.com/TN/Nashville/5025-Hillsboro-Pike-37215/unit-23C/home/68716735,REALTRACS,2175505,N,Y,36.098563,-86.823129
MLS Listing,,Single Family Residential,222 2nd Ave,Madison,TN,37115,149900,2,1.0,Forest Park,728,5662,1935,5,206,,Active,,,http://www.redfin.com/TN/Madison/222-Second-Ave-37115/home/108049073,REALTRACS,2175412,N,Y,36.2604554,-86.7108156
MLS Listing,,Single Family Residential,943 Woodmont Blvd,Nashville,TN,37204,839900,4,3.5,945 Woodmont Boulevard,3011,2178,2020,5,279,,Active,,,http://www.redfin.com/TN/Nashville/943-Woodmont-Blvd-37204/home/171970106,REALTRACS,2175390,N,Y,36.1105087,-86.7865247
MLS Listing,,Vacant Land,1721 Rural Hl,Antioch,TN,37013,590000,,,Antioch,,588060,,5,,,Active,,,http://www.redfin.com/TN/Antioch/1721-Rural-Hill-Rd-37013/home/60892901,REALTRACS,2175388,N,Y,36.062653,-86.646838
MLS Listing,,Townhouse,115 Summit Ridge Ct,Nashville,TN,37215,250000,2,2.5,Four Seasons,1298,435,1978,5,193,423,Active,,,http://www.redfin.com/TN/Nashville/115-Summit-Ridge-Ct-37215/home/60662454,REALTRACS,2175384,N,Y,36.0935513,-86.8276656
MLS Listing,,Condo/Co-op,2600 Hillsboro Pike #229,Nashville,TN,37212,469000,2,2.0,The Enclave At Hillsboro V,1880,2178,2006,5,249,430,Active,,,http://www.redfin.com/TN/Nashville/2600-Hillsboro-Pike-37212/unit-229/home/108104630,REALTRACS,2175365,N,Y,36.1242966,-86.8043558
MLS Listing,,Single Family Residential,1332 Cheshire Dr,Nashville,TN,37207,274900,3,1.5,Bellshire Estates,1604,41382,1958,5,171,,Active,,,http://www.redfin.com/TN/Nashville/1332-Cheshire-Dr-37207/home/108119101,REALTRACS,2175363,N,Y,36.2673929,-86.7734311
MLS Listing,,Single Family Residential,4808 Redcastle Rdg,Nashville,TN,37211,579000,4,3.5,Winfield Park,3800,10018,2001,5,152,25,Active,,,http://www.redfin.com/TN/Nashville/4808-Redcastle-Rdg-37211/home/108099815,REALTRACS,2175359,N,Y,36.0174381,-86.7321483
MLS Listing,,Vacant Land,6128 Hill Circle Dr,Nashville,TN,37209,349900,,,Hill Circle,,11761,,5,,,Active,,,http://www.redfin.com/TN/Nashville/6128-Hill-Cir-Dr-37209/home/87813476,REALTRACS,2175358,N,Y,36.144003,-86.8670099
MLS Listing,,Single Family Residential,2511 Western Hills Dr,Nashville,TN,37214,295500,3,1.5,Sutherland Heights,1518,17424,1958,6,195,,Active,,,http://www.redfin.com/TN/Nashville/2511-Western-Hills-Dr-37214/home/108032840,REALTRACS,2175340,N,Y,36.2106464,-86.6828461
MLS Listing,,Single Family Residential,2719 Meharry Blvd,Nashville,TN,37208,409000,3,3.0,Nashville,1980,871,2020,6,207,,Active,,,http://www.redfin.com/TN/Nashville/2719-Meharry-Blvd-37208/home/170003081,REALTRACS,2175338,N,Y,36.1664092,-86.8197289
MLS Listing,,Single Family Residential,1621 Haynes Meade Cir,Nashville,TN,37207,249000,3,2.0,Haynes Meade,1900,28749,1961,6,131,,Active,,,http://www.redfin.com/TN/Nashville/1621-Haynes-Meade-Cir-37207/home/108113159,REALTRACS,2175335,N,Y,36.2027869,-86.787917
MLS Listing,,Single Family Residential,244 Antioch Pike,Nashville,TN,37211,415000,3,2.5,Flatrock,1894,11761,2015,6,219,,Active,,,http://www.redfin.com/TN/Nashville/244-Antioch-Pike-37211/home/102359932,REALTRACS,2175325,N,Y,36.101708,-86.736569
MLS Listing,,Townhouse,2025 Woodmont Blvd #221,Nashville,TN,37215,289000,2,2.0,Hillmont Condominiums,1171,1306,1995,6,247,450,Active,,,http://www.redfin.com/TN/Nashville/2025-Woodmont-Blvd-37215/unit-221/home/60654190,REALTRACS,2175321,N,Y,36.1125312,-86.8101669
MLS Listing,,Single Family Residential,415 Church St N #1003,Nashville,TN,37219,975000,2,2.0,Viridian,1470,3049,2006,6,663,730,Active,,,http://www.redfin.com/TN/Nashville/415-Church-St-37219/unit-1003/home/69443891,REALTRACS,2175316,N,Y,36.1632925,-86.7793631
MLS Listing,,Condo/Co-op,115B 46th Ave N,Nashville,TN,37209,1125000,5,4.5,Sylvan Park,3081,7840,2020,6,365,,Active,,,http://www.redfin.com/TN/Nashville/115-46th-Ave-N-37209/unit-A/home/87805526,REALTRACS,2175312,N,Y,36.14242,-86.84211
MLS Listing,,Single Family Residential,2418 Branch St,Nashville,TN,37216,465000,3,2.0,Waters Place,1653,10890,1940,6,281,,Active,August-8-2020 02:00 PM,August-8-2020 04:00 PM,http://www.redfin.com/TN/Nashville/2418-Branch-St-37216/home/87813359,REALTRACS,2175303,N,Y,36.2018815,-86.7246028
MLS Listing,,Single Family Residential,1011 Belle Meade Blvd,Nashville,TN,37205,2250000,3,3.5,Belle Meade,4093,50093,1974,6,550,,Active,,,http://www.redfin.com/TN/Nashville/1011-Belle-Meade-Blvd-37205/home/108087301,REALTRACS,2175299,N,Y,36.0882094,-86.8628489
MLS Listing,,Single Family Residential,7524 Oakledge Dr,Brentwood,TN,37027,424900,4,2.5,Autumn Oaks,2444,8276,2015,6,174,22,Active,,,http://www.redfin.com/TN/Brentwood/7524-Oakledge-Dr-37027/home/60722536,REALTRACS,2175277,N,Y,36.0046898,-86.6898474
MLS Listing,,Single Family Residential,1303A Porter Rd,Nashville,TN,37206,499897,3,2.5,1303 Porter Cottages,2256,1306,2016,6,222,,Active,August-9-2020 02:00 PM,August-9-2020 04:00 PM,http://www.redfin.com/TN/Nashville/1303A-Porter-Rd-37206/home/172643987,REALTRACS,2175275,N,Y,36.189799,-86.7282573
MLS Listing,,Single Family Residential,2537 Arbor Pointe Cv,Hermitage,TN,37076,449000,3,3.0,Arbor Crest,2970,12196,2016,6,151,35,Active,,,http://www.redfin.com/TN/Hermitage/2537-Arbor-Pointe-Cv-37076/home/107346167,REALTRACS,2175273,N,Y,36.1054388,-86.5592756
MLS Listing,,Condo/Co-op,2600 Hillsboro Pike #317,Nashville,TN,37212,399000,2,2.0,The Enclave At Hillsboro V,1556,1742,2006,6,256,366,Active,,,http://www.redfin.com/TN/Nashville/2600-Hillsboro-Pike-37212/unit-317/home/68713900,REALTRACS,2175271,N,Y,36.1249532,-86.8042302
MLS Listing,,Vacant Land,3310 Nevada Ave,Nashville,TN,37209,438000,,,Hortense Place,,7405,,6,,,Active,,,http://www.redfin.com/TN/Nashville/3310-Nevada-Ave-37209/home/68912284,REALTRACS,2175270,N,Y,36.149917,-86.825418
MLS Listing,,Single Family Residential,2726 Greer Rd,Goodlettsville,TN,37072,524900,3,2.5,Goodlettsville,2125,947430,2002,6,247,,Active,,,http://www.redfin.com/TN/Goodlettsville/2726-Greer-Rd-37072/home/108066147,REALTRACS,2175242,N,Y,36.346789,-86.789643
MLS Listing,,Single Family Residential,5495 Monroe Xing,Antioch,TN,37013,214990,2,2.5,Centerview At Provincetown,1350,,2020,6,159,80,Active,,,http://www.redfin.com/TN/Antioch/5495-Monroe-Xing-37013/home/172389171,REALTRACS,2175220,N,Y,36.0414433,-86.6318257
MLS Listing,,Townhouse,641 Old Hickory Blvd #212,Brentwood,TN,37027,344900,3,2.5,Townhomes Of Fredericksbur,1762,1306,1998,6,196,252,Active,,,http://www.redfin.com/TN/Brentwood/641-Old-Hickory-Blvd-37027/unit-212/home/107990801,REALTRACS,2175208,N,Y,36.0376069,-86.7650959
MLS Listing,,Single Family Residential,2018 10th Ave S,Nashville,TN,37204,1249000,4,4.0,12 South,3400,,2020,6,367,,Active,,,http://www.redfin.com/TN/Nashville/2018-10th-Ave-S-37204/home/148400999,REALTRACS,2175203,N,Y,36.1321048,-86.7857226
MLS Listing,,Townhouse,584 Griffin Cir,Hermitage,TN,37076,258900,3,2.5,Townhomes Of Truxton Villa,1772,1306,2010,6,146,167,Active,,,http://www.redfin.com/TN/Hermitage/584-Griffin-Cir-37076/home/108107554,REALTRACS,2175187,N,Y,36.2179155,-86.5945764
MLS Listing,,Condo/Co-op,1003 Scovel St,Nashville,TN,37208,330000,1,1.0,The Ludlow,784,871,2020,6,421,219,Active,,,http://www.redfin.com/TN/Nashville/1003-Scovel-St-37208/home/172641964,REALTRACS,2175167,N,Y,36.1731491,-86.7955254
MLS Listing,,Single Family Residential,3232 Penn Meade Way,Nashville,TN,37214,200000,3,2.0,River Glen,968,3049,2004,6,207,,Active,,,http://www.redfin.com/TN/Nashville/3232-Penn-Meade-Way-37214/home/108016333,REALTRACS,2175165,N,Y,36.2417444,-86.7019202
MLS Listing,,Single Family Residential,715A Powers Ave,Nashville,TN,37206,574900,3,2.5,East Nashville / Tillman,2967,1742,2015,6,194,,Active,,,http://www.redfin.com/TN/Nashville/715A-Powers-Ave-37206/home/147955029,REALTRACS,2175148,N,Y,36.1837166,-86.7306635
MLS Listing,,Townhouse,600 Thetford Aly,Brentwood,TN,37027,329900,2,3.5,Southpoint,1901,1306,2020,6,174,150,Active,,,http://www.redfin.com/TN/Brentwood/600-Thetford-ALY-37027/home/172641590,REALTRACS,2175145,N,Y,35.99612208,-86.68395185
MLS Listing,,Townhouse,602 Thetford Aly,Brentwood,TN,37027,324900,2,3.5,Southpoint,1901,1306,2020,6,171,150,Active,,,http://www.redfin.com/TN/Brentwood/602-Thetford-ALY-37027/home/172641589,REALTRACS,2175143,N,Y,35.99612208,-86.68395185
MLS Listing,,Townhouse,608 Thetford Aly,Brentwood,TN,37027,329900,2,3.5,Southpoint,1901,1306,2020,6,174,150,Active,,,http://www.redfin.com/TN/Brentwood/608-Thetford-ALY-37027/home/172641588,REALTRACS,2175141,N,Y,35.99612208,-86.68395185
MLS Listing,,Single Family Residential,1125 10th Ave N #401,Nashville,TN,37208,385000,1,1.0,The Ludlow,784,435,2020,6,491,220,Active,,,http://www.redfin.com/TN/Nashville/1125-10th-Ave-N-37208/unit-401/home/172641587,REALTRACS,2175140,N,Y,36.1731399,-86.7953212
MLS Listing,,Townhouse,618 Thetford Aly,Brentwood,TN,37027,304900,2,3.5,Southpoint,1692,1306,2020,6,180,150,Active,,,http://www.redfin.com/TN/Brentwood/618-Thetford-ALY-37027/home/172641586,REALTRACS,2175138,N,Y,35.99585868,-86.68399109
MLS Listing,,Townhouse,505 Whitstable Aly,Brentwood,TN,37027,334900,3,3.5,Southpoint,1979,,2020,6,169,150,Active,,,http://www.redfin.com/TN/Brentwood/505-Whitstable-ALY-37027/home/172641585,REALTRACS,2175136,N,Y,35.99553712,-86.68640336
MLS Listing,,Single Family Residential,3607 Bellwood Ave,Nashville,TN,37205,1250000,4,2.5,Bowling West End,3289,10454,1929,6,380,,Active,,,http://www.redfin.com/TN/Nashville/3607-Bellwood-Ave-37205/home/101390633,REALTRACS,2175135,N,Y,36.1258837,-86.8241788
MLS Listing,,Single Family Residential,2526 Sunset Pl,Nashville,TN,37212,534000,4,2.0,Hillsboro/West End/Sunset,1722,7405,1942,6,310,,Active,,,http://www.redfin.com/TN/Nashville/2526-Sunset-Pl-37212/home/87805231,REALTRACS,2175134,N,Y,36.1294087,-86.8095005
MLS Listing,,Single Family Residential,2705 Mckeige Dr,Nashville,TN,37214,239000,2,2.0,Perry Heights,1050,14374,1960,6,228,,Active,,,http://www.redfin.com/TN/Nashville/2705-Mckeige-Ct-37214/home/147986441,REALTRACS,2175133,N,Y,36.15419663,-86.67180148
MLS Listing,,Townhouse,104 Porter Ter,Nashville,TN,37206,224900,2,1.5,Porter Terrace,896,435,1985,6,251,85,Active,,,http://www.redfin.com/TN/Nashville/104-Porter-Ter-37206/home/108099472,REALTRACS,2175104,N,Y,36.1940781,-86.725438
MLS Listing,,Condo/Co-op,3704 Estes Rd Unit D,Nashville,TN,37215,695000,3,2.5,Estes Glen,2828,1306,1975,6,246,333,Active,,,http://www.redfin.com/TN/Nashville/3704-Estes-Rd-37215/unit-D/home/104501051,REALTRACS,2175094,N,Y,36.112923,-86.834226
MLS Listing,,Single Family Residential,804 Idlewild Dr,Madison,TN,37115,234900,4,2.0,Power & Roth Madison Park,1350,11761,2014,6,174,,Active,,,http://www.redfin.com/TN/Madison/804-Idlewild-Dr-37115/home/60693276,REALTRACS,2175085,N,Y,36.2526867,-86.7059664
MLS Listing,,Single Family Residential,2313 Somerset Valley Dr,Antioch,TN,37013,339933,3,2.5,Cambridge Park At Barnes R,2050,3484,2014,6,166,75,Active,,,http://www.redfin.com/TN/Antioch/2313-Somerset-Valley-Dr-37013/home/60678857,REALTRACS,2175081,N,Y,36.0319839,-86.6988924
MLS Listing,,Single Family Residential,635 Bristol Creek Dr,Nashville,TN,37221,293900,2,2.5,Bristol Creek,1152,435,2019,6,255,125,Active,,,http://www.redfin.com/TN/Nashville/635-Bristol-Creek-Dr-37221/home/148399101,REALTRACS,2175079,N,Y,36.074792,-86.929568
MLS Listing,,Single Family Residential,6921 Shelly Trl,Nashville,TN,37211,565000,6,4.0,Christiansted Valley Reser,3907,10018,2015,6,145,35,Active,,,http://www.redfin.com/TN/Nashville/6921-Shelly-Trl-37211/home/112483147,REALTRACS,2175077,N,Y,36.0265998,-86.7263518
MLS Listing,,Single Family Residential,2803 Meadow Rose Dr,Nashville,TN,37206,499900,3,3.0,Meadow Rose Park,2100,14810,1955,6,238,,Active,,,http://www.redfin.com/TN/Nashville/2803-Meadow-Rose-Dr-37206/home/108067288,REALTRACS,2175059,N,Y,36.184439,-86.7126508
MLS Listing,,Single Family Residential,256 Lisa Ln,Nashville,TN,37210,314900,3,1.0,Creekside Heights,1371,37026,1960,6,230,,Active,,,http://www.redfin.com/TN/Nashville/256-Lisa-Ln-37210/home/108035210,REALTRACS,2175050,N,Y,36.1605518,-86.7053017
MLS Listing,,Condo/Co-op,1233 Nations Dr,Nashville,TN,37209,434900,3,3.5,Treaty Oaks Cottages,1713,871,2020,6,254,195,Active,,,http://www.redfin.com/TN/Nashville/1233-Nations-DR-37209/home/171999583,REALTRACS,2175046,N,Y,36.16131132,-86.85777284
MLS Listing,,Single Family Residential,2613 Jordan Ridge Dr,Nashville,TN,37218,304900,4,2.5,Jordan Ridge At Eatons Cre,2226,12196,2012,6,137,20,Active,,,http://www.redfin.com/TN/Nashville/2613-Jordan-Ridge-Dr-37218/home/108046689,REALTRACS,2175044,N,Y,36.2239174,-86.8727828
MLS Listing,,Condo/Co-op,1231 Nations Dr,Nashville,TN,37209,430900,3,3.5,Treaty Oaks Cottages,1665,871,2020,6,259,195,Active,,,http://www.redfin.com/TN/Nashville/1231-Nations-DR-37209/home/171999152,REALTRACS,2175041,N,Y,36.16131373,-86.85770487
MLS Listing,,Condo/Co-op,1227 Nations Dr,Nashville,TN,37209,439900,3,3.5,Treaty Oaks Cottages,1713,871,2020,6,257,195,Active,,,http://www.redfin.com/TN/Nashville/1227-Nations-DR-37209/home/171998777,REALTRACS,2175035,N,Y,36.16131839,-86.85757016
MLS Listing,,Single Family Residential,5315 Indiana Ave,Nashville,TN,37209,634900,5,4.0,West Nashville,2576,3920,2016,6,246,,Active,,,http://www.redfin.com/TN/Nashville/5315-Indiana-Ave-37209/home/112485000,REALTRACS,2175033,N,Y,36.1560068,-86.8527126
MLS Listing,,Condo/Co-op,940 Russell Unit C,Nashville,TN,37206,439900,2,2.0,The Valentino,1596,,1955,6,276,210,Active,,,http://www.redfin.com/TN/Nashville/940-Russell-St-37206/unit-C/home/60664285,REALTRACS,2175030,N,Y,36.174827,-86.7527999
MLS Listing,,Single Family Residential,2814B Georgia Ave,Nashville,TN,37209,550000,4,3.0,City Heights,2200,1306,2020,6,250,,Active,,,http://www.redfin.com/TN/Nashville/2814-Georgia-Ave-37209/unit-A/home/107986694,REALTRACS,2175028,N,Y,36.15737,-86.820014
MLS Listing,,Single Family Residential,1905 Hailey Ave,Nashville,TN,37218,199000,3,2.0,Haleys/Sheegog,1192,10018,1948,6,167,,Active,,,http://www.redfin.com/TN/Nashville/1905-Hailey-Ave-37218/home/108032867,REALTRACS,2175021,N,Y,36.1905351,-86.8318489
MLS Listing,,Single Family Residential,836 Bradford Ave,Nashville,TN,37204,1599000,6,5.5,Criddle/Waverly Place,6381,11325,1912,6,251,,Active,August-9-2020 02:00 PM,August-9-2020 04:00 PM,http://www.redfin.com/TN/Nashville/836-Bradford-Ave-37204/home/108002672,REALTRACS,2175012,N,Y,36.128044,-86.78137
MLS Listing,,Single Family Residential,1400 Russell St,Nashville,TN,37206,625000,3,3.0,Lockeland Springs,2266,7840,1915,6,276,,Active,,,http://www.redfin.com/TN/Nashville/1400-Russell-St-37206/home/68819229,REALTRACS,2174991,N,Y,36.1745877,-86.7460572
MLS Listing,,Single Family Residential,1118 Richmond Dr,Nashville,TN,37216,299000,2,1.0,King,1097,17859,1947,6,273,,Active,,,http://www.redfin.com/TN/Nashville/1118-Richmond-Dr-37216/home/107986947,REALTRACS,2174985,N,Y,36.2295088,-86.7224097
MLS Listing,,Single Family Residential,907 Wedgewood Ave,Nashville,TN,37203,699900,3,2.5,Waverly Belmont,2468,5227,2013,6,284,,Active,,,http://www.redfin.com/TN/Nashville/907-Wedgewood-Ave-37203/home/60775247,REALTRACS,2174968,N,Y,36.1344306,-86.7831674
MLS Listing,,Single Family Residential,2019B 9th Ave N,Nashville,TN,37208,497500,3,2.5,Buena Vista,2220,,2020,6,224,,Active,,,http://www.redfin.com/TN/Nashville/2019-9th-Ave-N-37208/home/104131457,REALTRACS,2174966,N,Y,36.1861058,-86.8040985
MLS Listing,,Single Family Residential,4003A Woodmont Blvd,Nashville,TN,37205,999000,4,3.5,Green Hills,3228,,2019,6,309,,Active,August-9-2020 02:00 PM,August-9-2020 04:00 PM,http://www.redfin.com/TN/Nashville/4003A-Woodmont-Blvd-37205/home/172523647,REALTRACS,2174959,N,Y,36.1162264,-86.8370131
MLS Listing,,Single Family Residential,555 Church St #2206,Nashville,TN,37219,440000,1,1.0,Cumberland Penthouse,876,1306,1998,6,502,450,Active,,,http://www.redfin.com/TN/Nashville/555-Church-St-37219/unit-2206/home/87807984,REALTRACS,2174950,N,Y,36.1622067,-86.7809405
MLS Listing,,Condo/Co-op,214 Old Hickory Blvd #115,Nashville,TN,37221,196000,2,2.0,Belle Forest,1050,871,1969,6,187,249,Active,,,http://www.redfin.com/TN/Nashville/214-Old-Hickory-Blvd-37221/unit-115/home/87830000,REALTRACS,2174940,N,Y,36.0830389,-86.9145823
MLS Listing,,Single Family Residential,1205 Cedar Ln,Nashville,TN,37212,1399000,4,4.0,12 South/Victoria Place,4181,10018,1940,6,335,,Active,,,http://www.redfin.com/TN/Nashville/1205-Cedar-Ln-37212/home/108087451,REALTRACS,2174936,N,Y,36.119606,-86.791399
MLS Listing,,Single Family Residential,4803 Shirmar Dr,Nashville,TN,37211,329900,4,2.0,Kenilworth Estates,2200,9583,1962,7,150,,Active,,,http://www.redfin.com/TN/Nashville/4803-Shirmar-Dr-37211/home/108005557,REALTRACS,2174932,N,Y,36.086535,-86.7058628
MLS Listing,,Condo/Co-op,425 Siena Dr,Nashville,TN,37205,269000,2,2.0,The Cloister At St Henry,1258,1306,1984,7,214,375,Active,,,http://www.redfin.com/TN/Nashville/425-Siena-Dr-37205/home/87822564,REALTRACS,2174923,N,Y,36.088594,-86.8879819
MLS Listing,,Single Family Residential,6108 Tuliptree Ln,Nashville,TN,37221,356500,3,2.5,Poplar Creek Estates,2234,10890,1987,7,160,19,Active,,,http://www.redfin.com/TN/Nashville/6108-Tuliptree-Ln-37221/home/87807403,REALTRACS,2174919,N,Y,36.049799,-86.9559355
MLS Listing,,Single Family Residential,2177 Blake Dr,Antioch,TN,37013,305000,3,2.5,Stanford Village,1913,7405,2003,7,159,25,Active,,,http://www.redfin.com/TN/Antioch/2177-Blake-Dr-37013/home/108016811,REALTRACS,2174910,N,Y,36.0179521,-86.6888248
MLS Listing,,Single Family Residential,2821 Lakeside Meadows Cir,Mount Juliet,TN,37122,415000,4,2.5,Lakeside Meadows,2707,7840,2016,7,153,26,Active,,,http://www.redfin.com/TN/Mt-Juliet/2821-Lakeside-Meadows-Cir-37122/home/83982686,REALTRACS,2174900,N,Y,36.145006,-86.563684
MLS Listing,,Single Family Residential,"179 Rural Ave, A Unit A",Nashville,TN,37209,519900,3,2.5,Homes At 179 Rural Avenue,2282,,2020,7,228,,Active,,,http://www.redfin.com/TN/Nashville/179-Rural-Ave-37209/unit-A/home/172636235,REALTRACS,2174893,N,Y,36.1442189,-86.856676
MLS Listing,,Single Family Residential,179 Rural Ave Unit B,Nashville,TN,37209,519900,3,2.5,Homes At 179 Rural Avenue,2282,,2020,7,228,,Active,,,http://www.redfin.com/TN/Nashville/179-Rural-Ave-37209/unit-B/home/172636190,REALTRACS,2174892,N,Y,36.1442189,-86.856676
MLS Listing,,Single Family Residential,2108 12th Ave S,Nashville,TN,37204,475000,4,1.0,McAlister Home Place,1680,6534,1930,7,283,,Active,,,http://www.redfin.com/TN/Nashville/2108-12th-Ave-S-37204/home/108004130,REALTRACS,2174891,N,Y,36.1301611,-86.7885699
MLS Listing,,Condo/Co-op,420 Elysian Fields Rd Unit B16,Nashville,TN,37211,130000,2,2.0,Village At Grassmere,936,871,1969,7,139,260,Active,,,http://www.redfin.com/TN/Nashville/420-Elysian-Fields-Rd-37211/unit-B16/home/102009508,REALTRACS,2174834,N,Y,36.0867526,-86.7320932
MLS Listing,,Townhouse,606 Thetford Aly,Brentwood,TN,37027,324900,2,3.5,Southpoint,1901,1306,2020,7,171,150,Active,,,http://www.redfin.com/TN/Brentwood/606-Thetford-ALY-37027/home/172636077,REALTRACS,2174856,N,Y,35.99612208,-86.68395185
MLS Listing,,Townhouse,616 Thetford Aly,Brentwood,TN,37027,299900,2,3.5,Southpoint,1692,1306,2020,7,177,150,Active,,,http://www.redfin.com/TN/Brentwood/616-Thetford-ALY-37027/home/172636076,REALTRACS,2174853,N,Y,35.99585868,-86.68399109
MLS Listing,,Townhouse,501 Whitstable Aly,Brentwood,TN,37027,334900,3,3.5,Southpoint,1979,,2020,7,169,150,Active,,,http://www.redfin.com/TN/Brentwood/501-Whitstable-ALY-37027/home/172636075,REALTRACS,2174851,N,Y,35.99553712,-86.68640336
MLS Listing,,Single Family Residential,925 Fancher Ln,Joelton,TN,37080,329990,3,2.0,THE FALLS,1666,7840,2020,7,198,50,Active,,,http://www.redfin.com/TN/Nashville/925-Fancher-Ln-37080/home/172636074,REALTRACS,2174850,N,Y,36.32879644,-86.87280056
MLS Listing,,Single Family Residential,927 Mcclurkan Ave,Nashville,TN,37206,445000,5,3.5,East Nashville,2562,7840,1945,7,174,,Active,,,http://www.redfin.com/TN/Nashville/927-McClurkin-Ave-37206/home/60716198,REALTRACS,2174841,N,Y,36.1969571,-86.7475892
MLS Listing,,Single Family Residential,237 Cedarcreek Dr,Nashville,TN,37211,212500,3,1.5,Cedarwood Estates,1250,19166,1976,7,170,,Active,,,http://www.redfin.com/TN/Nashville/237-Cedarcreek-Dr-37211/home/107988271,REALTRACS,2174831,N,Y,36.0390604,-86.7031848
MLS Listing,,Condo/Co-op,5025 Hillsboro Pike Unit 8A,Nashville,TN,37215,259000,3,2.0,Georgetown,1430,1306,1969,7,181,478,Active,,,http://www.redfin.com/TN/Nashville/5025-Hillsboro-Pike-37215/unit-8A/home/107975052,REALTRACS,2174819,N,Y,36.098563,-86.823129
MLS Listing,,Single Family Residential,1206 Litton Ave,Nashville,TN,37216,435000,3,3.0,East Nashville,1983,24829,1923,7,219,,Active,,,http://www.redfin.com/TN/Nashville/1206-Litton-Ave-37216/home/67208860,REALTRACS,2174823,N,Y,36.2018759,-86.7366847
MLS Listing,,Single Family Residential,7204 Natchez Pointe Dr,Nashville,TN,37221,629900,4,3.5,Natchez Pointe,3549,14810,2016,7,177,40,Active,,,http://www.redfin.com/TN/Nashville/7204-Natchez-Pointe-Dr-37221/home/69355487,REALTRACS,2174816,N,Y,36.044965,-86.982757
MLS Listing,,Single Family Residential,5205 Overton Rd,Nashville,TN,37220,450000,3,2.0,Crieve Hall,1754,19166,1956,7,257,,Active,,,http://www.redfin.com/TN/Nashville/5205-Overton-Rd-37220/home/107978164,REALTRACS,2174876,N,Y,36.0613023,-86.7625541
MLS Listing,,Single Family Residential,8668 Burkitt Place Dr,Nolensville,TN,37135,470000,4,2.5,Burkitt Place Ph 1-A Sec 1,2642,10018,2006,7,178,54,Active,August-9-2020 02:00 PM,August-9-2020 04:00 PM,http://www.redfin.com/TN/Nolensville/8668-Burkitt-Pl-Dr-37135/home/60704711,REALTRACS,2174830,N,Y,35.9867497,-86.6753324
MLS Listing,,Condo/Co-op,908 14th Ave N Unit A,Nashville,TN,37208,529900,4,3.5,908 14th Avenue North Town,2135,871,2020,7,248,,Active,,,http://www.redfin.com/TN/Nashville/908-14th-Ave-N-37208/unit-A/home/170540763,REALTRACS,2174788,N,Y,36.167068,-86.7985824
MLS Listing,,Vacant Land,0 Brick Church Pike,Whites Creek,TN,37189,500000,,,Whites Creek,,704800,,7,,,Active,,,http://www.redfin.com/TN/Whites-Creek/4412-Brick-Church-Pike-37189/home/108116915,REALTRACS,2174813,N,Y,36.291688,-86.782907
MLS Listing,,Single Family Residential,809 Stirrup Dr,Nashville,TN,37221,465000,4,3.0,Walnut Hill Manor,2991,18730,1973,7,155,,Active,,,http://www.redfin.com/TN/Nashville/809-Stirrup-Dr-37221/home/87823315,REALTRACS,2174806,N,Y,36.0773134,-86.9314039
MLS Listing,,Condo/Co-op,908 14th Ave N Unit B,Nashville,TN,37208,529900,4,3.5,908 14th Avenue North Town,2135,871,2020,7,248,,Active,,,http://www.redfin.com/TN/Nashville/908-14th-Ave-N-37208/unit-B/home/170540766,REALTRACS,2174810,N,Y,36.167068,-86.7985824
MLS Listing,,Single Family Residential,1806 Shelby Ave,Nashville,TN,37206,350000,4,1.0,Edgefield Land,1458,6098,1930,7,240,,Active,,,http://www.redfin.com/TN/Nashville/1806-Shelby-Ave-37206/home/87815561,REALTRACS,2174771,N,Y,36.1698842,-86.7384046
MLS Listing,,Single Family Residential,3194 Robwood Dr,Nashville,TN,37207,325000,3,2.0,Parkwood Estates,2158,14810,1962,7,151,,Active,,,http://www.redfin.com/TN/Nashville/3194-Robwood-Dr-37207/home/108079310,REALTRACS,2174774,N,Y,36.2376247,-86.7683198
MLS Listing,,Single Family Residential,6324A Patton Ave,Nashville,TN,37209,275000,2,1.0,Croley Wood,1191,,1950,7,231,,Active,,,http://www.redfin.com/TN/Nashville/6324A-Patton-Ave-37209/home/172308556,REALTRACS,2174765,N,Y,36.1508162,-86.8699187
MLS Listing,,Condo/Co-op,3902 Delaware Ave Unit B,Nashville,TN,37209,444996,3,2.5,Clifton,2112,6969,2020,7,211,,Active,,,http://www.redfin.com/TN/Nashville/3902-Delaware-Ave-37209/unit-B/home/108005821,REALTRACS,2174695,N,Y,36.1552214,-86.8333488
MLS Listing,,Single Family Residential,313 Pioneer Ln,Nashville,TN,37206,469900,3,2.5,East Nashville,1825,871,2020,7,257,,Active,,,http://www.redfin.com/TN/Nashville/313-Pioneer-Ln-37206/home/147492837,REALTRACS,2174751,N,Y,36.1856074,-86.7238449
MLS Listing,,Vacant Land,6106 Hill Cir,Nashville,TN,37209,202500,,,Homes on the Hill,,,,7,,,Active,,,http://www.redfin.com/TN/Nashville/6106-Hill-Circle-Dr-37209/home/171977085,REALTRACS,2174752,N,Y,36.1453104,-86.8678747
MLS Listing,,Vacant Land,0 Hill Cir,Nashville,TN,37209,1188000,,,Homes on the Hill,,,,7,,,Active,,,http://www.redfin.com/TN/Nashville/Hill-Circle-Dr-37209/home/172635679,REALTRACS,2174723,N,Y,36.14467995,-86.86582879
MLS Listing,,Vacant Land,6011 Hill Cir,Nashville,TN,37209,202500,,,Homes on the Hill,,,,7,,,Active,,,http://www.redfin.com/TN/Nashville/6011-Hill-Cir-Dr-37209/home/170541586,REALTRACS,2174748,N,Y,36.144956,-86.865405
MLS Listing,,Single Family Residential,2020 Garfield St,Nashville,TN,37221,734900,4,3.5,Stephens Valley Sec2,3176,,2020,7,231,83,Active,,,http://www.redfin.com/TN/Nashville/2020-Garfield-St-37208/home/147744606,REALTRACS,2174729,N,Y,36.029626,-86.964096
MLS Listing,,Single Family Residential,917 Fancher Ln,Joelton,TN,37080,339990,3,2.5,The Falls,2380,,2020,7,143,50,Active,,,http://www.redfin.com/TN/Nashville/917-Fancher-Ln-37080/home/172067107,REALTRACS,2174720,N,Y,36.32694402,-86.87062402
MLS Listing,,Single Family Residential,1005 Gayron Dr,Joelton,TN,37080,321990,4,2.5,The Falls,2114,7840,2020,7,152,50,Active,,,http://www.redfin.com/TN/Joelton/1005-Gayron-Dr-37080/home/172315232,REALTRACS,2174704,N,Y,36.3284521,-86.8709251
MLS Listing,,Single Family Residential,1020 Gayron Dr,Joelton,TN,37080,354990,5,2.5,The Falls,2718,7840,2020,7,131,50,Active,,,http://www.redfin.com/TN/Joelton/1020-Gayron-Dr-37080/home/171165337,REALTRACS,2174693,N,Y,36.3284521,-86.8709251
MLS Listing,,Single Family Residential,1004 Gayron Dr,Joelton,TN,37080,334990,4,2.5,The Falls,2423,,2020,7,138,50,Active,,,http://www.redfin.com/TN/Joelton/1004-Gayron-Dr-37080/home/171558174,REALTRACS,2174682,N,Y,36.3284521,-86.8709251
MLS Listing,,Single Family Residential,218 Hart Ln,Nashville,TN,37207,375000,3,2.0,Underwoods Hart Lane,1360,18730,1983,7,276,,Active,,,http://www.redfin.com/TN/Nashville/218-Hart-Ln-37207/home/107984614,REALTRACS,2174701,N,Y,36.2202755,-86.7546991
MLS Listing,,Single Family Residential,5504 Peninsula Park Lndg,Hermitage,TN,37076,334900,3,2.5,The Peninsula,2410,6969,1996,7,139,11,Active,,,http://www.redfin.com/TN/Hermitage/5504-Peninsula-Park-Lndg-37076/home/68776557,REALTRACS,2174687,N,Y,36.1524173,-86.5906513
MLS Listing,,Condo/Co-op,709 Mcpherson Dr,Nashville,TN,37221,200000,3,1.5,McPherson Place Townhomes,1050,435,1972,7,190,44,Active,,,http://www.redfin.com/TN/Nashville/709-McPherson-Dr-37221/home/102986239,REALTRACS,2174653,N,Y,36.061609,-86.933899
MLS Listing,,Condo/Co-op,1350 Rosa L Parks Blvd #435,Nashville,TN,37208,589900,3,3.0,Werthan Lofts,1960,,2012,7,301,301,Active,August-9-2020 02:00 PM,August-9-2020 04:00 PM,http://www.redfin.com/TN/Nashville/1350-Rosa-L-Parks-Blvd-37208/unit-435/home/102392911,REALTRACS,2174646,N,Y,36.1779316,-86.7940148
MLS Listing,,Single Family Residential,1013A Caldwell Ave,Nashville,TN,37204,799500,5,4.0,1013 Caldwell Avenue Townh,2330,871,2015,7,343,,Active,,,http://www.redfin.com/TN/Nashville/1013A-Caldwell-Ave-37204/home/169585856,REALTRACS,2174641,N,Y,36.1323679,-86.7868943
MLS Listing,,Single Family Residential,818 W Greenwood Ave,Nashville,TN,37206,519900,3,3.0,East Nashville,2372,6969,2018,7,219,,Active,,,http://www.redfin.com/TN/Nashville/818-W-Greenwood-Ave-37206/home/88560274,REALTRACS,2174793,N,Y,36.1914271,-86.7545813
MLS Listing,,Vacant Land,0 Walton Ln N,Nashville,TN,37216,100000,,,Walton Lane Estates,,43560,,7,,,Active,,,http://www.redfin.com/TN/NASHVILLE/WALTON-LN-37216/home/87814206,REALTRACS,2174767,N,Y,36.237932,-86.750603
MLS Listing,,Single Family Residential,201 Bellmore Ave,Nashville,TN,37209,479000,5,4.0,John M Branham Farm,1963,12632,1946,7,244,,Active,,,http://www.redfin.com/TN/Nashville/201-Bellmore-Ave-37209/home/92720650,REALTRACS,2174731,N,Y,36.1445972,-86.8614184
MLS Listing,,Single Family Residential,913 Joseph Ave,Nashville,TN,37207,429900,3,2.0,Sharpe & Horns,1527,6969,1920,7,282,,Active,,,http://www.redfin.com/TN/Nashville/913-Joseph-Ave-37207/home/103708621,REALTRACS,2174718,N,Y,36.1882875,-86.7717035
MLS Listing,,Single Family Residential,140 Alton Rd,Nashville,TN,37205,1175000,4,3.0,Belle Meade Highlands,3407,18730,1937,7,345,,Active,,,http://www.redfin.com/TN/Nashville/140-Alton-Rd-37205/home/108027277,REALTRACS,2174713,N,Y,36.0907917,-86.8698272
MLS Listing,,Single Family Residential,127 Rifle Range Rd,Old Hickory,TN,37138,279000,3,2.0,Jordan Property,1378,13503,2020,7,202,,Active,,,http://www.redfin.com/TN/Lakewood/127-Rifle-Range-Rd-37138/home/108100957,REALTRACS,2174711,N,Y,36.237174,-86.635583
MLS Listing,,Townhouse,2118 Elliott Ave #15,Nashville,TN,37204,650000,3,3.5,Elliot Avenue Townhomes,2000,871,2018,7,325,135,Active,,,http://www.redfin.com/TN/Nashville/2118-Elliott-Ave-37204/unit-15/home/112485244,REALTRACS,2174624,N,Y,36.1299231,-86.7798993
MLS Listing,,Single Family Residential,5605B Pennsylvania Ave,Nashville,TN,37209,669900,4,4.0,The Nations,2789,3920,2017,7,240,,Active,,,http://www.redfin.com/TN/Nashville/5605B-Pennsylvania-Ave-37209/home/172596774,REALTRACS,2174601,N,Y,36.1626301,-86.8562517
MLS Listing,,Single Family Residential,1212 Laurel St #1911,Nashville,TN,37203,499500,1,1.0,Twelve Twelve,765,871,2014,7,653,319,Active,,,http://www.redfin.com/TN/Nashville/1212-Laurel-St-37203/unit-1911/home/102803605,REALTRACS,2174614,N,Y,36.1534296,-86.7863249
MLS Listing,,Single Family Residential,600 12th Ave S #515,Nashville,TN,37203,509900,2,2.0,Icon In The Gulch,1108,1306,2008,7,460,573,Active,,,http://www.redfin.com/TN/Nashville/600-12th-Ave-S-37203/unit-515/home/108108015,REALTRACS,2174593,N,Y,36.1512391,-86.7835628
MLS Listing,,Single Family Residential,931 41 Hwy TN,Goodlettsville,TN,37072,250000,2,1.0,Goodlettsville,720,174240,,7,347,,Active,,,http://www.redfin.com/TN/Goodlettsville/931-41-Hwy-TN-37072/home/172632486,REALTRACS,2174602,N,Y,36.35184476,-86.72230954
MLS Listing,,Single Family Residential,4900 Atwood Dr,Nashville,TN,37220,450000,3,2.0,Crieve Hall,2016,57063,1955,7,223,,Active,,,http://www.redfin.com/TN/Nashville/4900-Atwood-Dr-37220/home/108130945,REALTRACS,2174592,N,Y,36.0766267,-86.7620647
MLS Listing,,Single Family Residential,110 31st Ave N #506,Nashville,TN,37203,829900,3,3.0,the west end,2349,,2009,7,353,836,Active,,,http://www.redfin.com/TN/Nashville/110-31st-Ave-N-37203/unit-506/home/60648847,REALTRACS,2174576,N,Y,36.1433268,-86.8156939
MLS Listing,,Single Family Residential,515 Church St,Nashville,TN,37219,495000,1,1.0,505 High Rise Condominium,704,,2018,7,703,380,Active,,,http://www.redfin.com/TN/Nashville/515-Church-St-37219/home/148402335,REALTRACS,2174565,N,Y,36.162603,-86.7806544
MLS Listing,,Single Family Residential,201 Herbert Ct,Brentwood,TN,37027,629000,5,4.5,Cottonport Plantation,4172,13939,1988,7,151,59,Active,,,http://www.redfin.com/TN/Brentwood/201-Herbert-Ct-37027/home/60683852,REALTRACS,2174556,N,Y,36.0298736,-86.7539528
MLS Listing,,Condo/Co-op,3818 W End Ave #213,Nashville,TN,37205,324700,2,2.0,The Montclair,1314,1306,1987,7,247,317,Active,,,http://www.redfin.com/TN/Nashville/3818-W-End-Ave-37205/unit-213/home/108017655,REALTRACS,2174549,N,Y,36.1323166,-86.8332793
MLS Listing,,Single Family Residential,2120 Herman St #3,Nashville,TN,37208,450000,3,2.5,City Heights,1200,,2020,7,375,,Active,,,http://www.redfin.com/TN/Nashville/2120-Herman-St-37208/unit-3/home/172621081,REALTRACS,2174545,N,Y,36.162752,-86.8095071
MLS Listing,,Single Family Residential,2120 Herman St #4,Nashville,TN,37208,450000,3,2.5,City Heights,1200,,2020,7,375,,Active,,,http://www.redfin.com/TN/Nashville/2120-Herman-St-37208/unit-4/home/172621079,REALTRACS,2174544,N,Y,36.162752,-86.8095071
MLS Listing,,Single Family Residential,2120 Herman St #2,Nashville,TN,37208,450000,3,2.5,City Heights,1200,,2020,7,375,,Active,,,http://www.redfin.com/TN/Nashville/2120-Herman-St-37208/unit-2/home/172621078,REALTRACS,2174542,N,Y,36.162752,-86.8095071
MLS Listing,,Single Family Residential,2120 Herman St #1,Nashville,TN,37208,450000,3,2.5,City Heights,1200,,2020,7,375,,Active,,,http://www.redfin.com/TN/Nashville/2120-Herman-St-37208/unit-1/home/172621077,REALTRACS,2174543,N,Y,36.162752,-86.8095071
MLS Listing,,Single Family Residential,2120 Herman St #5,Nashville,TN,37208,450000,3,2.5,City Heights,1200,,2020,7,375,,Active,,,http://www.redfin.com/TN/Nashville/2120-Herman-St-37208/unit-5/home/172621074,REALTRACS,2174541,N,Y,36.162752,-86.8095071
MLS Listing,,Single Family Residential,3524 Sanford Ave,Nashville,TN,37211,439900,3,2.5,Woodbine,1803,,2018,7,244,,Active,August-9-2020 02:00 PM,August-9-2020 04:00 PM,http://www.redfin.com/TN/Nashville/3524-Sanford-Ave-37211/home/108054394,REALTRACS,2174521,N,Y,36.096413,-86.735325
MLS Listing,,Single Family Residential,3116 Cooks Ct,Hermitage,TN,37076,474900,3,3.5,Cooks Landing,3530,10454,2015,7,135,39,Active,,,http://www.redfin.com/TN/Hermitage/3116-Cooks-Ct-37076/home/62752203,REALTRACS,2174517,N,Y,36.1429967,-86.5895716
MLS Listing,,Single Family Residential,1315 Meridian St Unit B,Nashville,TN,37207,474900,3,2.5,Cleveland Park,2090,8712,2020,7,227,,Active,,,http://www.redfin.com/TN/Nashville/1315-Meridian-St-37207/unit-B/home/171395976,REALTRACS,2174514,N,Y,36.195077,-86.76691
MLS Listing,,Single Family Residential,8329 Elmcroft Ct,Nolensville,TN,37135,399900,4,2.5,Burkitt Place,2251,6969,2010,7,178,98,Active,,,http://www.redfin.com/TN/Nolensville/8329-Elmcroft-Ct-37135/home/108060635,REALTRACS,2174510,N,Y,35.9895345,-86.6746636
MLS Listing,,Single Family Residential,2318 Lloyd Ave,Nashville,TN,37218,279800,3,2.0,H E Simpkins,1398,13939,1930,7,200,,Active,,,http://www.redfin.com/TN/Nashville/2318-Lloyd-Ave-37218/home/60729234,REALTRACS,2174509,N,Y,36.2031096,-86.8310141
MLS Listing,,Single Family Residential,6217 Rivervalley Dr,Nashville,TN,37221,372500,3,2.0,Riverwalk,2175,9583,2004,8,171,70,Active,,,http://www.redfin.com/TN/Nashville/6217-Rivervalley-Dr-37221/home/108015123,REALTRACS,2174503,N,Y,36.0908185,-87.0043289
MLS Listing,,Condo/Co-op,2900 Primrose Cir,Nashville,TN,37212,729923,3,2.5,Belmont,2177,1306,2013,8,335,,Active,,,http://www.redfin.com/TN/Nashville/2900-Primrose-Cir-37212/home/60735522,REALTRACS,2174470,N,Y,36.1205324,-86.800052
MLS Listing,,Single Family Residential,2423 Elliott Ave,Nashville,TN,37204,679900,3,2.5,2411 Elliott Cottages,2336,1306,2016,8,291,25,Active,,,http://www.redfin.com/TN/Nashville/2423-Elliott-Ave-37204/home/104220545,REALTRACS,2174459,N,Y,36.1251563,-86.779009
MLS Listing,,Vacant Land,1021 Harpeth Valley Ct,Nashville,TN,37221,100000,,,Bellevue Manor,,78843,,8,,,Active,,,http://www.redfin.com/TN/Nashville/1021-Harpeth-Valley-Ct-37221/home/108128715,REALTRACS,2174453,N,Y,36.087802,-86.959849
MLS Listing,,Single Family Residential,2405A Dowlan St,Nashville,TN,37208,325000,3,2.5,Buena Vista,1576,871,2017,8,206,,Active,August-9-2020 02:00 PM,August-9-2020 04:00 PM,http://www.redfin.com/TN/Nashville/2405A-Dowlan-St-37208/home/172404261,REALTRACS,2174452,N,Y,36.1881301,-86.8159974
MLS Listing,,Single Family Residential,4405 Sunnybrook Dr,Nashville,TN,37205,1699000,4,6.0,Green Hills,4784,49222,1953,8,355,,Active,,,http://www.redfin.com/TN/Nashville/4405-Sunnybrook-Dr-37205/home/107984080,REALTRACS,2174427,N,Y,36.0977027,-86.8438572
MLS Listing,,Single Family Residential,4120 Ridgefield Dr #509,Nashville,TN,37205,499500,2,2.0,Belle Meade Court,1293,1306,2008,8,386,425,Active,,,http://www.redfin.com/TN/Nashville/4120-Ridgefield-Dr-37205/unit-509/home/68704624,REALTRACS,2174418,N,Y,36.1249982,-86.8452027
MLS Listing,,Condo/Co-op,825 Ashlawn Pl,Nashville,TN,37211,175977,2,1.0,Ashlawn Place,918,871,1973,8,192,175,Active,,,http://www.redfin.com/TN/Nashville/825-Ashlawn-Pl-37211/home/108137960,REALTRACS,2174396,N,Y,36.0486689,-86.741935
MLS Listing,,Condo/Co-op,1010 16th Ave S #406,Nashville,TN,37212,450000,2,2.0,Ten Ten on the Row,1330,1742,2009,8,338,404,Active,,,http://www.redfin.com/TN/Nashville/1010-16th-Ave-S-37212/unit-406/home/68699912,REALTRACS,2174389,N,Y,36.1460997,-86.7922933
MLS Listing,,Single Family Residential,353 Moira Circle #241,Nolensville,TN,37135,388900,3,2.5,Carothers Farms,1913,13068,2020,8,203,91,Active,,,http://www.redfin.com/TN/Nolensville/353-Moira-Circle-241-37135/home/172615475,REALTRACS,2174379,N,Y,35.9851187,-86.62217331
MLS Listing,,Single Family Residential,2413 Booker St Unit A,Nashville,TN,37208,424900,3,2.5,Ashcraft/Mcnairy,1773,,2020,8,240,,Active,,,http://www.redfin.com/TN/Nashville/2413-Booker-St-37208/unit-A/home/172615473,REALTRACS,2174376,N,Y,36.160487,-86.813024
MLS Listing,,Condo/Co-op,1980 Carothers Rd #103,Nolensville,TN,37135,259900,2,2.0,Carothers Farms,1244,,2020,8,209,159,Active,,,http://www.redfin.com/TN/Nolensville/1980-Carothers-RD-37135/unit-103/home/171701135,REALTRACS,2174371,N,Y,35.98448267,-86.62222545
MLS Listing,,Single Family Residential,650 Brook Hollow Rd,Nashville,TN,37205,550000,3,2.0,West Meade Farms,1960,45302,1955,8,281,,Active,,,http://www.redfin.com/TN/Nashville/650-Brook-Hollow-Rd-37205/home/108009963,REALTRACS,2174348,N,Y,36.1146295,-86.8874299
MLS Listing,,Single Family Residential,2408 Lakeshore Dr,Old Hickory,TN,37138,359900,3,2.0,Lakewood,2301,14374,1957,8,156,,Active,,,http://www.redfin.com/TN/Old-Hickory/2408-Lakeshore-Dr-37138/home/107983600,REALTRACS,2174335,N,Y,36.2491165,-86.6381181
MLS Listing,,Single Family Residential,4204 Park Ave,Nashville,TN,37209,925000,3,3.5,Sylvan Park,3102,11325,1900,8,298,,Active,,,http://www.redfin.com/TN/Nashville/4204-Park-Ave-37209/home/108079971,REALTRACS,2174328,N,Y,36.151519,-86.837617
MLS Listing,,Single Family Residential,1212 Laurel St. #2203,Nashville,TN,37203,759900,2,2.0,Twelve Twelve,1070,1306,2014,8,710,449,Active,,,http://www.redfin.com/TN/Nashville/1212-Laurel-St-37203/unit-2203/home/102801855,REALTRACS,2174314,N,Y,36.1536079,-86.7858909
MLS Listing,,Single Family Residential,3700 Benham Ave,Nashville,TN,37215,1195000,4,3.5,Green Hills,4209,3484,2006,8,284,,Active,,,http://www.redfin.com/TN/Nashville/3700-Benham-Ave-37215/home/108108212,REALTRACS,2174308,N,Y,36.109679,-86.807885
MLS Listing,,Condo/Co-op,704 Taylor St #301,Nashville,TN,37208,315000,1,1.0,Werthan Lofts,672,871,2013,8,469,225,Active,,,http://www.redfin.com/TN/Nashville/704-Taylor-St-37208/unit-301/home/60654356,REALTRACS,2174303,N,Y,36.177633,-86.7929904
MLS Listing,,Single Family Residential,6305 Henry Ford Dr,Nashville,TN,37209,425000,4,2.5,Charlotte Park,1736,9147,1960,8,245,,Active,,,http://www.redfin.com/TN/Nashville/6305-Henry-Ford-Dr-37209/home/108052346,REALTRACS,2174296,N,Y,36.1536128,-86.8804228
MLS Listing,,Multi-Family (2-4 Unit),1502 South St,Nashville,TN,37212,650000,3,2.0,Music Row/Edgehill/Gulch,1690,,1900,8,385,,Active,,,http://www.redfin.com/TN/Nashville/1502-South-St-37212/home/87820868,REALTRACS,2174288,N,Y,36.1481027,-86.7903113
MLS Listing,,Condo/Co-op,500 Paragon Mills Rd Unit N3,Nashville,TN,37211,114900,1,1.0,Canterbury Hall,648,871,1969,8,177,138,Active,,,http://www.redfin.com/TN/Nashville/500-Paragon-Mills-Rd-37211/unit-N3/home/101644149,REALTRACS,2174287,N,Y,36.0884313,-86.7254707
MLS Listing,,Single Family Residential,3328 Moorewood Dr Unit A,Nashville,TN,37207,265000,3,2.0,Chesapeake Homes,1305,6098,2004,8,203,,Active,,,http://www.redfin.com/TN/Nashville/3328-Moorewood-Dr-37207/unit-A/home/107988275,REALTRACS,2174282,N,Y,36.244318,-86.772926
MLS Listing,,Single Family Residential,225 Springhaven Ct,Nashville,TN,37221,429900,4,3.5,Riverwalk,3043,14374,2005,8,141,70,Active,,,http://www.redfin.com/TN/Nashville/225-Springhaven-Ct-37221/home/60842944,REALTRACS,2174281,N,Y,36.0861159,-87.000671
MLS Listing,,Single Family Residential,5006 Georgia Ave,Nashville,TN,37209,579000,4,3.0,West Nashville,2262,3920,2018,8,256,,Active,,,http://www.redfin.com/TN/Nashville/5006-Georgia-Ave-37209/home/144450515,REALTRACS,2174278,N,Y,36.155441,-86.8480055
MLS Listing,,Single Family Residential,3644 Four Leaf Way,Antioch,TN,37013,339990,3,2.5,Clover Glen,2247,6098,2020,8,151,65,Active,,,http://www.redfin.com/TN/Nashville/3644-Four-Leaf-WAY-37013/home/172533064,REALTRACS,2174250,N,Y,36.000056,-86.646994
