SALE TYPE,SOLD DATE,PROPERTY TYPE,ADDRESS,CITY,STATE OR PROVINCE,ZIP OR POSTAL CODE,PRICE,BEDS,BATHS,LOCATION,SQUARE FEET,LOT SIZE,YEAR BUILT,DAYS ON MARKET,$/SQUARE FEET,HOA/MONTH,STATUS,NEXT OPEN HOUSE START TIME,NEXT OPEN HOUSE END TIME,URL (SEE http://www.redfin.com/buy-a-home/comparative-market-analysis FOR INFO ON PRICING),SOURCE,MLS#,FAVORITE,INTERESTED,LATITUDE,LONGITUDE
MLS Listing,,Single Family Residential,21 Grimes St,Boston,MA,02127,649999,2,2.0,South Boston,1176,825,1890,1,553,,Active,,,http://www.redfin.com/MA/Boston/21-Grimes-St-02127/home/9195612,MLS PIN,72705094,N,Y,42.3337604,-71.0518366
MLS Listing,,Condo/Co-op,16 Mystic St #2,Boston,MA,02129,620000,2,1.0,Charlestown,758,,1870,1,818,119,Active,,,http://www.redfin.com/MA/Boston/16-Mystic-St-02129/unit-2/home/79084414,MLS PIN,72704213,N,Y,42.3797169,-71.0629213
MLS Listing,,Multi-Family (2-4 Unit),15 Jess St,Boston,MA,02130,699000,5,2.0,Jamaica Plain,1785,2169,1885,3,392,,Active,,,http://www.redfin.com/MA/Boston/15-Jess-St-02130/home/9145085,MLS PIN,72703044,N,Y,42.3152015,-71.1038742
MLS Listing,,Condo/Co-op,146 Marlborough St #1,Boston,MA,02116,498000,1,1.0,Back Bay,486,486,1880,6,1025,190,Active,,,http://www.redfin.com/MA/Boston/146-Marlborough-St-02116/unit-1/home/9250275,MLS PIN,72701696,N,Y,42.3527521,-71.0781483
MLS Listing,,Condo/Co-op,1 Howard Pl Unit C,Boston,MA,02125,469000,3,1.0,Dorchester's Uphams Corner,1189,,1905,8,394,193,Active,,,http://www.redfin.com/MA/Boston/1-Howard-Pl-02125/unit-C/home/171582102,MLS PIN,72700175,N,Y,42.3197761,-71.0719246
MLS Listing,,Condo/Co-op,43 Park Vale Ave #7,Boston,MA,02134,499000,3,1.0,Allston,780,780,1910,21,640,343,Active,,,http://www.redfin.com/MA/Boston/43-Park-Vale-Ave-02134/unit-7/home/8996202,MLS PIN,72692581,N,Y,42.3523074,-71.1329914
MLS Listing,,Single Family Residential,43 Leyden St #43,Boston,MA,02128,649900,3,2.5,East Boston's Orient Heights,1397,1889,2006,22,465,441,Active,,,http://www.redfin.com/MA/Boston/43-Leyden-St-02128/unit-43/home/172266516,MLS PIN,72692274,N,Y,42.3901295,-71.0109725
MLS Listing,,Single Family Residential,9 Sherman St,Boston,MA,02119,559900,5,1.5,Roxbury,2088,2540,1905,22,268,,Active,,,http://www.redfin.com/MA/Boston/9-Sherman-St-02119/home/9292570,MLS PIN,72691932,N,Y,42.3211583,-71.083088
MLS Listing,,Condo/Co-op,180 Telford St #415,Boston,MA,02135,659000,1,1.0,Allston,719,,2018,27,917,481,Active,,,http://www.redfin.com/MA/Boston/180-Telford-St-02135/unit-415/home/171787852,MLS PIN,72688973,N,Y,42.3638661,-71.1376193
MLS Listing,,Condo/Co-op,42 8th St #4301,Boston,MA,02129,799000,2,2.0,Charlestown's Navy Yard,1149,,1899,28,695,805,Active,,,http://www.redfin.com/MA/Boston/42-8th-St-02129/unit-4301/home/9328682,MLS PIN,72688254,N,Y,42.3749988,-71.0520878
MLS Listing,,Condo/Co-op,603 E 6Th St #1,Boston,MA,02127,1199000,3,2.5,Boston,2018,,1900,43,594,320,Active,,,http://www.redfin.com/MA/Boston/603-E-6th-St-02127/unit-1/home/81971909,MLS PIN,72679850,N,Y,42.332858,-71.0362643
MLS Listing,,Condo/Co-op,944 Dorchester Ave #10,Boston,MA,02125,610000,2,1.0,Dorchester's Savin Hill,1238,1238,1910,49,493,617,Active,,,http://www.redfin.com/MA/Boston/944-Dorchester-Ave-02125/unit-10/home/39913645,MLS PIN,72676396,N,Y,42.3185087,-71.0560755
MLS Listing,,Condo/Co-op,1 Avery St Unit 14A,Boston,MA,02111,1474000,2,2.5,Midtown,1488,1488,2000,49,991,2071,Active,,,http://www.redfin.com/MA/Boston/1-Avery-St-02111/unit-14A/home/11511027,MLS PIN,72676213,N,Y,42.3533168,-71.0628507
MLS Listing,,Condo/Co-op,99 Tremont St #213,Boston,MA,02135,749000,2,2.0,Brighton,1091,,2017,50,687,462,Active,,,http://www.redfin.com/MA/Boston/99-Tremont-St-02135/unit-213/home/144759630,MLS PIN,72675512,N,Y,42.351377,-71.1723764
MLS Listing,,Condo/Co-op,88 Kingston St Unit 1D,Boston,MA,02111,689000,1,1.0,Midtown,816,816,1899,50,844,409,Active,,,http://www.redfin.com/MA/Boston/88-Kingston-St-02111/unit-1D/home/12310497,MLS PIN,72675269,N,Y,42.3526558,-71.0592399
MLS Listing,,Condo/Co-op,16 Leverett Ave #10,Boston,MA,02128,409000,2,1.5,Boston,1014,1014,1982,56,403,416,Active,,,http://www.redfin.com/MA/Boston/16-Leverett-Ave-02128/unit-10/home/9108544,MLS PIN,72671732,N,Y,42.38943216,-70.99586248
MLS Listing,,Condo/Co-op,21 Father Francis Gilday St #301,Boston,MA,02118,949900,2,1.5,South End,971,971,1858,69,978,773,Active,,,http://www.redfin.com/MA/Boston/21-Father-Francis-Gilday-St-02118/unit-301/home/17393101,MLS PIN,72664178,N,Y,42.3371558,-71.0732041
MLS Listing,,Condo/Co-op,463 Commonwealth Ave #6,Boston,MA,02215,645000,1,1.0,Back Bay,668,668,1900,77,966,219,Active,,,http://www.redfin.com/MA/Boston/463-Commonwealth-Ave-02215/unit-6/home/9240247,MLS PIN,72659881,N,Y,42.3494022,-71.0931228
MLS Listing,,Condo/Co-op,126 Jersey St #402,Boston,MA,02215,729900,1,1.0,The Fenway,624,624,2007,84,1170,357,Active,,,http://www.redfin.com/MA/Boston/126-Jersey-St-02215/unit-402/home/18983038,MLS PIN,72656080,N,Y,42.3425746,-71.0965461
MLS Listing,,Condo/Co-op,109 N St #1,Boston,MA,02127,425000,1,1.0,South Boston,480,480,1920,105,885,140,Active,,,http://www.redfin.com/MA/Boston/109-N-St-02127/unit-1/home/11511722,MLS PIN,72646946,N,Y,42.3344853,-71.0314719
MLS Listing,,Condo/Co-op,181 Warren Ave #1,Boston,MA,02116,1290000,2,2.0,South End,1112,1112,1899,1,1160,368,Active,August-8-2020 11:30 AM,August-8-2020 01:00 PM,http://www.redfin.com/MA/Boston/181-Warren-Ave-02116/unit-1/home/9325859,MLS PIN,72705496,N,Y,42.3439271,-71.0766076
MLS Listing,,Condo/Co-op,407 Washington St #2,Boston,MA,02124,350000,2,1.0,Dorchester's Codman Square,907,,1900,1,386,294,Active,,,http://www.redfin.com/MA/Boston/407-Washington-St-02124/unit-2/home/9305738,MLS PIN,72705478,N,Y,42.29734,-71.0728171
MLS Listing,,Condo/Co-op,407 W 1st #202,Boston,MA,02127,1225000,2,2.0,South Boston,1663,,2014,1,737,422,Active,,,http://www.redfin.com/MA/Boston/407-W-First-St-02127/unit-202/home/55120426,MLS PIN,72705465,N,Y,42.3373474,-71.0437053
MLS Listing,,Condo/Co-op,18 Chelsea St #2,Boston,MA,02128,529999,2,2.0,East Boston's Jeffries Point,757,,1900,1,700,330,Active,August-8-2020 09:30 AM,August-8-2020 11:00 AM,http://www.redfin.com/MA/Boston/18-Chelsea-St-02128/unit-2/home/124544953,MLS PIN,72705461,N,Y,42.3705787,-71.0382936
MLS Listing,,Condo/Co-op,533 E Second #102,Boston,MA,02127,925000,2,2.0,South Boston,1060,,2020,1,873,,Active,,,http://www.redfin.com/MA/Boston/533-E-2nd-St-02127/unit-102/home/172671660,MLS PIN,72705450,N,Y,42.337013,-71.041996
MLS Listing,,Condo/Co-op,108 Peterborough St Unit PHN,Boston,MA,02215,949000,2,1.5,Boston,836,,1990,1,1135,454,Active,,,http://www.redfin.com/MA/Boston/108-Peterborough-St-02215/unit-PHN/home/12441472,MLS PIN,72705433,N,Y,42.3427617,-71.0999457
MLS Listing,,Condo/Co-op,11 Park Dr #17,Boston,MA,02215,649000,2,1.0,Boston,680,,1920,1,954,319,Active,,,http://www.redfin.com/MA/Boston/11-Park-Dr-02215/unit-17/home/9273493,MLS PIN,72705411,N,Y,42.3446127,-71.0952214
MLS Listing,,Condo/Co-op,99-105 Broad St Unit 4B,Boston,MA,02110,715000,1,1.0,Waterfront,702,702,1910,1,1019,540,Active,,,http://www.redfin.com/MA/Boston/99-Broad-St-02110/unit-4B/home/12379260,MLS PIN,72705394,N,Y,42.357323,-71.05262
MLS Listing,,Multi-Family (2-4 Unit),18 Arbroth St,Boston,MA,02122,799000,5,2.0,Dorchester,2328,3600,1929,1,343,,Active,August-8-2020 12:00 PM,August-8-2020 02:00 PM,http://www.redfin.com/MA/Dorchester/18-Arbroth-St-02122/home/9094528,MLS PIN,72705375,N,Y,42.2906859,-71.0519357
MLS Listing,,Multi-Family (2-4 Unit),30 Hewlett St,Boston,MA,02131,1375000,8,3.0,Roslindale,3780,5908,1910,1,364,,Active,August-8-2020 12:00 PM,August-8-2020 02:00 PM,http://www.redfin.com/MA/Roslindale/30-Hewlett-St-02131/home/9170379,MLS PIN,72705360,N,Y,42.2897862,-71.1351734
MLS Listing,,Condo/Co-op,1 Dalton St #2905,Boston,MA,02119,8475000,4,3.5,Boston,3124,,2019,1,2713,3490,Active,,,http://www.redfin.com/MA/Boston/1-Dalton-St-02199/unit-2905/home/172671321,MLS PIN,72705366,N,Y,42.345,-71.084314
MLS Listing,,Condo/Co-op,135 Seaport Blvd #820,Boston,MA,02210,1994000,2,2.5,Seaport District,1424,,2020,1,1400,1805,Active,,,http://www.redfin.com/MA/Boston/135-Seaport-Blvd-02210/unit-820/home/172671273,MLS PIN,72705358,N,Y,42.3509604,-71.0439013
MLS Listing,,Condo/Co-op,66 Mora St #3,Boston,MA,02124,485000,3,1.0,Dorchester,1350,4425,1905,1,359,221,Active,August-8-2020 12:00 PM,August-8-2020 02:00 PM,http://www.redfin.com/MA/Boston/66-Mora-St-02124/unit-3/home/113710393,MLS PIN,72705346,N,Y,42.2818817,-71.0739422
MLS Listing,,Condo/Co-op,135 Seaport Blvd #906,Boston,MA,02210,1497400,2,2.0,Seaport District,1024,,2019,1,1462,1019,Active,,,http://www.redfin.com/MA/Boston/135-Seaport-Blvd-02210/unit-906/home/168965266,MLS PIN,72705308,N,Y,42.3509604,-71.0439013
MLS Listing,,Condo/Co-op,100 Fulton St Unit 2M,Boston,MA,02109,685000,1,1.0,North End,664,664,1890,1,1032,585,Active,,,http://www.redfin.com/MA/Boston/100-Fulton-St-02109/unit-2M/home/9231173,MLS PIN,72705298,N,Y,42.362617,-71.053035
MLS Listing,,Condo/Co-op,40 Traveler St #510,Boston,MA,02118,2300000,2,2.5,South End,1571,,2018,1,1464,1382,Active,,,http://www.redfin.com/MA/Boston/40-Traveler-St-02118/unit-510/home/92078684,MLS PIN,72705261,N,Y,42.3442232,-71.0623254
MLS Listing,,Single Family Residential,31 Plainfield St #1,Boston,MA,02130,749000,2,2.5,Jamaica Plain,1984,4000,1890,1,378,,Active,August-8-2020 01:00 PM,August-8-2020 03:00 PM,http://www.redfin.com/MA/Jamaica-Plain/31-Plainfield-St-02130/unit-1/home/144277854,MLS PIN,72705237,N,Y,42.3034434,-71.1073211
MLS Listing,,Condo/Co-op,65 Lewis St #316,Boston,MA,02128,665000,1,1.0,East Boston,787,,2019,1,845,485,Active,,,http://www.redfin.com/MA/Boston/65-Lewis-St-02128/unit-316/home/168998147,MLS PIN,72705227,N,Y,42.367142,-71.041588
MLS Listing,,Single Family Residential,541 Lagrange St,Boston,MA,02132,679000,4,2.0,West Roxbury,1654,5100,1915,1,411,,Active,August-8-2020 11:00 AM,August-8-2020 12:30 PM,http://www.redfin.com/MA/West-Roxbury/541-Lagrange-St-02132/home/9211094,MLS PIN,72705224,N,Y,42.284764,-71.1622811
MLS Listing,,Condo/Co-op,36 Myrtle St #3,Boston,MA,02114,689000,2,1.0,Beacon Hill,657,,1900,1,1049,315,Active,August-9-2020 12:00 PM,August-9-2020 01:30 PM,http://www.redfin.com/MA/Boston/36-Myrtle-St-02114/unit-3/home/9257849,MLS PIN,72705198,N,Y,42.359193,-71.0658458
MLS Listing,,Condo/Co-op,45 Vinton St #3,Boston,MA,02127,745000,2,2.0,South Boston,1207,1207,2008,1,617,371,Active,August-9-2020 11:00 AM,August-9-2020 12:30 PM,http://www.redfin.com/MA/Boston/45-Vinton-St-02127/unit-3/home/18322064,MLS PIN,72705185,N,Y,42.329698,-71.0531063
MLS Listing,,Condo/Co-op,73 Mt. Ida Rd #3,Boston,MA,02122,549900,3,1.0,Dorchester,1067,,1920,1,515,175,Active,August-9-2020 01:30 PM,August-9-2020 03:30 PM,http://www.redfin.com/MA/Dorchester/73-Mt-Ida-Rd-02122/unit-3/home/143937037,MLS PIN,72705164,N,Y,42.3046199,-71.0643319
MLS Listing,,Condo/Co-op,9 Wales St #1,Boston,MA,02124,515000,3,2.0,Dorchester,1500,6921,1905,1,343,175,Active,August-8-2020 01:00 PM,August-8-2020 03:00 PM,http://www.redfin.com/MA/Boston/9-Wales-St-02124/unit-1/home/172669551,MLS PIN,72705138,N,Y,42.2980353,-71.0860592
MLS Listing,,Condo/Co-op,1784 Columbia Rd #1,Boston,MA,01227,1799000,3,1.5,Boston,1750,7543,1962,1,1028,,Active,,,http://www.redfin.com/MA/Boston/1784-Columbia-Rd-02127/unit-1/home/172669517,MLS PIN,72705133,N,Y,42.3317716,-71.0297887
MLS Listing,,Townhouse,25 Harrison St Unit F,Boston,MA,02131,419000,3,2.5,Roslindale,1729,1742,1989,1,242,346,Active,August-9-2020 11:00 AM,August-9-2020 01:00 PM,http://www.redfin.com/MA/Boston/25-Harrison-St-02131/unit-F/home/9166500,MLS PIN,72705082,N,Y,42.287925,-71.120094
MLS Listing,,Condo/Co-op,204 W Brookline St #4,Boston,MA,02118,899000,2,1.0,South End,822,822,1900,1,1094,231,Active,August-9-2020 12:30 PM,August-9-2020 02:30 PM,http://www.redfin.com/MA/Boston/204-W-Brookline-St-02118/unit-4/home/9301336,MLS PIN,72705079,N,Y,42.3434166,-71.0768976
MLS Listing,,Multi-Family (2-4 Unit),132 High St,Boston,MA,02129,1289000,4,3.0,Charlestown,2600,1750,1989,1,496,,Active,,,http://www.redfin.com/MA/Charlestown/132-High-St-02129/home/9046815,MLS PIN,72705058,N,Y,42.3785283,-71.0666881
MLS Listing,,Townhouse,51 Pier 7 #51,Boston,MA,02129,1349000,2,2.5,Charlestown's Navy Yard,1825,,1987,1,739,1431,Active,August-9-2020 01:30 PM,August-9-2020 03:00 PM,http://www.redfin.com/MA/Boston/51-9th-St-02129/unit-51/home/39996502,MLS PIN,72705061,N,Y,42.3760539,-71.0523564
MLS Listing,,Single Family Residential,324 Pond St,Boston,MA,02130,1350000,4,3.0,Live on Moss Hill,3068,9059,1954,1,440,,Active,August-7-2020 04:00 PM,August-7-2020 05:30 PM,http://www.redfin.com/MA/Jamaica-Plain/324-Pond-St-02130/home/9328124,MLS PIN,72705062,N,Y,42.3111429,-71.1285354
MLS Listing,,Condo/Co-op,12 Bellvista Rd #6,Boston,MA,02135,549900,2,1.0,Brighton,802,802,1900,1,686,437,Active,August-8-2020 11:00 AM,August-8-2020 12:30 PM,http://www.redfin.com/MA/Boston/12-Bellvista-Rd-02135/unit-6/home/9223545,MLS PIN,72705039,N,Y,42.3465307,-71.1379467
MLS Listing,,Condo/Co-op,234 Paris St #1,Boston,MA,02128,540000,2,2.0,East Boston,813,,2017,1,664,220,Active,August-9-2020 01:45 PM,August-9-2020 03:00 PM,http://www.redfin.com/MA/Boston/234-Paris-St-02128/unit-1/home/129803219,MLS PIN,72705011,N,Y,42.3751582,-71.0344277
MLS Listing,,Condo/Co-op,172-178 Green St #13,Boston,MA,02130,699900,2,1.0,Jamaica Plain,1279,1306,1890,1,547,351,Active,August-8-2020 12:00 PM,August-8-2020 01:30 PM,http://www.redfin.com/MA/Boston/172-Green-St-02130/unit-13/home/9299973,MLS PIN,72704979,N,Y,42.310264,-71.1057154
MLS Listing,,Condo/Co-op,92-94 Walnut St #4,Boston,MA,02122,525000,2,1.0,Dorchester,812,,1900,1,647,208,Active,,,http://www.redfin.com/MA/Boston/92-Walnut-St-02122/unit-4/home/9326325,MLS PIN,72704958,N,Y,42.2879004,-71.0402709
MLS Listing,,Condo/Co-op,280 Beacon St #5,Boston,MA,02116,1100000,1,1.0,Back Bay,964,964,1930,1,1141,738,Active,August-8-2020 10:00 AM,August-8-2020 01:00 PM,http://www.redfin.com/MA/Boston/280-Beacon-St-02116/unit-5/home/9248281,MLS PIN,72704943,N,Y,42.3533964,-71.0812001
MLS Listing,,Single Family Residential,12 March Ave,Boston,MA,02132,899900,5,2.0,West Roxbury's Bellevue Hill,2890,7000,1790,1,311,,Active,,,http://www.redfin.com/MA/West-Roxbury/12-March-Ave-02132/home/9209527,MLS PIN,72704311,N,Y,42.2837234,-71.1546224
MLS Listing,,Condo/Co-op,770 E 3rd St #3,Boston,MA,02127,979000,2,2.0,South Boston's City Point,1274,,2010,1,768,391,Active,,,http://www.redfin.com/MA/Boston/770-E-3rd-St-02127/unit-3/home/40352599,MLS PIN,72704922,N,Y,42.3367302,-71.0289407
MLS Listing,,Condo/Co-op,63 Maverick Sq #11,Boston,MA,02128,734999,2,1.0,East Boston's Jeffries Point,1471,1471,1930,1,500,548,Active,August-8-2020 01:00 PM,August-8-2020 03:00 PM,http://www.redfin.com/MA/Boston/63-Maverick-Sq-02128/unit-11/home/9112451,MLS PIN,72704919,N,Y,42.3695199,-71.0385249
MLS Listing,,Townhouse,62-64 Wrentham St #3,Boston,MA,02124,559000,4,2.0,Boston,1482,,1910,1,377,240,Active,,,http://www.redfin.com/MA/Boston/62-Wrentham-St-02124/unit-3/home/11838321,MLS PIN,72704892,N,Y,42.2884672,-71.0603135
MLS Listing,,Condo/Co-op,78 Train St #2,Boston,MA,02122,525000,3,1.0,Dorchester's Neponset,1177,,1905,1,446,280,Active,,,http://www.redfin.com/MA/Boston/78-Train-St-02122/unit-2/home/9305552,MLS PIN,72704872,N,Y,42.2931729,-71.0541364
MLS Listing,,Single Family Residential,14 Sanford St,Boston,MA,02136,585000,3,1.5,Hyde Park's Readville,1650,4960,1970,1,355,,Active,August-7-2020 04:00 PM,August-7-2020 06:00 PM,http://www.redfin.com/MA/Hyde-Park/14-Sanford-St-02136/home/11835639,MLS PIN,72704874,N,Y,42.2422783,-71.1409409
MLS Listing,,Multi-Family (2-4 Unit),66 Montcalm Ave,Boston,MA,02135,999900,5,3.0,Brighton,2478,2584,1900,1,404,,Active,August-8-2020 12:00 PM,August-8-2020 02:00 PM,http://www.redfin.com/MA/Brighton/66-Montcalm-Ave-02135/home/9015378,MLS PIN,72704862,N,Y,42.3531027,-71.1485418
MLS Listing,,Townhouse,126 Florence St #126,Boston,MA,02131,799000,3,2.5,Roslindale,2000,,2008,1,400,200,Active,August-8-2020 12:00 PM,August-8-2020 01:30 PM,http://www.redfin.com/MA/Boston/126-Florence-St-02131/unit-126/home/28857451,MLS PIN,72704863,N,Y,42.2870173,-71.1238066
MLS Listing,,Condo/Co-op,188 Brookline Ave Unit 23D,Boston,MA,02215,1299000,1,1.0,The Fenway,762,,2018,1,1705,865,Active,August-8-2020 02:00 PM,August-8-2020 03:00 PM,http://www.redfin.com/MA/Boston/188-Brookline-Ave-02215/unit-23D/home/171787704,MLS PIN,72704852,N,Y,42.3437734,-71.1017218
MLS Listing,,Condo/Co-op,370 Chestnut Hill Ave #5,Boston,MA,02135,429000,2,1.0,Boston,770,,1950,1,557,579,Active,August-8-2020 11:30 AM,August-8-2020 01:00 PM,http://www.redfin.com/MA/Boston/370-Chestnut-Hill-Ave-02135/unit-5/home/9308487,MLS PIN,72704850,N,Y,42.3366018,-71.1509181
MLS Listing,,Condo/Co-op,463 Rutherford Ave #402,Boston,MA,02129,689000,2,2.0,Charlestown,850,,2015,1,811,499,Active,August-9-2020 02:00 PM,August-9-2020 03:30 PM,http://www.redfin.com/MA/Boston/463-Rutherford-Ave-02129/unit-402/home/146212801,MLS PIN,72704849,N,Y,42.3808565,-71.0713251
MLS Listing,,Condo/Co-op,605 Massachusetts Ave #7,Boston,MA,02118,469900,1,1.0,South End,415,378,1900,1,1132,293,Active,August-8-2020 12:00 PM,August-8-2020 01:30 PM,http://www.redfin.com/MA/Boston/605-Massachusetts-Ave-02118/unit-7/home/9287417,MLS PIN,72704829,N,Y,42.3370628,-71.0780854
MLS Listing,,Multi-Family (2-4 Unit),5-A Lorenzo St,Boston,MA,02122,599999,4,2.0,Dorchester's Neponset,1782,3042,1905,1,337,,Active,,,http://www.redfin.com/MA/Dorchester/5A-Lorenzo-St-02122/home/132314565,MLS PIN,72704822,N,Y,42.287053,-71.041914
MLS Listing,,Condo/Co-op,280 W 5Th St #101,Boston,MA,02127,1249000,2,2.5,South Boston,1624,,2017,1,769,295,Active,August-7-2020 12:00 PM,August-7-2020 01:30 PM,http://www.redfin.com/MA/Boston/280-W-Fifth-St-02127/unit-101/home/141860342,MLS PIN,72704818,N,Y,42.3350973,-71.0483935
MLS Listing,,Condo/Co-op,357 Commercial St #210,Boston,MA,02109,1000000,2,1.5,Waterfront,905,,1900,1,1105,535,Active,August-9-2020 12:00 PM,August-9-2020 01:00 PM,http://www.redfin.com/MA/Boston/357-Commercial-St-02109/unit-210/home/9230233,MLS PIN,72704792,N,Y,42.3661069,-71.0505699
MLS Listing,,Multi-Family (2-4 Unit),48 Pearl St,Boston,MA,02129,1398000,3,3.0,Charlestown,3030,1433,1870,1,461,,Active,,,http://www.redfin.com/MA/Charlestown/48-Pearl-St-02129/home/9060449,MLS PIN,72704787,N,Y,42.379355,-71.0639257
MLS Listing,,Condo/Co-op,100 Lovejoy Wharf Ph 3B,Boston,MA,02114,1688000,2,2.0,Waterfront,1275,,2017,1,1324,1770,Active,,,http://www.redfin.com/MA/Boston/100-Lovejoy-Wharf-02114/unit-3B/home/146992744,MLS PIN,72704763,N,Y,42.3670218,-71.0600856
MLS Listing,,Multi-Family (2-4 Unit),60 Lithgow St,Boston,MA,02124,850000,9,3.0,Dorchester,4410,5392,1905,1,193,,Active,,,http://www.redfin.com/MA/Dorchester-Center/60-Lithgow-St-02124/home/9068714,MLS PIN,72704762,N,Y,42.2907089,-71.0679532
MLS Listing,,Condo/Co-op,100 Saint Marys St #5,Boston,MA,02215,599000,2,1.0,The Fenway,652,5756,1880,1,919,479,Active,,,http://www.redfin.com/MA/Boston/100-St-Marys-St-02215/unit-5/home/9251185,MLS PIN,72704755,N,Y,42.3465444,-71.1067982
MLS Listing,,Condo/Co-op,2 Harvard Pl #2,Boston,MA,02129,529000,1,1.0,Charlestown,500,,1900,1,1058,225,Active,August-6-2020 05:30 PM,August-6-2020 06:30 PM,http://www.redfin.com/MA/Boston/2-Harvard-Pl-02129/unit-2/home/113226939,MLS PIN,72704730,N,Y,42.3723388,-71.0633492
MLS Listing,,Condo/Co-op,1625 Commonwealth Ave #1,Boston,MA,02135,360000,1,1.0,Brighton,471,471,1930,1,764,325,Active,,,http://www.redfin.com/MA/Boston/1625-Commonwealth-Ave-02135/unit-1/home/9002414,MLS PIN,72704717,N,Y,42.3428162,-71.1449067
MLS Listing,,Townhouse,77 Mount Vernon St Unit B,Somerville,MA,02145,639900,2,2.0,Somerville,942,1403,1988,1,679,281,Active,August-8-2020 11:00 AM,August-8-2020 01:00 PM,http://www.redfin.com/MA/Somerville/77-Mt-Vernon-St-02145/unit-B/home/8748445,MLS PIN,72704706,N,Y,42.382996,-71.081598
MLS Listing,,Condo/Co-op,151 Tremont St Unit 16C,Boston,MA,02111,625000,1,1.0,Midtown,735,735,1968,1,850,460,Active,,,http://www.redfin.com/MA/Boston/151-Tremont-St-02111/unit-16C/home/9279685,MLS PIN,72704702,N,Y,42.3544996,-71.0633802
MLS Listing,,Single Family Residential,108 Waldemar Ave,Boston,MA,02128,379000,3,1.0,East Boston,1100,3864,1952,1,345,,Active,,,http://www.redfin.com/MA/Boston/108-Waldemar-Ave-02128/home/9109147,MLS PIN,72704698,N,Y,42.3920554,-71.0030437
MLS Listing,,Condo/Co-op,150 Orleans St #206,Boston,MA,02128,639900,1,1.0,East Boston,948,948,1920,1,675,575,Active,August-7-2020 05:00 PM,August-7-2020 06:30 PM,http://www.redfin.com/MA/Boston/150-Orleans-St-02128/unit-206/home/9107399,MLS PIN,72704696,N,Y,42.3702907,-71.0362555
MLS Listing,,Condo/Co-op,465-469 Hanover St Unit 5R,Boston,MA,02113,499900,1,1.0,North End,445,445,1899,1,1123,206,Active,August-7-2020 04:00 PM,August-7-2020 06:00 PM,http://www.redfin.com/MA/Boston/465-Hanover-St-02113/unit-5R/home/21639926,MLS PIN,72704688,N,Y,42.3667607,-71.0524344
MLS Listing,,Multi-Family (2-4 Unit),202 South St,Boston,MA,02130,1200000,8,3.0,Jamaica Plain,3628,4041,1905,1,331,,Active,August-8-2020 11:00 AM,August-8-2020 12:30 PM,http://www.redfin.com/MA/Jamaica-Plain/202-South-St-02130/home/9150111,MLS PIN,72704681,N,Y,42.3032331,-71.1143772
MLS Listing,,Condo/Co-op,130 Hyde Park Ave,Boston,MA,02130,699000,3,2.0,Jamaica Plain,1720,,1885,1,406,300,Active,,,http://www.redfin.com/MA/Boston/130-Hyde-Park-Ave-02130/home/9151607,MLS PIN,72704685,N,Y,42.2965552,-71.1155377
MLS Listing,,Condo/Co-op,59 Congreve St #1,Boston,MA,02131,575000,2,1.0,Roslindale,1443,,1910,1,398,200,Active,,,http://www.redfin.com/MA/Boston/59-Congreve-St-02131/unit-1/home/104491023,MLS PIN,72704680,N,Y,42.2898315,-71.1385552
MLS Listing,,Townhouse,319 Grove St #319,Boston,MA,02132,449000,2,1.5,West Roxbury,1206,1206,1983,1,372,371,Active,,,http://www.redfin.com/MA/West-Roxbury/319-Grove-St-02132/unit-319/home/172664179,MLS PIN,72704665,N,Y,42.2589607,-71.1568942
MLS Listing,,Condo/Co-op,34 E Newton #1,Boston,MA,02118,489000,1,1.0,South End,380,,1900,1,1287,239,Active,,,http://www.redfin.com/MA/Boston/34-E-Newton-St-02118/unit-1/home/9285026,MLS PIN,72704658,N,Y,42.3379877,-71.0723858
MLS Listing,,Condo/Co-op,147 Trenton St #2,Boston,MA,02128,499000,3,1.0,Boston,1007,1007,1880,1,496,160,Active,August-8-2020 11:30 AM,August-8-2020 01:30 PM,http://www.redfin.com/MA/Boston/147-Trenton-St-02128/unit-2/home/18974362,MLS PIN,72704656,N,Y,42.3796922,-71.0336144
MLS Listing,,Single Family Residential,65 Oak Square Ave,Boston,MA,02135,759000,4,1.5,Boston,1984,3224,1900,1,383,,Active,August-8-2020 12:00 PM,August-8-2020 04:00 PM,http://www.redfin.com/MA/Brighton/65-Oak-Square-Ave-02135/home/9035150,MLS PIN,72704614,N,Y,42.351966,-71.1634879
MLS Listing,,Multi-Family (2-4 Unit),59 Goodenough St,Boston,MA,02135,1100000,5,4.0,Brighton,2688,4000,1924,1,409,,Active,August-9-2020 12:00 PM,August-9-2020 01:30 PM,http://www.redfin.com/MA/Brighton/59-Goodenough-St-02135/home/9017416,MLS PIN,72704593,N,Y,42.3553165,-71.154576
MLS Listing,,Condo/Co-op,20 Chapel St Unit B701,Brookline,MA,02446,729000,1,1.0,Longwood,764,174240,1920,1,954,707,Active,,,http://www.redfin.com/MA/Brookline/20-Chapel-St-02446/unit-B701/home/12458205,MLS PIN,72704595,N,Y,42.3410329,-71.1110021
MLS Listing,,Condo/Co-op,280 Commonwealth Ave Unit G7,Boston,MA,02116,489000,0,1.0,Back Bay,547,547,1899,1,894,206,Active,August-8-2020 11:00 AM,August-8-2020 12:30 PM,http://www.redfin.com/MA/Boston/280-Commonwealth-Ave-02116/unit-G7/home/9266452,MLS PIN,72704585,N,Y,42.3498104,-71.0840765
MLS Listing,,Condo/Co-op,580 Washington St #404,Boston,MA,02111,850000,1,1.0,Boston,777,,2013,1,1094,742,Active,,,http://www.redfin.com/MA/Boston/580-Washington-St-02111/unit-404/home/85680490,MLS PIN,72704580,N,Y,42.3533804,-71.0619769
MLS Listing,,Condo/Co-op,222 W Canton St #1,Boston,MA,02116,3095000,3,3.5,South End,2534,2534,1890,1,1221,427,Active,August-6-2020 05:00 PM,August-6-2020 06:30 PM,http://www.redfin.com/MA/Boston/222-W-Canton-St-02116/unit-1/home/18982993,MLS PIN,72704553,N,Y,42.3452163,-71.0775258
MLS Listing,,Condo/Co-op,10 Otis Pl Unit 4B,Boston,MA,02108,3650000,3,3.5,Beacon Hill,2418,,1900,1,1510,945,Active,,,http://www.redfin.com/MA/Boston/10-Otis-Pl-02108/unit-4B/home/9254625,MLS PIN,72704549,N,Y,42.3570332,-71.0724566
MLS Listing,,Condo/Co-op,65 Chester St #8,Boston,MA,02134,399000,2,1.0,Allston,700,700,1920,1,570,470,Active,August-6-2020 05:00 PM,August-6-2020 06:00 PM,http://www.redfin.com/MA/Boston/65-Chester-St-02134/unit-8/home/8992078,MLS PIN,72704541,N,Y,42.3527821,-71.1280084
MLS Listing,,Condo/Co-op,124 Calumet St #3,Boston,MA,02120,729000,4,2.0,Mission Hill,1685,1685,1900,1,433,250,Active,,,http://www.redfin.com/MA/Boston/124-Calumet-St-02120/unit-3/home/9326950,MLS PIN,72704531,N,Y,42.3309581,-71.1023706
MLS Listing,,Condo/Co-op,140 Kilsyth Rd #4,Boston,MA,02135,545000,2,1.0,Brighton,937,937,1912,1,582,390,Active,,,http://www.redfin.com/MA/Boston/140-Kilsyth-Rd-02135/unit-4/home/9308628,MLS PIN,72704494,N,Y,42.3394345,-71.1468538
MLS Listing,,Multi-Family (2-4 Unit),19 Rexhame,Boston,MA,02131,789500,5,2.0,Roslindale,2804,5000,1920,1,282,,Active,August-6-2020 05:00 PM,August-6-2020 06:30 PM,http://www.redfin.com/MA/Roslindale/19-Rexhame-St-02131/home/9173220,MLS PIN,72704478,N,Y,42.2853578,-71.1430181
MLS Listing,,Condo/Co-op,51 Old Harbor St #1,Boston,MA,02127,699000,2,2.0,South Boston,1126,1126,1890,1,621,200,Active,August-7-2020 01:00 PM,August-7-2020 02:30 PM,http://www.redfin.com/MA/Boston/51-Old-Harbor-St-02127/unit-1/home/45406992,MLS PIN,72704474,N,Y,42.3331018,-71.0476421
MLS Listing,,Condo/Co-op,238 Bremen #3,Boston,MA,02128,640000,2,2.0,East Boston,1127,,2020,1,568,200,Active,August-8-2020 12:00 PM,August-8-2020 02:00 PM,http://www.redfin.com/MA/Boston/238-Bremen-St-02128/unit-3/home/172663293,MLS PIN,72704473,N,Y,42.3744864,-71.0325746
MLS Listing,,Condo/Co-op,45 Mount Vernon St Unit 4A,Boston,MA,02108,995000,1,2.0,Boston,1080,1080,1850,1,921,307,Active,August-8-2020 11:00 AM,August-8-2020 12:30 PM,http://www.redfin.com/MA/Boston/45-Mt-Vernon-St-02108/unit-4A/home/9259211,MLS PIN,72704442,N,Y,42.3584702,-71.0653301
MLS Listing,,Condo/Co-op,45 High St Unit B,Boston,MA,02129,409000,0,1.0,Charlestown,590,,1890,1,693,131,Active,August-9-2020 12:00 PM,August-9-2020 01:30 PM,http://www.redfin.com/MA/Boston/45-High-St-02129/unit-B/home/9062131,MLS PIN,72704440,N,Y,42.376503,-71.063011
MLS Listing,,Condo/Co-op,702 Massachuestts Ave #7,Boston,MA,02118,380000,1,1.0,South End,372,,1910,1,1022,295,Active,,,http://www.redfin.com/MA/Boston/702-Massachusetts-Ave-02118/unit-7/home/9323017,MLS PIN,72704434,N,Y,42.3352063,-71.0749985
MLS Listing,,Townhouse,101 Grew Ave Unit B,Boston,MA,02131,399900,3,2.5,Boston,1380,1380,1988,1,290,311,Active,August-8-2020 12:00 PM,August-8-2020 01:30 PM,http://www.redfin.com/MA/Boston/101-Grew-Ave-02131/unit-B/home/9307283,MLS PIN,72704428,N,Y,42.275047,-71.122583
MLS Listing,,Condo/Co-op,59 Goodenough St #2,Boston,MA,02135,600000,3,2.0,Brighton,1500,,1924,1,400,200,Active,August-9-2020 12:00 PM,August-9-2020 01:30 PM,http://www.redfin.com/MA/Brighton/59-Goodenough-St-02135/unit-2/home/169246934,MLS PIN,72704405,N,Y,42.3553165,-71.154576
MLS Listing,,Condo/Co-op,59 Goodenough St #1,Boston,MA,02135,500000,2,2.0,Brighton,900,,1924,1,556,200,Active,August-9-2020 12:00 PM,August-9-2020 01:30 PM,http://www.redfin.com/MA/Brighton/59-Goodenough-St-02135/unit-1/home/169246933,MLS PIN,72704404,N,Y,42.3553165,-71.154576
MLS Listing,,Condo/Co-op,10 Greenley Pl #3,Boston,MA,02130,519000,3,1.0,Jamaica Plain,1292,,1910,1,402,200,Active,August-8-2020 10:30 AM,August-8-2020 12:30 PM,http://www.redfin.com/MA/Boston/10-Greenley-Pl-02130/unit-3/home/11506595,MLS PIN,72704383,N,Y,42.310512,-71.1050517
MLS Listing,,Multi-Family (2-4 Unit),76 Ridgewood,Boston,MA,02122,839900,9,3.0,Dorchester,3249,4116,1905,1,259,,Active,,,http://www.redfin.com/MA/Dorchester/76-Ridgewood-St-02122/home/9079690,MLS PIN,72704375,N,Y,42.3026215,-71.0643783
MLS Listing,,Single Family Residential,38 Osceola St,Boston,MA,02136,399000,3,2.0,Hyde Park,1248,4941,1920,1,320,,Active,,,http://www.redfin.com/MA/HYDE-PARK/38-OSCEOLA-ST-02136/home/9164460,MLS PIN,72704351,N,Y,42.262031,-71.102172
MLS Listing,,Condo/Co-op,380 Bunker Hill St #303,Boston,MA,02129,1729000,3,3.0,Charlestown,1871,,1907,1,924,910,Active,August-6-2020 05:00 PM,August-6-2020 06:00 PM,http://www.redfin.com/MA/Boston/380-Bunker-Hill-St-02129/unit-303/home/172662806,MLS PIN,72704326,N,Y,42.381908,-71.0693692
MLS Listing,,Condo/Co-op,5 Appleton St Unit 3B,Boston,MA,02116,1049900,2,1.0,South End,1025,1025,1900,1,1024,365,Active,August-7-2020 04:30 PM,August-7-2020 05:30 PM,http://www.redfin.com/MA/Boston/5-Appleton-St-02116/unit-3B/home/11836677,MLS PIN,72704323,N,Y,42.3466867,-71.0698758
MLS Listing,,Condo/Co-op,239 Lexington St #2,Boston,MA,02128,799900,3,2.0,East Boston,1362,,1900,1,587,300,Active,August-8-2020 11:00 AM,August-8-2020 12:00 PM,http://www.redfin.com/MA/Boston/239-Lexington-St-02128/unit-2/home/172662778,MLS PIN,72704313,N,Y,42.379866,-71.031137
MLS Listing,,Condo/Co-op,1949 Commonwealth Ave #32,Boston,MA,02135,410000,1,1.0,Brighton,610,,1932,1,672,290,Active,,,http://www.redfin.com/MA/Boston/1949-Commonwealth-Ave-02135/unit-32/home/9242484,MLS PIN,72704304,N,Y,42.3395204,-71.1563018
MLS Listing,,Condo/Co-op,78 Forest Hills St #1,Boston,MA,02130,525000,2,1.0,Jamaica Plain,1038,4262,1905,1,506,160,Active,August-7-2020 02:00 PM,August-7-2020 03:30 PM,http://www.redfin.com/MA/Boston/78-Forest-Hills-St-02130/unit-1/home/12441538,MLS PIN,72704283,N,Y,42.3094967,-71.1021592
MLS Listing,,Single Family Residential,20 Woodland Pl,Boston,MA,02136,600000,3,2.0,Cleary Square,1655,29837,1920,1,363,,Active,August-8-2020 11:00 AM,August-8-2020 12:30 PM,http://www.redfin.com/MA/Hyde-Park/20-Woodland-Pl-02136/home/9136551,MLS PIN,72704285,N,Y,42.2526803,-71.1223151
MLS Listing,,Condo/Co-op,111 Perkins St Unit 224-6,Boston,MA,02130,1180000,3,3.0,Jamaica Plain,2100,,1963,1,562,2999,Active,,,http://www.redfin.com/MA/Jamaica-Plain/111-Perkins-St-02130/unit-224-6/home/172662654,MLS PIN,72704267,N,Y,42.3219957,-71.1164429
MLS Listing,,Multi-Family (2-4 Unit),112 Moore St,Boston,MA,02128,689900,3,2.0,Boston,1408,1875,1900,1,490,,Active,August-8-2020 12:00 PM,August-8-2020 02:00 PM,http://www.redfin.com/MA/Boston/112-Moore-St-02128/home/9108659,MLS PIN,72704256,N,Y,42.3810483,-71.0175424
MLS Listing,,Condo/Co-op,85 E India Row Unit 9c,Boston,MA,02110,1379000,1,1.5,Waterfront,1238,,1972,1,1114,1405,Active,,,http://www.redfin.com/MA/Boston/85-E-India-Row-02110/unit-9C/home/9261388,MLS PIN,72704255,N,Y,42.3581217,-71.0498232
MLS Listing,,Single Family Residential,12-14 Ennis Rd,Boston,MA,02119,900000,3,2.0,Jamaica Plain,1630,8388,1900,1,552,,Active,,,http://www.redfin.com/MA/Boston/12-Ennis-Rd-02119/home/77488250,MLS PIN,72704233,N,Y,42.312571,-71.09745
MLS Listing,,Townhouse,5-7 Louis Ter Unit 5A,Boston,MA,02124,535000,2,1.5,Dorchester's Ashmont,997,,2010,1,537,244,Active,August-6-2020 05:00 PM,August-6-2020 06:30 PM,http://www.redfin.com/MA/Boston/5-Louis-Ter-02124/unit-5A/home/39925150,MLS PIN,72704225,N,Y,42.2877959,-71.0568771
MLS Listing,,Condo/Co-op,480 Shawmut Unit 4B,Boston,MA,02118,749000,2,1.0,South End,735,,1900,1,1019,348,Active,August-8-2020 11:00 AM,August-8-2020 12:30 PM,http://www.redfin.com/MA/Boston/480-Shawmut-Ave-02118/unit-4B/home/9286718,MLS PIN,72704185,N,Y,42.338464,-71.0760081
MLS Listing,,Multi-Family (2-4 Unit),44 Hooker St,Boston,MA,02134,1490000,11,4.0,Allston,3504,5104,1930,1,425,,Active,,,http://www.redfin.com/MA/Allston/44-Hooker-St-02134/home/8991282,MLS PIN,72704149,N,Y,42.3585208,-71.1284426
MLS Listing,,Condo/Co-op,469 E 4th St #2,Boston,MA,02127,1399000,2,2.5,South Boston,2037,,2017,1,687,397,Active,,,http://www.redfin.com/MA/Boston/469-E-4th-St-02127/unit-2/home/113865255,MLS PIN,72704120,N,Y,42.3346813,-71.0465833
MLS Listing,,Condo/Co-op,93 Strathmore Rd #2,Boston,MA,02135,375000,1,1.0,Brighton,617,,1935,1,608,566,Active,,,http://www.redfin.com/MA/Boston/93-Strathmore-Rd-02135/unit-2/home/9026450,MLS PIN,72704112,N,Y,42.3392423,-71.1504828
MLS Listing,,Condo/Co-op,429 Chelsea St Unit - 1,Boston,MA,02128,528000,3,2.0,East Boston,992,,1890,1,532,148,Active,August-8-2020 01:00 PM,August-8-2020 02:30 PM,http://www.redfin.com/MA/Boston/429-Chelsea-St-02128/unit-1/home/167201933,MLS PIN,72704093,N,Y,42.3808863,-71.0257492
MLS Listing,,Condo/Co-op,10 Sydney St #3,Boston,MA,02125,899900,2,2.0,Dorchester's Savin Hill,1242,,2019,1,725,184,Active,August-8-2020 12:00 PM,August-8-2020 02:00 PM,http://www.redfin.com/MA/Dorchester/10-Sydney-St-02125/unit-3/home/163834607,MLS PIN,72704092,N,Y,42.3119283,-71.0537232
MLS Listing,,Condo/Co-op,15 Dixfield St #2,Boston,MA,02127,808000,2,1.5,South Boston,1086,1017,1890,1,744,225,Active,August-8-2020 11:00 AM,August-8-2020 12:30 PM,http://www.redfin.com/MA/Boston/15-Dixfield-St-02127/unit-2/home/9309048,MLS PIN,72704073,N,Y,42.3316331,-71.0468116
MLS Listing,,Townhouse,2 W Main St #2,Boston,MA,02126,429000,3,2.5,Dorchester,1417,1417,2009,1,303,344,Active,August-6-2020 04:00 PM,August-6-2020 06:00 PM,http://www.redfin.com/MA/Boston/2-W-Main-St-02124/unit-2/home/104210358,MLS PIN,72704066,N,Y,42.2870238,-71.0954689
MLS Listing,,Multi-Family (2-4 Unit),31 Hiawatha Rd,Boston,MA,02126,899900,9,3.0,Mattapan,4160,3822,1905,1,216,,Active,August-8-2020 12:00 PM,August-8-2020 02:00 PM,http://www.redfin.com/MA/Mattapan/31-Hiawatha-Rd-02126/home/11835915,MLS PIN,72704020,N,Y,42.2768655,-71.0948798
MLS Listing,,Townhouse,59 Fuller St #59,Boston,MA,02124,449000,2,1.5,Dorchester's Ashmont,1110,1552,1988,1,405,253,Active,August-6-2020 05:00 PM,August-6-2020 06:00 PM,http://www.redfin.com/MA/Boston/59-Fuller-St-02124/unit-59/home/113229878,MLS PIN,72703977,N,Y,42.2832258,-71.0682062
MLS Listing,,Condo/Co-op,56 Bryon Rd #2,Boston,MA,02467,299000,2,1.0,West Roxbury,786,786,1950,2,380,299,Active,,,http://www.redfin.com/MA/Chestnut-Hill/56-Bryon-Rd-02467/unit-2/home/9204372,MLS PIN,72704009,N,Y,42.3010409,-71.1675035
MLS Listing,,Condo/Co-op,1 Avery St Unit 15G,Boston,MA,02111,1495000,2,2.5,Midtown,1402,,2000,2,1066,2004,Active,,,http://www.redfin.com/MA/Boston/1-Avery-St-02111/unit-15G/home/9312453,MLS PIN,72704002,N,Y,42.3533168,-71.0628507
MLS Listing,,Single Family Residential,35 Halsey Rd,Boston,MA,02136,469999,3,1.0,Hyde Park,1008,5333,1950,2,466,,Active,August-6-2020 05:30 PM,August-6-2020 07:00 PM,http://www.redfin.com/MA/Hyde-Park/35-Halsey-Rd-02136/home/9136763,MLS PIN,72703998,N,Y,42.242008,-71.1243112
MLS Listing,,Condo/Co-op,10 Linley Ter #1,Boston,MA,02127,715000,2,2.0,Boston,871,,1900,2,821,141,Active,August-8-2020 11:00 AM,August-8-2020 01:00 PM,http://www.redfin.com/MA/Boston/10-Linley-Ter-02127/unit-1/home/69442410,MLS PIN,72703973,N,Y,42.3359551,-71.0390909
MLS Listing,,Single Family Residential,10 Ashfield St,Boston,MA,02131,1150000,5,4.5,Roslindale,3843,6000,1896,2,299,,Active,August-8-2020 11:30 AM,August-8-2020 01:00 PM,http://www.redfin.com/MA/Roslindale/10-Ashfield-St-02131/home/9169397,MLS PIN,72703915,N,Y,42.2897761,-71.1304154
MLS Listing,,Single Family Residential,29 Westmount Ave,Boston,MA,02132,860000,4,2.0,West Roxbury,1683,14130,1900,2,511,,Active,August-8-2020 11:30 AM,August-8-2020 12:30 PM,http://www.redfin.com/MA/West-Roxbury/29-Westmount-Ave-02132/home/9201089,MLS PIN,72703903,N,Y,42.283318,-71.160421
MLS Listing,,Condo/Co-op,399 Main St #3,Boston,MA,02129,700000,1,1.0,Charlestown,935,,1865,2,749,179,Active,,,http://www.redfin.com/MA/Boston/399-Main-St-02129/unit-3/home/56465958,MLS PIN,72703866,N,Y,42.3803847,-71.0697615
MLS Listing,,Condo/Co-op,114 Main St #3,Boston,MA,02129,829000,1,1.0,Charlestown,902,,1899,2,919,200,Active,August-6-2020 05:00 PM,August-6-2020 07:00 PM,http://www.redfin.com/MA/Charlestown/114-Main-St-02129/unit-3/home/172660202,MLS PIN,72703843,N,Y,42.3743476,-71.0638223
MLS Listing,,Condo/Co-op,114 Main St #2,Boston,MA,02129,1029000,2,2.0,Charlestown,1124,,1899,2,915,200,Active,August-6-2020 05:00 PM,August-6-2020 07:00 PM,http://www.redfin.com/MA/Charlestown/114-Main-St-02129/unit-2/home/172660201,MLS PIN,72703842,N,Y,42.3743476,-71.0638223
MLS Listing,,Condo/Co-op,114 Main St #4,Boston,MA,02129,799000,1,1.0,Charlestown,852,,1899,2,938,200,Active,August-6-2020 05:00 PM,August-6-2020 07:00 PM,http://www.redfin.com/MA/Charlestown/114-Main-St-02129/unit-4/home/172660188,MLS PIN,72703840,N,Y,42.3743476,-71.0638223
MLS Listing,,Townhouse,15 Sparhawk St #2,Boston,MA,02135,949000,2,2.0,Brighton,1529,,1889,2,621,185,Active,August-8-2020 12:00 PM,August-8-2020 01:00 PM,http://www.redfin.com/MA/Boston/15-Sparhawk-St-02135/unit-2/home/105427154,MLS PIN,72703818,N,Y,42.3510607,-71.1496039
MLS Listing,,Condo/Co-op,461 Beacon St #2,Boston,MA,02115,1200000,2,2.5,Back Bay,1178,1178,1880,2,1019,300,Active,August-6-2020 05:30 PM,August-6-2020 06:30 PM,http://www.redfin.com/MA/Boston/461-Beacon-St-02115/unit-2/home/11735548,MLS PIN,72703787,N,Y,42.350934,-71.0881213
MLS Listing,,Townhouse,24 Mount Vernon St Unit C,Boston,MA,02125,699000,3,2.0,Dorchester,1357,1357,1995,2,515,250,Active,August-6-2020 05:00 PM,August-6-2020 06:30 PM,http://www.redfin.com/MA/Dorchester/24-Mount-Vernon-St-02125/unit-C/home/172671636,MLS PIN,72703755,N,Y,42.322203,-71.0578785
MLS Listing,,Condo/Co-op,2 Avery St Unit 29D,Boston,MA,02111,2300000,2,2.5,Boston,1596,1596,1999,2,1441,2477,Active,,,http://www.redfin.com/MA/Boston/2-Avery-St-02111/unit-29D/home/9313066,MLS PIN,72703731,N,Y,42.3528703,-71.0629976
MLS Listing,,Condo/Co-op,86 Worcester St #2,Boston,MA,02118,799000,2,1.0,South End,763,,1899,2,1047,160,Active,August-6-2020 05:00 PM,August-6-2020 06:30 PM,http://www.redfin.com/MA/Boston/86-Worcester-St-02118/unit-2/home/9290354,MLS PIN,72703683,N,Y,42.3394635,-71.0784231
MLS Listing,,Single Family Residential,12 Worthington Rd,Brookline,MA,02446,4495000,7,3.5,Cottage Farm,5500,10877,1913,2,817,,Active,,,http://www.redfin.com/MA/Brookline/12-Worthington-Rd-02446/home/11442047,MLS PIN,72703671,N,Y,42.3486911,-71.1120329
MLS Listing,,Condo/Co-op,133 Seaport Blvd #512,Boston,MA,02210,948900,0,1.0,Seaport District,611,,2019,2,1553,718,Active,,,http://www.redfin.com/MA/Boston/133-Seaport-Blvd-02210/unit-512/home/170280896,MLS PIN,72703646,N,Y,42.3504935,-71.0434498
MLS Listing,,Townhouse,96 Beacon St #2,Boston,MA,02108,5650000,3,3.5,Beacon Hill,2831,2831,1900,2,1996,2621,Active,,,http://www.redfin.com/MA/Boston/96-Beacon-St-02108/unit-2/home/12369130,MLS PIN,72703627,N,Y,42.3556921,-71.0727037
MLS Listing,,Condo/Co-op,38 Jamaica St #2,Boston,MA,02130,899000,2,2.5,Jamaica Plain,1356,4800,1880,2,663,150,Active,,,http://www.redfin.com/MA/Boston/38-Jamaica-St-02130/unit-2/home/172658795,MLS PIN,72703625,N,Y,42.3058243,-71.117705
MLS Listing,,Condo/Co-op,16 Sackville St #1,Boston,MA,02129,559000,1,1.0,Charlestown,602,,1880,2,929,111,Active,August-6-2020 05:30 PM,August-6-2020 06:30 PM,http://www.redfin.com/MA/Boston/16-Sackville-St-02129/unit-1/home/18982685,MLS PIN,72703613,N,Y,42.3809849,-71.0650444
MLS Listing,,Single Family Residential,38 Jamaica St,Boston,MA,02130,899000,2,2.5,Jamaica Plain,1356,4800,1880,2,663,150,Active,August-6-2020 04:30 PM,August-6-2020 05:30 PM,http://www.redfin.com/MA/Boston/38-Jamaica-St-02130/unit-000038/home/9299576,MLS PIN,72703610,N,Y,42.3058243,-71.117705
MLS Listing,,Condo/Co-op,151 Tremont St #405,Boston,MA,02111,79000,0,,Midtown,9999,,1969,2,8,142,Active,,,http://www.redfin.com/MA/Boston/151-Tremont-St-02111/unit-405/home/166995900,MLS PIN,72703601,N,Y,42.3549861,-71.063255
MLS Listing,,Condo/Co-op,1672-R Washington St Ph 1,Boston,MA,02118,1895000,2,2.5,South End,1579,1579,2013,2,1200,734,Active,August-6-2020 05:30 PM,August-6-2020 07:00 PM,http://www.redfin.com/MA/Boston/1672-Washington-St-02118/unit-1/home/65653991,MLS PIN,72703594,N,Y,42.3374311,-71.0754016
MLS Listing,,Condo/Co-op,32 Union Park #4,Boston,MA,02118,1385000,2,2.0,South End,1028,1028,1900,2,1347,319,Active,,,http://www.redfin.com/MA/Boston/32-Union-Park-02118/unit-4/home/9282029,MLS PIN,72703593,N,Y,42.3427694,-71.0718842
MLS Listing,,Condo/Co-op,1 Winter Pl,Boston,MA,02108,2750000,3,2.5,Midtown,3323,,1832,2,828,942,Active,August-6-2020 04:30 PM,August-6-2020 05:30 PM,http://www.redfin.com/MA/Boston/1-Winter-Pl-02108/home/54813702,MLS PIN,72703592,N,Y,42.3555521,-71.0613835
MLS Listing,,Multi-Family (2-4 Unit),65 Harvest St,Boston,MA,02125,1195000,5,2.0,Dorchester,3111,5455,1900,2,384,,Active,,,http://www.redfin.com/MA/Dorchester/65-Harvest-St-02125/home/9099735,MLS PIN,72703586,N,Y,42.3236028,-71.0595499
MLS Listing,,Condo/Co-op,135 Appleton St #1,Boston,MA,02116,1399000,2,2.0,South End,1222,1222,1899,2,1145,100,Active,,,http://www.redfin.com/MA/Boston/135-Appleton-St-02116/unit-1/home/9233249,MLS PIN,72703499,N,Y,42.3451784,-71.0751838
MLS Listing,,Condo/Co-op,1030 Bennington St #2,Boston,MA,02128,360000,2,1.0,East Boston's Orient Heights,842,842,1960,2,428,437,Active,,,http://www.redfin.com/MA/Boston/1030-Bennington-St-02128/unit-2/home/9106990,MLS PIN,72703491,N,Y,42.3873473,-71.0054538
MLS Listing,,Condo/Co-op,86 Eutaw #3,Boston,MA,02128,549900,2,1.0,East Boston's Eagle Hill,830,,1870,2,663,275,Active,August-8-2020 11:30 AM,August-8-2020 01:00 PM,http://www.redfin.com/MA/Boston/86-Eutaw-St-02128/unit-3/home/77467167,MLS PIN,72703432,N,Y,42.3799007,-71.0363592
MLS Listing,,Condo/Co-op,65 E India Row Unit 29D,Boston,MA,02110,699000,1,1.0,Waterfront,749,749,1972,2,933,844,Active,,,http://www.redfin.com/MA/Boston/65-E-India-Row-02110/unit-29D/home/9261030,MLS PIN,72703417,N,Y,42.3576699,-71.0504859
MLS Listing,,Single Family Residential,510 E 8Th St,Boston,MA,02127,849000,2,1.5,South Boston,1215,1140,1900,2,699,,Active,,,http://www.redfin.com/MA/Boston/510-E-8th-St-02127/home/9194586,MLS PIN,72703374,N,Y,42.331507,-71.0410631
MLS Listing,,Multi-Family (2-4 Unit),73 Halifax St,Boston,MA,02130,1799999,10,3.0,Jamaica Plain,4965,4611,1910,2,363,,Active,,,http://www.redfin.com/MA/Jamaica-Plain/73-Halifax-St-02130/home/9141985,MLS PIN,72703352,N,Y,42.3206968,-71.1153627
MLS Listing,,Condo/Co-op,443 W 4Th St #1,Boston,MA,02127,699000,2,2.0,South Boston,840,,1890,2,832,215,Active,August-6-2020 04:30 PM,August-6-2020 06:30 PM,http://www.redfin.com/MA/Boston/443-W-Fourth-St-02127/unit-1/home/18996726,MLS PIN,72703347,N,Y,42.3353342,-71.0477157
MLS Listing,,Condo/Co-op,39 A #18,Boston,MA,02127,899000,2,2.0,South Boston,892,,2018,2,1008,272,Active,August-8-2020 12:30 PM,August-8-2020 02:00 PM,http://www.redfin.com/MA/Boston/39-A-St-02127/unit-18/home/143897180,MLS PIN,72703325,N,Y,42.3413218,-71.0559953
MLS Listing,,Condo/Co-op,8 Everett #2,Boston,MA,02130,1050000,2,2.0,Jamaica Plain,1423,5440,1884,2,738,300,Active,,,http://www.redfin.com/MA/Jamaica-Plain/8-Everett-St-02130/unit-2/home/172656690,MLS PIN,72703299,N,Y,42.3100281,-71.1087834
MLS Listing,,Condo/Co-op,6 Charter St #1,Boston,MA,02113,699900,2,1.0,North End,1040,,1890,2,673,200,Active,August-8-2020 11:00 AM,August-8-2020 01:00 PM,http://www.redfin.com/MA/Boston/6-Charter-St-02113/unit-1/home/9278005,MLS PIN,72703298,N,Y,42.3659389,-71.0531884
MLS Listing,,Condo/Co-op,156-168 Terrace St #411,Boston,MA,02120,699000,2,2.0,Mission Hill,1511,,1900,2,463,900,Active,,,http://www.redfin.com/MA/Boston/156-168-Terrace-St-02120/unit-411/home/45407037,MLS PIN,72703292,N,Y,42.3291339,-71.0973695
MLS Listing,,Condo/Co-op,156 Terrace St #403,Boston,MA,02120,619900,2,2.0,Mission Hill,1378,,1900,2,450,821,Active,,,http://www.redfin.com/MA/Boston/156-Terrace-St-02120/unit-403/home/172656343,MLS PIN,72703290,N,Y,42.3272225,-71.0985355
MLS Listing,,Condo/Co-op,156 Terrace St #409,Boston,MA,02120,679900,2,2.0,Mission Hill,1492,,1900,2,456,889,Active,,,http://www.redfin.com/MA/Boston/156-Terrace-St-02120/unit-409/home/172656325,MLS PIN,72703289,N,Y,42.3272225,-71.0985355
MLS Listing,,Single Family Residential,43 Senator Bolling Cir,Boston,MA,02124,999999,4,3.5,Harvard Commons,3200,6663,2020,2,312,,Active,,,http://www.redfin.com/MA/Boston/43-Senator-Bolling-Cir-02124/home/85680085,MLS PIN,72691325,N,Y,42.2901273,-71.0939353
MLS Listing,,Condo/Co-op,655 E 5Th St #2,Boston,MA,02127,855000,2,2.0,South Boston,1100,,2018,3,777,225,Active,,,http://www.redfin.com/MA/Boston/655-E-5th-St-02127/unit-2/home/172655494,MLS PIN,72703257,N,Y,42.3338206,-71.0343854
MLS Listing,,Condo/Co-op,655 E 5Th St #1,Boston,MA,02127,1099000,3,3.0,South Boston,1600,,2019,3,687,275,Active,,,http://www.redfin.com/MA/Boston/655-E-5th-St-02127/unit-1/home/172655465,MLS PIN,72703256,N,Y,42.3338206,-71.0343854
MLS Listing,,Condo/Co-op,365 E St #2,Boston,MA,02127,1099000,3,2.5,Boston,1375,,2018,3,799,275,Active,,,http://www.redfin.com/MA/Boston/365-E-St-02127/unit-2/home/172655464,MLS PIN,72703255,N,Y,42.3388133,-71.0478774
MLS Listing,,Condo/Co-op,365 E St #1,Boston,MA,02127,849000,1,1.5,South Boston,1275,,2019,3,666,250,Active,,,http://www.redfin.com/MA/Boston/365-E-St-02127/unit-1/home/172655451,MLS PIN,72703252,N,Y,42.3388133,-71.0478774
MLS Listing,,Condo/Co-op,729 E 5th #2,Boston,MA,02127,1290000,3,3.0,South Boston,2000,,2018,3,645,250,Active,,,http://www.redfin.com/MA/Boston/729-E-5th-St-02127/unit-2/home/171033311,MLS PIN,72703248,N,Y,42.33379,-71.03073
MLS Listing,,Condo/Co-op,1 Goodwin Pl #1,Boston,MA,02114,825000,2,1.5,Beacon Hill,798,,1899,3,1034,348,Active,August-8-2020 12:45 PM,August-8-2020 02:15 PM,http://www.redfin.com/MA/Boston/1-Goodwin-Pl-02114/unit-1/home/113225598,MLS PIN,72703247,N,Y,42.3595258,-71.0690771
MLS Listing,,Condo/Co-op,229 Princeton St #1,Boston,MA,02128,479000,2,1.0,East Boston,827,,1900,3,579,259,Active,,,http://www.redfin.com/MA/Boston/229-Princeton-St-02128/unit-1/home/113972995,MLS PIN,72703217,N,Y,42.379079,-71.0312281
MLS Listing,,Single Family Residential,620 E 6th,Boston,MA,02127,1075000,5,2.5,South Boston,2040,1425,1890,3,527,,Active,August-6-2020 05:30 PM,August-6-2020 07:00 PM,http://www.redfin.com/MA/Boston/620-E-6th-St-02127/home/9188094,MLS PIN,72703144,N,Y,42.3332781,-71.0356959
MLS Listing,,Condo/Co-op,1870 Commonwealth Ave #14,Boston,MA,02135,389900,1,1.0,Boston,650,650,1930,3,600,325,Active,August-8-2020 11:30 AM,August-8-2020 01:00 PM,http://www.redfin.com/MA/Boston/1870-Commonwealth-Ave-02135/unit-14/home/9028052,MLS PIN,72703104,N,Y,42.3380512,-71.1524517
MLS Listing,,Single Family Residential,25 Millstone Rd,Boston,MA,02136,559000,4,1.5,Hyde Park's Readville,1450,4979,1967,3,386,,Active,August-6-2020 04:00 PM,August-6-2020 06:00 PM,http://www.redfin.com/MA/Hyde-Park/25-Millstone-Rd-02136/home/9134282,MLS PIN,72703081,N,Y,42.2336838,-71.1337808
MLS Listing,,Condo/Co-op,593 E 5th #3,Boston,MA,02127,435000,1,1.0,South Boston,515,,1890,3,845,180,Active,August-6-2020 05:00 PM,August-6-2020 07:00 PM,http://www.redfin.com/MA/Boston/593-E-5th-St-02127/unit-3/home/9303307,MLS PIN,72703067,N,Y,42.3337723,-71.0366235
MLS Listing,,Condo/Co-op,1982 Commonwealth Ave #8,Boston,MA,02135,559000,2,1.0,Brighton,893,9999,1927,3,626,533,Active,August-8-2020 01:00 PM,August-8-2020 02:00 PM,http://www.redfin.com/MA/Boston/1982-Commonwealth-Ave-02135/unit-8/home/9032622,MLS PIN,72703057,N,Y,42.3392584,-71.1578663
MLS Listing,,Condo/Co-op,2 Avery Unit 25A,Boston,MA,01111,1125000,1,1.5,Midtown,804,,2000,3,1399,1200,Active,,,http://www.redfin.com/MA/Boston/2-Avery-St-02111/unit-25A/home/11837562,MLS PIN,72703052,N,Y,42.3528703,-71.0629976
MLS Listing,,Condo/Co-op,3531 Washington St Ph 522,Boston,MA,02130,890000,2,2.0,Jamaica Plain,1414,,2020,3,629,817,Active,,,http://www.redfin.com/MA/Boston/3531-Washington-St-02130/unit-522/home/171974962,MLS PIN,72703021,N,Y,42.3055522,-71.108879
MLS Listing,,Condo/Co-op,1880 Beacon St #6,Brookline,MA,02445,469999,1,1.0,Brookline,474,,1900,3,992,254,Active,August-9-2020 11:00 AM,August-9-2020 12:30 PM,http://www.redfin.com/MA/Brookline/1880-Beacon-St-02445/unit-6/home/11457126,MLS PIN,72703003,N,Y,42.3370948,-71.1470676
MLS Listing,,Condo/Co-op,135 Seaport Blvd #2002,Boston,MA,02210,3545000,3,3.5,Seaport District,1899,,2020,3,1867,2855,Active,,,http://www.redfin.com/MA/Boston/135-Seaport-Blvd-02210/unit-2002/home/172651387,MLS PIN,72702965,N,Y,42.3509604,-71.0439013
MLS Listing,,Condo/Co-op,135 Seaport Blvd #707,Boston,MA,02210,1284000,1,1.0,Seaport District,845,,2020,3,1520,1051,Active,,,http://www.redfin.com/MA/Boston/135-Seaport-Blvd-02210/unit-707/home/170936434,MLS PIN,72702939,N,Y,42.3509604,-71.0439013
MLS Listing,,Condo/Co-op,135 Seaport Blvd #708,Boston,MA,02210,994000,1,1.0,Seaport District,670,,2020,3,1484,892,Active,,,http://www.redfin.com/MA/Boston/135-Seaport-Blvd-02210/unit-708/home/168964696,MLS PIN,72702930,N,Y,42.3509604,-71.0439013
MLS Listing,,Single Family Residential,414 E Fifth St,Boston,MA,02127,799000,4,1.0,South Boston,1788,1831,1911,3,447,,Active,,,http://www.redfin.com/MA/Boston/414-E-5th-St-02127/home/9189302,MLS PIN,72702906,N,Y,42.3339969,-71.043224
MLS Listing,,Townhouse,391 Hyde Park Ave #109,Boston,MA,02131,395000,2,1.5,Roslindale,1005,1005,1989,3,393,357,Active,,,http://www.redfin.com/MA/Boston/391-Hyde-Park-Ave-02131/unit-109/home/9166640,MLS PIN,72702875,N,Y,42.2869749,-71.1190184
MLS Listing,,Condo/Co-op,37 Paul Gore St #1,Boston,MA,02130,825000,3,1.5,Jamaica Plain,1369,1369,1905,3,603,151,Active,,,http://www.redfin.com/MA/Boston/37-Paul-Gore-St-02130/unit-1/home/9138758,MLS PIN,72702821,N,Y,42.319926,-71.1093578
MLS Listing,,Condo/Co-op,73 Sullivan St #3,Boston,MA,02129,639000,2,1.0,Charlestown,733,,1899,3,872,150,Active,August-6-2020 04:30 PM,August-6-2020 06:30 PM,http://www.redfin.com/MA/Boston/73-Sullivan-St-02129/unit-3/home/9060224,MLS PIN,72702817,N,Y,42.3788993,-71.0650697
MLS Listing,,Condo/Co-op,478 Beacon St #1,Boston,MA,02115,445000,0,1.0,Back Bay,323,,1892,3,1378,182,Active,,,http://www.redfin.com/MA/Boston/478-Beacon-St-02115/unit-1/home/9244461,MLS PIN,72702708,N,Y,42.3514011,-71.0886036
MLS Listing,,Condo/Co-op,99 Grove St #4,Boston,MA,02132,229900,1,1.0,West Roxbury,605,,1965,3,380,245,Active,August-8-2020 11:30 AM,August-8-2020 01:00 PM,http://www.redfin.com/MA/Boston/99-Grove-St-02132/unit-4/home/9222658,MLS PIN,72702698,N,Y,42.2660714,-71.1596885
MLS Listing,,Condo/Co-op,104 BROOKLEY #2,Boston,MA,02130,629000,2,2.0,Jamaica Plain,1100,,2020,3,572,165,Active,August-8-2020 12:30 PM,August-8-2020 02:00 PM,http://www.redfin.com/MA/Jamaica-Plain/104-Brookley-Rd-02130/unit-2/home/172649412,MLS PIN,72702697,N,Y,42.3026976,-71.1051218
MLS Listing,,Condo/Co-op,1 Franklin #1009,Boston,MA,02110,1239000,1,1.0,Midtown,780,,2016,3,1588,1055,Active,,,http://www.redfin.com/MA/Boston/1-Franklin-St-02110/unit-1009/home/145254388,MLS PIN,72702690,N,Y,42.3563166,-71.0595573
MLS Listing,,Condo/Co-op,163 Beacon St Unit B1,Boston,MA,02116,510000,1,1.0,Back Bay,520,,1900,3,981,385,Active,,,http://www.redfin.com/MA/Boston/163-Beacon-St-02116/unit-B1/home/9252332,MLS PIN,72702675,N,Y,42.3543829,-71.0753556
MLS Listing,,Townhouse,820 Truman Pkwy #1,Boston,MA,02136,620000,3,3.5,Hyde Park's Fairmount,2448,,2018,3,253,240,Active,August-9-2020 12:00 PM,August-9-2020 02:00 PM,http://www.redfin.com/MA/Boston/820-Truman-Pkwy-02136/unit-1/home/143800313,MLS PIN,72702666,N,Y,42.2488959,-71.1235218
MLS Listing,,Condo/Co-op,66 Montcalm Ave #2,Boston,MA,02135,650000,3,2.0,Brighton,1580,,1900,3,411,,Active,August-8-2020 12:00 PM,August-8-2020 02:00 PM,http://www.redfin.com/MA/Brighton/66-Montcalm-Ave-02135/unit-2/home/172649033,MLS PIN,72702622,N,Y,42.3531027,-71.1485418
MLS Listing,,Townhouse,6 Cheshire St #6,Boston,MA,02130,1199000,3,2.5,Jamaica Plain,2614,2614,1870,3,459,350,Active,August-7-2020 05:00 PM,August-7-2020 07:00 PM,http://www.redfin.com/MA/Boston/6-Cheshire-St-02130/unit-6/home/172649002,MLS PIN,72701428,N,Y,42.3119674,-71.1096963
MLS Listing,,Multi-Family (2-4 Unit),313 Meridian,Boston,MA,02128,999900,4,2.0,East Boston,2457,623,1920,4,407,,Active,,,http://www.redfin.com/MA/East-Boston/313-Meridian-St-02128/unit-313A/home/11506110,MLS PIN,72702585,N,Y,42.3774861,-71.0389936
MLS Listing,,Condo/Co-op,993 Memorial Dr #301,Cambridge,MA,02138,785000,2,1.0,Harvard Square,740,,1900,4,1061,467,Active,,,http://www.redfin.com/MA/Cambridge/993-Memorial-Dr-02138/unit-301/home/11575093,MLS PIN,72702558,N,Y,42.3735563,-71.1262848
MLS Listing,,Multi-Family (5+ Unit),42-44 Fenton St,Boston,MA,02122,1649000,10,6.0,Dorchester's Fields Corner,4308,4000,1910,4,383,,Active,,,http://www.redfin.com/MA/Boston/42-Fenton-St-02122/home/9085591,MLS PIN,72702425,N,Y,42.3036068,-71.0568588
MLS Listing,,Condo/Co-op,2 Battery Wharf #2501,Boston,MA,02109,865000,1,1.5,Waterfront,932,,2006,4,928,1237,Active,,,http://www.redfin.com/MA/Boston/2-Battery-Wharf-02109/unit-2501/home/17486351,MLS PIN,72702367,N,Y,42.3671015,-71.0504206
MLS Listing,,Multi-Family (2-4 Unit),10 Branton St,Boston,MA,02122,859000,5,2.0,Dorchester,2464,4000,1928,4,349,,Active,August-9-2020 11:00 AM,August-9-2020 01:00 PM,http://www.redfin.com/MA/Dorchester/10-Branton-St-02122/home/9103028,MLS PIN,72700219,N,Y,42.2837197,-71.0524928
MLS Listing,,Condo/Co-op,170 Tremont St #1801,Boston,MA,02111,1679000,3,2.0,Boston,1431,1431,1989,5,1173,1991,Active,,,http://www.redfin.com/MA/Boston/170-Tremont-St-02111/unit-1801/home/9232403,MLS PIN,72702343,N,Y,42.3536576,-71.063854
MLS Listing,,Condo/Co-op,127 Shirley St #2,Boston,MA,02119,419900,2,1.5,Boston,743,,1890,5,565,200,Active,,,http://www.redfin.com/MA/Boston/127-Shirley-St-02119/unit-2/home/172647736,MLS PIN,72702302,N,Y,42.3253189,-71.0685103
MLS Listing,,Townhouse,76 Charles Unit STORE,Boston,MA,02114,595000,0,0.5,Beacon Hill,392,,1920,5,1518,6,Active,,,http://www.redfin.com/MA/Boston/76-Charles-St-02114/unit-STORE/home/9304445,MLS PIN,72702285,N,Y,42.3580852,-71.0706368
MLS Listing,,Single Family Residential,24 Winslow Rd,Brookline,MA,02446,2150000,5,4.5,Brookline,2600,3228,1900,5,827,,Active,August-9-2020 12:00 PM,August-9-2020 01:30 PM,http://www.redfin.com/MA/Brookline/24-Winslow-Rd-02446/home/11448582,MLS PIN,72702283,N,Y,42.3508915,-71.1223813
MLS Listing,,Parking,57 L St,Boston,MA,02127,99000,,,South Boston,,85,,5,,100,Active,,,http://www.redfin.com/MA/Boston/57-L-St-02127/home/145291287,MLS PIN,72702233,N,Y,42.3361222,-71.0356854
MLS Listing,,Multi-Family (2-4 Unit),21 Leroy St,Boston,MA,02122,1250000,9,3.0,Boston,3972,3000,1905,5,315,,Active,,,http://www.redfin.com/MA/Dorchester/21-Leroy-St-02122/home/9080640,MLS PIN,72702214,N,Y,42.3008613,-71.0651676
MLS Listing,,Condo/Co-op,411 Shawmut Ave #5,Boston,MA,02118,539000,0,1.0,South End,450,,1899,5,1198,236,Active,,,http://www.redfin.com/MA/Boston/411-Shawmut-Ave-02118/unit-5/home/9286302,MLS PIN,72702189,N,Y,42.3403882,-71.0738774
MLS Listing,,Condo/Co-op,52 Fisher Ave #4,Boston,MA,02120,759000,3,2.0,Mission Hill,1186,,2020,5,640,250,Active,,,http://www.redfin.com/MA/Boston/52-Fisher-Ave-02120/unit-4/home/172646561,MLS PIN,72702120,N,Y,42.3275326,-71.1021664
MLS Listing,,Townhouse,808 Washington #808,Brookline,MA,02445,2049000,4,4.5,Brookline,2179,10018,1806,5,940,400,Active,,,http://www.redfin.com/MA/Brookline/808-Washington-St-02446/unit-808/home/172646436,MLS PIN,72702097,N,Y,42.3415006,-71.1394034
MLS Listing,,Condo/Co-op,50 Melrose St Unit 1 / 2,Boston,MA,02116,995000,0,1.5,Bay Village,2016,,1915,5,494,682,Active,,,http://www.redfin.com/MA/Boston/50-Melrose-St-02116/unit-1-2/home/170591109,MLS PIN,72702060,N,Y,42.3488792,-71.0688545
MLS Listing,,Condo/Co-op,623 Cummns Hwy Unit A,Boston,MA,02136,219000,2,1.0,Boston,601,,1950,6,364,398,Active,,,http://www.redfin.com/MA/HYDE-PARK/623-CUMMINS-HWY-02136/unit-A/home/21717525,MLS PIN,72702045,N,Y,42.271674,-71.106985
MLS Listing,,Condo/Co-op,496 E 3Rd St #3,Boston,MA,02127,759000,2,2.0,South Boston,906,906,1920,6,838,200,Active,August-6-2020 05:30 PM,August-6-2020 06:30 PM,http://www.redfin.com/MA/Boston/496-E-3rd-St-02127/unit-3/home/85680795,MLS PIN,72702040,N,Y,42.3365545,-71.0400751
MLS Listing,,Single Family Residential,209 W 6th St #209,Boston,MA,02127,859000,3,3.0,South Boston,1390,,1989,6,618,,Active,,,http://www.redfin.com/MA/Boston/209-W-Sixth-St-02127/unit-209/home/137813485,MLS PIN,72701928,N,Y,42.3352137,-71.0507319
MLS Listing,,Condo/Co-op,105 Fletcher St #1,Boston,MA,02131,449000,2,1.5,Boston,1065,,1928,6,422,175,Active,,,http://www.redfin.com/MA/Boston/105-Fletcher-St-02131/unit-1/home/26850251,MLS PIN,72701896,N,Y,42.2911549,-71.139146
MLS Listing,,Condo/Co-op,9 Hawthorne Pl Unit 16R,Boston,MA,02114,619000,1,1.0,West End,941,941,1967,6,658,892,Active,,,http://www.redfin.com/MA/Boston/9-Hawthorne-Pl-02114/unit-16R/home/9275700,MLS PIN,72701867,N,Y,42.3643661,-71.0655158
MLS Listing,,Condo/Co-op,10 Clover St #2,Boston,MA,02122,549000,2,1.5,Dorchester's Neponset,1128,,1906,6,487,168,Active,,,http://www.redfin.com/MA/Boston/10-Clover-St-02122/unit-2/home/69369912,MLS PIN,72701836,N,Y,42.2855965,-71.0451217
MLS Listing,,Condo/Co-op,221 Mount Auburn St #302,Cambridge,MA,02138,1200000,1,1.0,Harvard Square,998,,1960,6,1202,1312,Active,,,http://www.redfin.com/MA/Cambridge/221-Mt-Auburn-St-02138/unit-302/home/11587449,MLS PIN,72701815,N,Y,42.374825,-71.1302303
MLS Listing,,Multi-Family (2-4 Unit),211 Chelsea St,Boston,MA,02128,1250000,11,3.0,Boston,3290,1616,1910,6,380,,Active,,,http://www.redfin.com/MA/Boston/211-Chelsea-St-02128/home/9117681,MLS PIN,72701784,N,Y,42.3747958,-71.0327023
MLS Listing,,Townhouse,138 Brown Ave #1,Boston,MA,02131,979900,4,2.5,Roslindale,2100,,2020,6,467,250,Active,August-7-2020 04:00 PM,August-7-2020 06:00 PM,http://www.redfin.com/MA/Roslindale/138-Brown-Ave-02131/unit-1/home/172641519,MLS PIN,72694927,N,Y,42.2842813,-71.1211954
MLS Listing,,Condo/Co-op,93 Baldwin Unit A,Boston,MA,02129,675000,2,1.5,Charlestown,927,,1890,6,728,240,Active,,,http://www.redfin.com/MA/Charlestown/93-Baldwin-St-02129/unit-A/home/172641396,MLS PIN,72701725,N,Y,42.3829885,-71.0694505
MLS Listing,,Condo/Co-op,514-516 Harvard St Unit 1C,Brookline,MA,02446,689900,3,2.0,Beaconsfield,1092,,1915,6,632,643,Active,,,http://www.redfin.com/MA/Brookline/514-Harvard-St-02446/unit-1C/home/11450173,MLS PIN,72701714,N,Y,42.3481984,-71.1295329
MLS Listing,,Multi-Family (2-4 Unit),96 Sheridan St,Boston,MA,02130,999990,5,3.0,Jamaica Plain,2984,2100,1905,6,335,,Active,,,http://www.redfin.com/MA/Jamaica-Plain/96-Sheridan-St-02130/unit-96A/home/9140674,MLS PIN,72701709,N,Y,42.3197878,-71.1062069
MLS Listing,,Condo/Co-op,596 E 2Nd St #1,Boston,MA,02127,565000,2,1.0,Boston,708,708,1905,6,798,150,Active,,,http://www.redfin.com/MA/Boston/596-E-2nd-St-02127/unit-1/home/45407395,MLS PIN,72701683,N,Y,42.3374172,-71.0392744
MLS Listing,,Condo/Co-op,400 Savin Hill Ave #5,Boston,MA,02125,349000,1,1.0,Dorchester's Savin Hill,669,,1965,6,522,180,Active,,,http://www.redfin.com/MA/Boston/400-Savin-Hill-Ave-02125/unit-5/home/9063164,MLS PIN,72701671,N,Y,42.3122425,-71.0516968
MLS Listing,,Condo/Co-op,7A Monmouth St #2,Boston,MA,02128,619900,2,2.0,East Boston's Eagle Hill,1024,,1900,6,605,125,Active,,,http://www.redfin.com/MA/Boston/7A-Monmouth-St-02128/unit-2/home/172641028,MLS PIN,72701662,N,Y,42.3793795,-71.0387846
MLS Listing,,Townhouse,1 Prospect Ave #1,Boston,MA,02131,929900,3,2.5,Roslindale,2000,,2020,6,465,250,Active,,,http://www.redfin.com/MA/Roslindale/1-Prospect-Ave-02131/unit-1/home/172641002,MLS PIN,72701658,N,Y,42.2842197,-71.1212475
MLS Listing,,Single Family Residential,9 Russell St,Boston,MA,02129,1350000,3,1.5,Charlestown,1467,3520,1870,6,920,,Active,August-13-2020 05:00 PM,August-13-2020 06:30 PM,http://www.redfin.com/MA/Charlestown/9-Russell-St-02129/home/9060359,MLS PIN,72701642,N,Y,42.3793827,-71.0644132
MLS Listing,,Condo/Co-op,106 13th #236,Boston,MA,02129,410000,1,1.0,Charlestown's Navy Yard,701,,1920,6,585,729,Active,,,http://www.redfin.com/MA/Boston/106-13th-St-02129/unit-236/home/9051109,MLS PIN,72701639,N,Y,42.377706,-71.0505749
MLS Listing,,Townhouse,4 Mount Vernon St #1,Boston,MA,02129,649000,1,1.0,Charlestown,670,,1870,6,969,150,Active,,,http://www.redfin.com/MA/Boston/4-Mt-Vernon-Ave-02129/unit-1/home/9304953,MLS PIN,72701614,N,Y,42.3760091,-71.0590685
MLS Listing,,Condo/Co-op,132 Boylston #4,Boston,MA,02116,1479000,3,2.0,Back Bay,1622,,1899,6,912,689,Active,,,http://www.redfin.com/MA/Boston/132-Boylston-St-02116/unit-4/home/12470845,MLS PIN,72701536,N,Y,42.3522586,-71.0660209
MLS Listing,,Condo/Co-op,15 Sheffield Rd #1,Boston,MA,02131,519000,2,1.0,Roslindale,978,,1910,6,531,225,Active,,,http://www.redfin.com/MA/Boston/15-Sheffield-Rd-02131/unit-1/home/145285764,MLS PIN,72701504,N,Y,42.2901511,-71.1337035
MLS Listing,,Condo/Co-op,27 Monument Sq #1,Boston,MA,02129,639000,1,1.0,Charlestown,591,,1899,6,1081,175,Active,,,http://www.redfin.com/MA/Boston/27-Monument-Sq-02129/unit-1/home/9062330,MLS PIN,72701496,N,Y,42.3772866,-71.0608942
MLS Listing,,Condo/Co-op,201 Newbury #204,Boston,MA,02116,1779000,2,2.0,Back Bay,1300,,1987,6,1368,1457,Active,August-9-2020 12:00 PM,August-9-2020 02:00 PM,http://www.redfin.com/MA/Boston/201-Newbury-St-02116/unit-204/home/9238145,MLS PIN,72701442,N,Y,42.3503967,-71.0804598
MLS Listing,,Condo/Co-op,437 D St Unit 6C,Boston,MA,02210,1270000,1,1.0,Boston,1244,,1920,6,1021,430,Active,,,http://www.redfin.com/MA/Boston/437-D-St-02210/unit-6C/home/9185927,MLS PIN,72701425,N,Y,42.3451429,-71.0429517
MLS Listing,,Townhouse,4 Dolans Ct #4,Boston,MA,02130,769000,2,2.0,Jamaica Plain,1000,,1900,7,769,200,Active,,,http://www.redfin.com/MA/Boston/4-Dolans-Ct-02130/unit-4/home/172637452,MLS PIN,72701380,N,Y,42.3132458,-71.1052075
MLS Listing,,Condo/Co-op,238 Bremen #2,Boston,MA,02128,620000,2,2.0,East Boston,1000,,2020,7,620,200,Active,August-8-2020 12:00 PM,August-8-2020 02:00 PM,http://www.redfin.com/MA/Boston/238-Bremen-St-02128/unit-2/home/172636808,MLS PIN,72701364,N,Y,42.3744864,-71.0325746
MLS Listing,,Condo/Co-op,233 Metropolitan Ave #2,Boston,MA,02131,599900,4,2.0,Roslindale,1950,,1910,7,308,175,Active,,,http://www.redfin.com/MA/Roslindale/233-Metropolitan-Ave-02131/unit-2/home/171443141,MLS PIN,72701340,N,Y,42.276773,-71.1268643
MLS Listing,,Condo/Co-op,63 Melcher St #301,Boston,MA,02210,610000,0,1.0,Boston,519,,1916,7,1175,406,Active,August-8-2020 12:30 PM,August-8-2020 02:00 PM,http://www.redfin.com/MA/Boston/63-Melcher-St-02210/unit-301/home/146401749,MLS PIN,72701315,N,Y,42.3490018,-71.0497087
MLS Listing,,Condo/Co-op,21 Beacon Unit 9F,Boston,MA,02108,475000,1,1.0,Beacon Hill,427,,1899,7,1112,427,Active,,,http://www.redfin.com/MA/Boston/21-Beacon-St-02108/unit-9F/home/9276997,MLS PIN,72701301,N,Y,42.358197,-71.062431
MLS Listing,,Condo/Co-op,53 Dwight St #1,Boston,MA,02118,2595000,3,3.5,South End,2179,,1900,7,1191,284,Active,August-9-2020 01:00 PM,August-9-2020 02:30 PM,http://www.redfin.com/MA/Boston/53-Dwight-St-02118/unit-1/home/49729511,MLS PIN,72701285,N,Y,42.3447194,-71.0694487
MLS Listing,,Condo/Co-op,141 Dorchester Ave #114,Boston,MA,02127,442600,2,1.0,South Boston,956,,2006,7,463,289,Active,,,http://www.redfin.com/MA/Boston/141-Dorchester-Ave-02127/unit-114/home/21718429,MLS PIN,72701246,N,Y,42.3423405,-71.0578677
MLS Listing,,Condo/Co-op,71 Farragut Rd #1,Boston,MA,02127,839900,2,1.0,Boston,1040,1040,1930,7,808,330,Active,,,http://www.redfin.com/MA/Boston/71-Farragut-Rd-02127/unit-1/home/9186811,MLS PIN,72701231,N,Y,42.3356427,-71.0253797
MLS Listing,,Multi-Family (2-4 Unit),4 Benson St,Boston,MA,02135,1300000,7,3.0,Brighton,2928,3960,1910,7,444,,Active,,,http://www.redfin.com/MA/Brighton/4-Benson-St-02135/home/9011331,MLS PIN,72701216,N,Y,42.3590799,-71.1403703
MLS Listing,,Multi-Family (2-4 Unit),8 Benson St,Boston,MA,02135,1300000,7,,Brighton,2794,3960,1900,7,465,,Active,,,http://www.redfin.com/MA/Boston/8-Benson-St-02135/home/9011326,MLS PIN,72701205,N,Y,42.3590971,-71.1407928
MLS Listing,,Condo/Co-op,121 High St #3,Boston,MA,02129,899000,3,2.0,Charlestown,1046,,1920,7,859,220,Active,,,http://www.redfin.com/MA/Charlestown/121-High-St-02129/unit-3/home/11511913,MLS PIN,72701179,N,Y,42.378368,-71.0659427
MLS Listing,,Multi-Family (2-4 Unit),348 Saratoga St,Boston,MA,02128,1145678,11,3.5,Boston,5364,3000,1890,7,214,,Active,,,http://www.redfin.com/MA/Boston/348-Saratoga-St-02128/home/11733434,MLS PIN,72701170,N,Y,42.3790181,-71.0304388
MLS Listing,,Multi-Family (2-4 Unit),23 Winslow Rd,Brookline,MA,02446,3899900,8,6.0,Coolidge Corner,4846,4846,1928,7,805,,Active,,,http://www.redfin.com/MA/Brookline/23-Winslow-Rd-02446/home/11448448,MLS PIN,72701165,N,Y,42.3509852,-71.1227793
MLS Listing,,Condo/Co-op,153 Bigelow St #1,Boston,MA,02135,549000,3,1.0,Brighton,1039,13540,1980,7,528,,Active,,,http://www.redfin.com/MA/Brighton/153-Bigelow-St-02135/unit-1/home/168914961,MLS PIN,72701121,N,Y,42.3556279,-71.1658087
MLS Listing,,Condo/Co-op,841 Saratoga St #3,Boston,MA,02128,574900,3,2.0,East Boston,1278,1278,1900,7,450,257,Active,August-8-2020 12:00 PM,August-8-2020 01:00 PM,http://www.redfin.com/MA/Boston/841-Saratoga-St-02128/unit-3/home/12431895,MLS PIN,72701119,N,Y,42.3847586,-71.0138687
MLS Listing,,Condo/Co-op,1 Beckler Ave #2,Boston,MA,02127,499000,1,1.0,Boston,522,522,1890,7,956,130,Active,,,http://www.redfin.com/MA/Boston/1-Beckler-Ave-02127/unit-2/home/28627753,MLS PIN,72701075,N,Y,42.3333792,-71.0369734
MLS Listing,,Condo/Co-op,1058 Washington St #1,Boston,MA,02124,470000,3,1.0,Dorchester's Lower Mills,1484,6001,1920,7,317,150,Active,,,http://www.redfin.com/MA/Boston/1058-Washington-St-02124/unit-1/home/145254826,MLS PIN,72701036,N,Y,42.2746805,-71.0697002
MLS Listing,,Multi-Family (2-4 Unit),86 Ruthven St,Boston,MA,02121,779000,4,3.5,Boston,2520,4650,1905,7,309,,Active,,,http://www.redfin.com/MA/Boston/86-Ruthven-St-02121/home/9092913,MLS PIN,72701020,N,Y,42.3133049,-71.0908409
MLS Listing,,Condo/Co-op,931 South St #1,Boston,MA,02131,668000,2,2.0,Roslindale,2140,,1895,7,312,315,Active,,,http://www.redfin.com/MA/Boston/931-South-St-02131/unit-1/home/9166758,MLS PIN,72701009,N,Y,42.2882404,-71.1364592
MLS Listing,,Single Family Residential,55 Green St,Boston,MA,02129,1350000,4,2.5,Charlestown,1633,750,1880,7,827,,Active,August-6-2020 05:30 PM,August-6-2020 06:30 PM,http://www.redfin.com/MA/Charlestown/55-Green-St-02129/home/9061967,MLS PIN,72700967,N,Y,42.3775918,-71.0628346
MLS Listing,,Townhouse,48 Robey St #48,Boston,MA,02119,849000,3,2.5,Boston,1592,,2020,7,533,99999,Active,August-9-2020 11:00 AM,August-9-2020 01:00 PM,http://www.redfin.com/MA/Roxbury/48-50-Robey-St-02119/unit-48/home/172626533,MLS PIN,72700918,N,Y,42.321855,-71.068237
MLS Listing,,Condo/Co-op,101 Heath St #203,Boston,MA,02120,720000,3,2.0,Mission Hill,1366,,2020,7,527,274,Active,August-8-2020 11:00 AM,August-8-2020 12:00 PM,http://www.redfin.com/MA/Boston/101-Heath-St-02120/unit-203/home/170556513,MLS PIN,72700911,N,Y,42.3263576,-71.102345
MLS Listing,,Multi-Family (2-4 Unit),79 Cottage St,Boston,MA,02128,1399000,4,3.0,East Boston's Jeffries Point,2318,3000,1997,7,604,,Active,,,http://www.redfin.com/MA/Boston/79-Cottage-St-02128/home/9108012,MLS PIN,72700850,N,Y,42.3675476,-71.0351747
MLS Listing,,Condo/Co-op,366 W 2nd St #4,Boston,MA,02127,769000,2,1.5,Boston,866,,2006,7,888,281,Active,,,http://www.redfin.com/MA/Boston/366-W-2nd-St-02127/unit-4/home/18982587,MLS PIN,72700835,N,Y,42.3383429,-71.0462104
MLS Listing,,Condo/Co-op,65 Chester St #6,Boston,MA,02134,399000,2,1.0,Allston,650,,1920,7,614,470,Active,,,http://www.redfin.com/MA/Boston/65-Chester-St-02134/unit-6/home/8992067,MLS PIN,72700833,N,Y,42.3527821,-71.1280084
MLS Listing,,Condo/Co-op,30 Elgin St #2,Boston,MA,02132,729000,3,2.0,West Roxbury,2010,,1938,7,363,,Active,,,http://www.redfin.com/MA/Boston/30-Elgin-St-02132/unit-2/home/93034017,MLS PIN,72700820,N,Y,42.2802098,-71.160172
MLS Listing,,Townhouse,158 Endicott St #4,Boston,MA,02113,1299900,3,2.5,North End,1464,1464,1899,7,888,530,Active,,,http://www.redfin.com/MA/Boston/158-Endicott-St-02113/unit-4/home/12310152,MLS PIN,72700791,N,Y,42.3653732,-71.0575608
MLS Listing,,Condo/Co-op,135 Seaport Blvd #901,Boston,MA,02210,1199000,1,1.5,Seaport District,760,,2020,7,1578,941,Active,,,http://www.redfin.com/MA/Boston/135-Seaport-Blvd-02210/unit-901/home/172619955,MLS PIN,72700724,N,Y,42.3509604,-71.0439013
MLS Listing,,Condo/Co-op,135 Seaport Blvd #818,Boston,MA,02210,798900,0,1.0,Seaport District,520,,2020,7,1536,667,Active,,,http://www.redfin.com/MA/Boston/135-Seaport-Blvd-02210/unit-818/home/168964674,MLS PIN,72700721,N,Y,42.3509604,-71.0439013
MLS Listing,,Condo/Co-op,43 Westland Ave #303,Boston,MA,02115,769000,1,1.0,South End,755,755,1910,7,1019,510,Active,,,http://www.redfin.com/MA/Boston/43-Westland-Ave-02115/unit-303/home/50281465,MLS PIN,72700668,N,Y,42.3440463,-71.087888
MLS Listing,,Condo/Co-op,66 Montcalm Ave #1,Boston,MA,02135,485000,1,1.0,Brighton,754,,1900,7,643,,Active,August-8-2020 12:00 PM,August-8-2020 02:00 PM,http://www.redfin.com/MA/Brighton/66-Montcalm-Ave-02135/unit-1/home/172618800,MLS PIN,72700653,N,Y,42.3531027,-71.1485418
MLS Listing,,Condo/Co-op,7 Cook #2,Boston,MA,02129,1450000,3,2.5,Charlestown,1600,,1875,7,906,275,Active,August-6-2020 05:00 PM,August-6-2020 06:30 PM,http://www.redfin.com/MA/Charlestown/7-Cook-St-02129/unit-2/home/172610180,MLS PIN,72699625,N,Y,42.3801036,-71.064181
MLS Listing,,Condo/Co-op,7 Cook St #1,Boston,MA,02129,1250000,2,2.5,Charlestown,1600,,1875,7,781,275,Active,August-6-2020 05:00 PM,August-6-2020 06:30 PM,http://www.redfin.com/MA/Charlestown/7-Cook-St-02129/unit-1/home/172618426,MLS PIN,72699572,N,Y,42.3801036,-71.064181
MLS Listing,,Condo/Co-op,408 Seaver St #4,Boston,MA,02121,499000,4,2.0,Boston,1915,1915,1905,8,261,290,Active,August-8-2020 11:00 AM,August-8-2020 01:00 PM,http://www.redfin.com/MA/Boston/408-Seaver-St-02121/unit-4/home/12431291,MLS PIN,72700618,N,Y,42.303489,-71.0810691
MLS Listing,,Condo/Co-op,657 E 6Th St #1,Boston,MA,02127,799900,2,2.0,Boston,1021,1021,1910,8,783,150,Active,,,http://www.redfin.com/MA/Boston/657-E-6th-St-02127/unit-1/home/9227539,MLS PIN,72700598,N,Y,42.3328983,-71.0341065
MLS Listing,,Condo/Co-op,6 Whittier Pl Unit 10M,Boston,MA,02114,739000,2,2.0,West End,1272,,1964,8,581,1141,Active,,,http://www.redfin.com/MA/Boston/6-Whittier-Pl-02114/unit-10M/home/9228326,MLS PIN,72700552,N,Y,42.3657336,-71.0669497
MLS Listing,,Condo/Co-op,707 E 4Th St #1,Boston,MA,02127,799000,3,2.0,South Boston,1293,1293,1890,8,618,208,Active,August-9-2020 11:00 AM,August-9-2020 12:30 PM,http://www.redfin.com/MA/Boston/707-E-4th-St-02127/unit-1/home/54835549,MLS PIN,72700520,N,Y,42.3345941,-71.0363426
MLS Listing,,Single Family Residential,11 Shute Path,Newton,MA,02459,1835000,5,5.5,Oak Hill Park,5100,7021,2020,8,360,,Active,August-9-2020 02:00 PM,August-9-2020 03:00 PM,http://www.redfin.com/MA/Newton/11-Shute-Path-02459/home/11490906,MLS PIN,72700493,N,Y,42.291071,-71.1843279
MLS Listing,,Townhouse,241 Perkins Unit J702,Boston,MA,02130,735000,2,2.0,Jamaica Plain,1500,,1976,8,490,806,Active,,,http://www.redfin.com/MA/Jamaica-Plain/241-Perkins-St-02130/unit-J702/home/172616173,MLS PIN,72700475,N,Y,42.3211522,-71.1235806
MLS Listing,,Condo/Co-op,9-15 Battery St #10,Boston,MA,02109,789000,2,1.0,North End,854,854,1880,8,924,492,Active,August-7-2020 06:00 PM,August-7-2020 07:30 PM,http://www.redfin.com/MA/Boston/9-Battery-St-02109/unit-10/home/9270830,MLS PIN,72700467,N,Y,42.3662636,-71.0526349
MLS Listing,,Multi-Family (2-4 Unit),19 Carmen St,Boston,MA,02121,679900,6,3.0,Dorchester,3351,3668,1910,8,203,,Active,,,http://www.redfin.com/MA/Dorchester/19-Carmen-St-02121/home/11505176,MLS PIN,72700449,N,Y,42.3007339,-71.0783526
MLS Listing,,Multi-Family (2-4 Unit),87-93 Liverpool,Boston,MA,02128,3499999,6,7.0,East Boston's Jeffries Point,6000,4875,2005,8,583,,Active,,,http://www.redfin.com/MA/Boston/87-89-Liverpool-St-02128/home/172615716,MLS PIN,72700409,N,Y,42.3720881,-71.0407196
MLS Listing,,Single Family Residential,76 Landseer,Boston,MA,02132,799000,4,1.5,Bellevue Hill,1860,5097,1920,8,430,,Active,,,http://www.redfin.com/MA/West-Roxbury/76-Landseer-St-02132/home/9214204,MLS PIN,72700389,N,Y,42.2786573,-71.1567576
MLS Listing,,Townhouse,86 Litchfield St Unit A,Boston,MA,02135,759000,3,2.5,Brighton,1430,,2009,8,531,255,Active,,,http://www.redfin.com/MA/Brighton/86-Litchfield-St-02135/unit-A/home/39877308,MLS PIN,72700382,N,Y,42.3611518,-71.140488
MLS Listing,,Condo/Co-op,11 Union Park #5,Boston,MA,02118,1175000,2,1.0,South End,947,947,1899,8,1241,244,Active,,,http://www.redfin.com/MA/Boston/11-Union-Park-02118/unit-5/home/9281838,MLS PIN,72700373,N,Y,42.3426095,-71.0707044
MLS Listing,,Condo/Co-op,32 Kilsyth Rd #1,Brookline,MA,02445,1649000,4,2.0,Brookline,1948,,1905,8,847,1325,Active,,,http://www.redfin.com/MA/Brookline/32-Kilsyth-Rd-02445/unit-1/home/11456227,MLS PIN,72700369,N,Y,42.3387042,-71.1447415
MLS Listing,,Multi-Family (2-4 Unit),9A Monastery Rd,Boston,MA,02135,950000,5,2.5,Brighton,1611,5347,1955,8,590,,Active,,,http://www.redfin.com/MA/Brighton/9A-Monastery-Rd-02135/home/172615427,MLS PIN,72700341,N,Y,42.345882,-71.147169
MLS Listing,,Townhouse,67 Saint Botolph #1,Boston,MA,02116,2699000,3,2.5,Back Bay,2330,,2019,8,1158,640,Active,,,http://www.redfin.com/MA/Boston/67-St-Botolph-St-02116/unit-1/home/145154477,MLS PIN,72700305,N,Y,42.3456603,-71.0802096
MLS Listing,,Condo/Co-op,383 Beacon St #2,Boston,MA,02116,975000,1,1.0,Back Bay,812,812,1870,8,1201,200,Active,August-8-2020 10:00 AM,August-8-2020 03:00 PM,http://www.redfin.com/MA/Boston/383-Beacon-St-02116/unit-2/home/172652520,MLS PIN,72700294,N,Y,42.3518738,-71.0846743
MLS Listing,,Condo/Co-op,15 Walbridge St #4,Boston,MA,02134,379900,1,1.0,Allston,655,9999,1950,8,580,342,Active,,,http://www.redfin.com/MA/Boston/15-Walbridge-St-02134/unit-4/home/9000439,MLS PIN,72700283,N,Y,42.3471574,-71.135505
MLS Listing,,Townhouse,263 Webster St #1,Boston,MA,02128,895000,3,2.5,East Boston,1544,,2017,8,580,283,Active,,,http://www.redfin.com/MA/Boston/263-Webster-St-02128/unit-1/home/144221140,MLS PIN,72700277,N,Y,42.364516,-71.031312
MLS Listing,,Townhouse,38 Broadlawn Dr #38,Newton,MA,02467,799000,3,2.5,Chestnut Hill,1680,11501,1974,8,476,,Active,,,http://www.redfin.com/MA/Chestnut-Hill/38-Broadlawn-Dr-02467/unit-38/home/137811683,MLS PIN,72700272,N,Y,42.3027939,-71.1668762
MLS Listing,,Condo/Co-op,26 Claremont Park #1,Boston,MA,02118,1700000,2,2.5,Boston,1464,1464,1870,8,1161,310,Active,August-8-2020 11:00 AM,August-8-2020 01:00 PM,http://www.redfin.com/MA/Boston/26-Claremont-Park-02118/unit-1/home/39903343,MLS PIN,72700236,N,Y,42.3421764,-71.0817033
MLS Listing,,Multi-Family (5+ Unit),888 Package Deal,Boston,MA,02128,2749000,22,9.5,East Boston,6770,4161,,8,406,,Active,,,http://www.redfin.com/MA/Boston/888-Package-Deal-02128/home/172614722,MLS PIN,72700221,N,Y,42.3695431,-71.0200613
MLS Listing,,Single Family Residential,39 Greenwich Park,Boston,MA,02118,4995000,4,3.5,South End,2572,1105,1899,8,1942,,Active,,,http://www.redfin.com/MA/Boston/39-Greenwich-Park-02118/home/9283210,MLS PIN,72700151,N,Y,42.3431001,-71.0809816
MLS Listing,,Single Family Residential,169 W 9th,Boston,MA,02127,1089000,4,4.0,South Boston,1750,1230,1900,8,622,,Active,August-9-2020 11:00 AM,August-9-2020 12:30 PM,http://www.redfin.com/MA/Boston/169-W-9th-St-02127/home/9189929,MLS PIN,72700126,N,Y,42.3337292,-71.0533402
MLS Listing,,Condo/Co-op,1682 Washington St #9,Boston,MA,02118,1295000,2,2.0,South End,1559,1559,1875,8,831,606,Active,,,http://www.redfin.com/MA/Boston/1682-Washington-St-02118/unit-9/home/9299067,MLS PIN,72700102,N,Y,42.3371242,-71.0754957
MLS Listing,,Condo/Co-op,514 Massachusetts Ave #3,Boston,MA,02118,609000,2,1.0,South End,660,660,1899,8,923,133,Active,,,http://www.redfin.com/MA/Boston/514-Massachusetts-Ave-02118/unit-3/home/9287284,MLS PIN,72700082,N,Y,42.3391633,-71.0797674
MLS Listing,,Condo/Co-op,100 Shawmut Ave #208,Boston,MA,02118,1599900,2,2.0,South End,1182,,2021,8,1354,1277,Active,August-8-2020 12:00 PM,August-8-2020 02:00 PM,http://www.redfin.com/MA/Boston/100-Shawmut-Ave-02118/unit-208/home/172614200,MLS PIN,72700067,N,Y,42.3466841,-71.0656551
MLS Listing,,Condo/Co-op,124 Everett St #1,Boston,MA,02128,625000,2,1.5,East Boston's Jeffries Point,997,997,1900,8,627,222,Active,August-9-2020 11:00 AM,August-9-2020 12:00 PM,http://www.redfin.com/MA/Boston/124-Everett-St-02128/unit-1/home/9328907,MLS PIN,72700026,N,Y,42.3670549,-71.0333202
MLS Listing,,Condo/Co-op,34 Clark #2,Boston,MA,02109,693999,1,1.0,North End,712,,1915,8,975,289,Active,,,http://www.redfin.com/MA/Boston/34-Clark-St-02109/unit-2/home/11838721,MLS PIN,72699969,N,Y,42.3651714,-71.0522092
MLS Listing,,Condo/Co-op,9 Appleton St #401,Boston,MA,02116,659900,1,1.0,South End,610,,1880,8,1082,259,Active,August-9-2020 01:00 PM,August-9-2020 02:00 PM,http://www.redfin.com/MA/Boston/9-Appleton-St-02116/unit-401/home/9262409,MLS PIN,72699959,N,Y,42.3464941,-71.0701123
MLS Listing,,Condo/Co-op,10 Nonantum St #1,Newton,MA,02458,589000,2,1.0,Newton,1183,10000,1917,8,498,,Active,August-8-2020 01:00 PM,August-8-2020 02:30 PM,http://www.redfin.com/MA/Newton/10-Nonantum-St-02458/unit-1/home/11473914,MLS PIN,72699951,N,Y,42.3501306,-71.1753173
MLS Listing,,Single Family Residential,25 Westover St,Boston,MA,02132,689000,4,1.5,West Roxburyy,1523,5000,1890,8,452,,Active,August-8-2020 10:30 AM,August-8-2020 11:30 AM,http://www.redfin.com/MA/West-Roxbury/25-Westover-St-02132/home/9206076,MLS PIN,72699944,N,Y,42.292422,-71.156804
MLS Listing,,Condo/Co-op,1038 Beacon St #403,Brookline,MA,02446,1319000,3,2.0,Brookline,1505,,1898,8,876,941,Active,,,http://www.redfin.com/MA/Brookline/1038-Beacon-St-02446/unit-403/home/11441459,MLS PIN,72699928,N,Y,42.3461112,-71.1086824
MLS Listing,,Condo/Co-op,74 The Fenway #26,Boston,MA,02115,925000,2,1.0,The Fenway,980,980,1920,8,944,553,Active,,,http://www.redfin.com/MA/Boston/74-Fenway-02115/unit-26/home/9265576,MLS PIN,72699927,N,Y,42.3428315,-71.0908989
MLS Listing,,Condo/Co-op,50 Battery St Ph 6,Boston,MA,02109,3299000,3,3.5,Waterfront,2095,2095,1992,8,1575,2036,Active,,,http://www.redfin.com/MA/Boston/50-Battery-St-02109/unit-6/home/11509078,MLS PIN,72699922,N,Y,42.3662697,-71.0496096
MLS Listing,,Condo/Co-op,134 Beach St Unit TwoA,Boston,MA,02111,1450000,3,2.5,Leather District,2170,2170,1900,8,668,930,Active,,,http://www.redfin.com/MA/Boston/134-Beach-St-02111/unit-TwoA/home/172613816,MLS PIN,72699920,N,Y,42.3507,-71.0571378
MLS Listing,,Condo/Co-op,11 Monastery Unit A,Boston,MA,02135,525000,2,1.0,Brighton,873,,1910,8,601,150,Active,,,http://www.redfin.com/MA/Brighton/11-Monastery-Rd-02135/unit-A/home/172613764,MLS PIN,72699901,N,Y,42.345771,-71.146821
MLS Listing,,Condo/Co-op,301 Shawmut Ave #25,Boston,MA,02118,1200000,2,1.0,South End,1088,,1900,8,1103,467,Active,,,http://www.redfin.com/MA/Boston/301-Shawmut-Ave-02118/unit-25/home/9301416,MLS PIN,72699900,N,Y,42.342644,-71.0702488
MLS Listing,,Condo/Co-op,1 Charles St S Unit 8H,Boston,MA,02116,1875000,2,2.0,Back Bay,1571,1571,2004,8,1194,2136,Active,,,http://www.redfin.com/MA/Boston/1-Charles-St-S-02116/unit-8H/home/9326093,MLS PIN,72699895,N,Y,42.3511397,-71.0671978
MLS Listing,,Condo/Co-op,35 Webster St #302,Boston,MA,02128,589000,2,1.0,East Boston's Jeffries Point,883,,1985,8,667,358,Active,August-6-2020 05:00 PM,August-6-2020 06:00 PM,http://www.redfin.com/MA/Boston/35-Webster-St-02128/unit-302/home/9108122,MLS PIN,72699887,N,Y,42.3671811,-71.0390987
MLS Listing,,Condo/Co-op,321 W 2nd St #15,Boston,MA,02127,1350000,2,2.0,South Boston,1563,1563,2006,8,864,632,Active,August-8-2020 01:30 PM,August-8-2020 03:30 PM,http://www.redfin.com/MA/Boston/321-W-2nd-St-02127/unit-15/home/18982393,MLS PIN,72699879,N,Y,42.3387508,-71.0475434
MLS Listing,,Condo/Co-op,11 Prospect,Boston,MA,02129,1290000,2,2.0,Charlestown,1500,,1890,8,860,275,Active,,,http://www.redfin.com/MA/Charlestown/11-Prospect-St-02129/unit-1/home/172524544,MLS PIN,72699871,N,Y,42.3751139,-71.0575071
MLS Listing,,Condo/Co-op,500 Commercial St Unit B,Boston,MA,02109,2795000,2,2.0,Waterfront,2012,2012,1899,8,1389,1221,Active,,,http://www.redfin.com/MA/Boston/500-Commercial-St-02109/unit-B/home/9304840,MLS PIN,72699835,N,Y,42.3677373,-71.0548375
MLS Listing,,Condo/Co-op,32 Anderson #2,Boston,MA,02114,1116000,2,1.5,Beacon Hill,935,,1910,8,1194,400,Active,August-9-2020 11:30 AM,August-9-2020 12:30 PM,http://www.redfin.com/MA/Boston/32-Anderson-St-02114/unit-2/home/9258238,MLS PIN,72699803,N,Y,42.360013,-71.0676225
MLS Listing,,Single Family Residential,4 Bolton Pl,Boston,MA,02129,870000,2,2.0,Charlestown,1240,607,1850,8,702,,Active,August-9-2020 12:00 PM,August-9-2020 01:00 PM,http://www.redfin.com/MA/Charlestown/4-Bolton-Pl-02129/home/9060910,MLS PIN,72699785,N,Y,42.378723,-71.066329
MLS Listing,,Condo/Co-op,339 S Huntington Ave #11,Boston,MA,02130,399900,1,1.0,Jamaica Plain,721,,1910,9,555,487,Active,August-8-2020 11:00 AM,August-8-2020 01:00 PM,http://www.redfin.com/MA/Boston/339-S-Huntington-Ave-02130/unit-11/home/9241985,MLS PIN,72699759,N,Y,42.3233783,-71.1125075
MLS Listing,,Single Family Residential,8 Cook St,Boston,MA,02129,995000,3,1.5,Charlestown,1270,1142,1920,9,783,,Active,August-9-2020 11:00 AM,August-9-2020 01:00 PM,http://www.redfin.com/MA/Charlestown/8-Cook-St-02129/home/9056027,MLS PIN,72699751,N,Y,42.3802612,-71.0643435
MLS Listing,,Condo/Co-op,74-76 Rowe St #2,Boston,MA,02131,569900,3,1.0,Roslindale,1802,1802,1890,9,316,213,Active,August-8-2020 10:00 AM,August-8-2020 01:00 PM,http://www.redfin.com/MA/Boston/74-Rowe-St-02131/unit-2/home/39913332,MLS PIN,72699747,N,Y,42.2819944,-71.1202264
MLS Listing,,Condo/Co-op,156 Porter St #339,Boston,MA,02128,629000,1,1.5,East Boston,1039,,1912,9,605,268,Active,August-9-2020 11:00 AM,August-9-2020 12:30 PM,http://www.redfin.com/MA/Boston/156-Porter-St-02128/unit-339/home/11740520,MLS PIN,72699743,N,Y,42.3713905,-71.0324272
MLS Listing,,Condo/Co-op,10 Charlesgate E #3,Boston,MA,02215,650000,1,1.0,Back Bay,709,709,1889,9,917,397,Active,,,http://www.redfin.com/MA/Boston/10-Charlesgate-E-02215/unit-3/home/9240021,MLS PIN,72699731,N,Y,42.3498885,-71.0912422
MLS Listing,,Condo/Co-op,15 Oakland St #3,Boston,MA,02135,545000,2,1.0,Brighton,1206,,1920,9,452,200,Active,August-8-2020 12:00 PM,August-8-2020 02:00 PM,http://www.redfin.com/MA/Boston/15-Oakland-St-02135/unit-3/home/18983215,MLS PIN,72699699,N,Y,42.3498324,-71.1576149
MLS Listing,,Single Family Residential,7 Summer St,Boston,MA,02129,1649000,4,3.0,Charlestown,2125,926,1880,9,776,,Active,,,http://www.redfin.com/MA/Charlestown/7-Summer-St-02129/home/9061478,MLS PIN,72699698,N,Y,42.3775529,-71.0640185
MLS Listing,,Single Family Residential,91 Baxter St,Boston,MA,02127,950000,3,2.5,South Boston,1486,1080,1920,9,639,,Active,,,http://www.redfin.com/MA/Boston/91-Baxter-St-02127/home/9189479,MLS PIN,72699676,N,Y,42.3350166,-71.0532433
MLS Listing,,Condo/Co-op,121 Tremont #316,Boston,MA,02135,440000,2,1.0,Brighton,975,,1964,9,451,531,Active,,,http://www.redfin.com/MA/Boston/121-Tremont-St-02135/unit-316/home/9040881,MLS PIN,72699652,N,Y,42.3518915,-71.1734404
MLS Listing,,Single Family Residential,375 Baker St,Boston,MA,02132,699900,3,1.5,SO BROOKLINE/SO NEWTON LINE,1400,4848,1929,9,500,,Active,August-9-2020 11:30 AM,August-9-2020 01:00 PM,http://www.redfin.com/MA/West-Roxbury/375-Baker-St-02132/home/9215468,MLS PIN,72699654,N,Y,42.2826751,-71.1689765
MLS Listing,,Condo/Co-op,500 Atlantic Ave Unit 17J,Boston,MA,02210,1699000,2,2.5,Waterfront,1484,,2006,9,1145,2064,Active,,,http://www.redfin.com/MA/Boston/500-Atlantic-Ave-02210/unit-17J/home/14370798,MLS PIN,72699561,N,Y,42.3538536,-71.0520022
MLS Listing,,Condo/Co-op,1746 Commonwealth Ave #8,Boston,MA,02135,419000,1,1.0,Brighton,630,,1920,9,665,382,Active,August-8-2020 03:00 PM,August-8-2020 04:00 PM,http://www.redfin.com/MA/Boston/1746-Commonwealth-Ave-02135/unit-8/home/9023028,MLS PIN,72699543,N,Y,42.3409947,-71.1493442
MLS Listing,,Condo/Co-op,48 Frankfort St #16,Boston,MA,02128,799000,3,1.5,East Boston's Jeffries Point,1502,9999,1900,9,532,400,Active,,,http://www.redfin.com/MA/Boston/48-Frankfort-St-02128/unit-16/home/9107546,MLS PIN,72699511,N,Y,42.3702345,-71.0352034
MLS Listing,,Condo/Co-op,950 Dorchester Ave #206,Boston,MA,02125,398868,2,1.0,Dorchester's Savin Hill,912,912,1899,9,437,306,Active,,,http://www.redfin.com/MA/Boston/950-Dorchester-Ave-02125/unit-206/home/12432212,MLS PIN,72699509,N,Y,42.318092,-71.0561768
MLS Listing,,Condo/Co-op,945 E Broadway #3,Boston,MA,02127,1750000,3,3.5,South Boston's City Point,2256,,2016,9,776,888,Active,,,http://www.redfin.com/MA/Boston/945-E-Broadway-02127/unit-3/home/145285871,MLS PIN,72699506,N,Y,42.3355038,-71.0261234
MLS Listing,,Condo/Co-op,778 Boylston Unit 8G,Boston,MA,02116,1790000,1,1.5,Back Bay,1035,,2008,9,1729,2589,Active,,,http://www.redfin.com/MA/Boston/778-Boylston-St-02199/unit-8G/home/65896380,MLS PIN,72699471,N,Y,42.3487003,-71.0821395
MLS Listing,,Condo/Co-op,290 Corey Rd #21,Boston,MA,02135,499000,2,1.0,Brighton,685,,1965,9,728,363,Active,,,http://www.redfin.com/MA/Boston/290-Corey-Rd-02135/unit-21/home/9001135,MLS PIN,72699452,N,Y,42.3460812,-71.1364552
MLS Listing,,Multi-Family (2-4 Unit),6 Linwood St,Boston,MA,02119,1500000,8,3.0,Roxbury's Fort Hill,3311,1514,1910,9,453,,Active,,,http://www.redfin.com/MA/Boston/6-Linwood-St-02119/home/9290606,MLS PIN,72699421,N,Y,42.327731,-71.0928239
MLS Listing,,Condo/Co-op,100 Riverway #1,Boston,MA,02215,899000,2,2.5,The Fenway,1240,,1890,9,725,512,Active,,,http://www.redfin.com/MA/Boston/100-Riverway-02215/unit-1/home/11836941,MLS PIN,72699403,N,Y,42.3428018,-71.1037211
MLS Listing,,Condo/Co-op,5 Appleton St Unit 3E,Boston,MA,02116,699000,1,1.0,Boston,710,,1900,9,985,245,Active,,,http://www.redfin.com/MA/Boston/5-Appleton-St-02116/unit-3E/home/9235262,MLS PIN,72699400,N,Y,42.3466867,-71.0698758
MLS Listing,,Condo/Co-op,281 Belgrade Ave #3,Boston,MA,02131,565000,3,1.5,Roslindale,1422,,1900,9,397,221,Active,August-9-2020 11:00 AM,August-9-2020 01:00 PM,http://www.redfin.com/MA/Roslindale/281-Belgrade-Ave-02131/unit-3/home/172608883,MLS PIN,72699383,N,Y,42.2862793,-71.1429717
MLS Listing,,Single Family Residential,115 Gordon Ave,Boston,MA,02136,674900,4,3.0,Hyde Park,1952,10485,1950,9,346,,Active,,,http://www.redfin.com/MA/Boston/115-Gordon-Ave-02136/home/9135449,MLS PIN,72699376,N,Y,42.2589837,-71.1300673
MLS Listing,,Multi-Family (2-4 Unit),35 Melbourne St,Boston,MA,02124,1575000,8,6.0,Dorchester's Dorchester Center,3874,2442,1960,9,407,,Active,,,http://www.redfin.com/MA/Boston/35-Melbourne-St-02124/home/9075519,MLS PIN,72699347,N,Y,42.2899024,-71.065716
MLS Listing,,Condo/Co-op,2451 Washington St #403,Boston,MA,02119,494000,2,2.0,Roxbury,1067,,2019,9,463,488,Active,,,http://www.redfin.com/MA/Boston/2451-Washington-St-02119/unit-403/home/172608345,MLS PIN,72699329,N,Y,42.328578,-71.086495
MLS Listing,,Condo/Co-op,21 Lamartine #1,Boston,MA,02130,559000,1,1.0,Jamaica Plain,944,,2015,9,592,225,Active,August-8-2020 11:00 AM,August-8-2020 12:30 PM,http://www.redfin.com/MA/Boston/21-Lamartine-St-02130/unit-1/home/70546451,MLS PIN,72699276,N,Y,42.322276,-71.1010346
MLS Listing,,Condo/Co-op,104 BROOKLEY #1,Boston,MA,02130,599000,2,1.0,Jamaica Plain,1050,,2020,9,570,150,Active,August-8-2020 12:30 PM,August-8-2020 02:00 PM,http://www.redfin.com/MA/Jamaica-Plain/104-Brookley-Rd-02130/unit-1/home/172607793,MLS PIN,72699261,N,Y,42.3026976,-71.1051218
MLS Listing,,Condo/Co-op,101 Heath St #301,Boston,MA,02120,760000,3,2.0,Mission Hill,1466,,2020,9,518,293,Active,August-8-2020 11:00 AM,August-8-2020 12:00 PM,http://www.redfin.com/MA/Boston/101-Heath-St-02120/unit-301/home/170596868,MLS PIN,72699244,N,Y,42.3263576,-71.102345
MLS Listing,,Condo/Co-op,57 L St #13,Boston,MA,02127,1249000,3,2.0,South Boston,1310,,2018,9,953,310,Active,,,http://www.redfin.com/MA/Boston/57-L-St-02127/unit-13/home/146450993,MLS PIN,72699229,N,Y,42.3361222,-71.0356854
MLS Listing,,Condo/Co-op,149 Centre St #1,Boston,MA,02119,419000,2,1.0,Roxbury's Fort Hill,845,,1920,9,496,323,Active,August-8-2020 11:00 AM,August-8-2020 12:00 PM,http://www.redfin.com/MA/Boston/149-Centre-St-02119/unit-1/home/11837539,MLS PIN,72699209,N,Y,42.3260993,-71.0967332
MLS Listing,,Condo/Co-op,280 E Eagle St #1,Boston,MA,02128,559900,2,2.0,East Boston,1011,,1900,9,554,200,Active,,,http://www.redfin.com/MA/Boston/280-E-Eagle-St-02128/unit-1/home/172607452,MLS PIN,72699201,N,Y,42.381488,-71.0303688
MLS Listing,,Condo/Co-op,150 Dorchester #512,Boston,MA,02127,1350000,2,2.0,South Boston,1422,,2016,9,949,607,Active,,,http://www.redfin.com/MA/Boston/150-Dorchester-Ave-02127/unit-512/home/104293543,MLS PIN,72699190,N,Y,42.3418223,-71.0569152
MLS Listing,,Condo/Co-op,20 W Fifth Unit 4-K,Boston,MA,02127,930000,2,2.0,South Boston,1051,,2021,9,885,564,Active,,,http://www.redfin.com/MA/Boston/20-W-Fifth-St-02127/unit-4-K/home/172607403,MLS PIN,72699188,N,Y,42.3401945,-71.0561375
MLS Listing,,Condo/Co-op,20 W Fifth Ph -6G,Boston,MA,02127,1199000,2,2.0,South Boston,1102,,2021,9,1088,693,Active,,,http://www.redfin.com/MA/Boston/20-W-Fifth-St-02127/unit-6G/home/172607400,MLS PIN,72699187,N,Y,42.3401945,-71.0561375
MLS Listing,,Single Family Residential,102 Davison St,Boston,MA,02136,599900,4,2.0,Hyde Park,2322,6000,1950,10,258,,Active,August-8-2020 12:00 PM,August-8-2020 02:00 PM,http://www.redfin.com/MA/Hyde-Park/102-Davison-St-02136/home/9126811,MLS PIN,72699089,N,Y,42.2589189,-71.1167911
MLS Listing,,Multi-Family (5+ Unit),50 Bradshaw St,Boston,MA,02121,1150000,9,5.0,Dorchester,5930,6480,1920,10,194,,Active,,,http://www.redfin.com/MA/Boston/50-Bradshaw-St-02121/home/9087062,MLS PIN,72699069,N,Y,42.2983003,-71.0836915
