,property_type,address,city,state,zip_code,price,beds,baths,square_feet,lot_size,year_built,hoa_permonth,url,latitude,longitude
0,Single Family Residential,21 Grimes St,Boston,MA,2127,649999,2,2,1176,825,1890,0,http://www.redfin.com/MA/Boston/21-Grimes-St-02127/home/9195612,42.3337604,-71.0518366
1,Condo/Co-op,16 Mystic St #2,Boston,MA,2129,620000,2,1,758,0,1870,119,http://www.redfin.com/MA/Boston/16-Mystic-St-02129/unit-2/home/79084414,42.3797169,-71.0629213
2,Multi-Family (2-4 Unit),15 Jess St,Boston,MA,2130,699000,5,2,1785,2169,1885,0,http://www.redfin.com/MA/Boston/15-Jess-St-02130/home/9145085,42.3152015,-71.1038742
3,Condo/Co-op,146 Marlborough St #1,Boston,MA,2116,498000,1,1,486,486,1880,190,http://www.redfin.com/MA/Boston/146-Marlborough-St-02116/unit-1/home/9250275,42.3527521,-71.0781483
4,Condo/Co-op,1 Howard Pl Unit C,Boston,MA,2125,469000,3,1,1189,0,1905,193,http://www.redfin.com/MA/Boston/1-Howard-Pl-02125/unit-C/home/171582102,42.3197761,-71.0719246
5,Condo/Co-op,43 Park Vale Ave #7,Boston,MA,2134,499000,3,1,780,780,1910,343,http://www.redfin.com/MA/Boston/43-Park-Vale-Ave-02134/unit-7/home/8996202,42.3523074,-71.1329914
6,Single Family Residential,43 Leyden St #43,Boston,MA,2128,649900,3,2.5,1397,1889,2006,441,http://www.redfin.com/MA/Boston/43-Leyden-St-02128/unit-43/home/172266516,42.3901295,-71.0109725
7,Single Family Residential,9 Sherman St,Boston,MA,2119,559900,5,1.5,2088,2540,1905,0,http://www.redfin.com/MA/Boston/9-Sherman-St-02119/home/9292570,42.3211583,-71.083088
8,Condo/Co-op,180 Telford St #415,Boston,MA,2135,659000,1,1,719,0,2018,481,http://www.redfin.com/MA/Boston/180-Telford-St-02135/unit-415/home/171787852,42.3638661,-71.1376193
9,Condo/Co-op,42 8th St #4301,Boston,MA,2129,799000,2,2,1149,0,1899,805,http://www.redfin.com/MA/Boston/42-8th-St-02129/unit-4301/home/9328682,42.3749988,-71.0520878
10,Condo/Co-op,603 E 6Th St #1,Boston,MA,2127,1199000,3,2.5,2018,0,1900,320,http://www.redfin.com/MA/Boston/603-E-6th-St-02127/unit-1/home/81971909,42.332858,-71.0362643
11,Condo/Co-op,944 Dorchester Ave #10,Boston,MA,2125,610000,2,1,1238,1238,1910,617,http://www.redfin.com/MA/Boston/944-Dorchester-Ave-02125/unit-10/home/39913645,42.3185087,-71.0560755
12,Condo/Co-op,1 Avery St Unit 14A,Boston,MA,2111,1474000,2,2.5,1488,1488,2000,2071,http://www.redfin.com/MA/Boston/1-Avery-St-02111/unit-14A/home/11511027,42.3533168,-71.0628507
13,Condo/Co-op,99 Tremont St #213,Boston,MA,2135,749000,2,2,1091,0,2017,462,http://www.redfin.com/MA/Boston/99-Tremont-St-02135/unit-213/home/144759630,42.351377,-71.1723764
14,Condo/Co-op,88 Kingston St Unit 1D,Boston,MA,2111,689000,1,1,816,816,1899,409,http://www.redfin.com/MA/Boston/88-Kingston-St-02111/unit-1D/home/12310497,42.3526558,-71.0592399
15,Condo/Co-op,16 Leverett Ave #10,Boston,MA,2128,409000,2,1.5,1014,1014,1982,416,http://www.redfin.com/MA/Boston/16-Leverett-Ave-02128/unit-10/home/9108544,42.38943216,-70.99586248
16,Condo/Co-op,21 Father Francis Gilday St #301,Boston,MA,2118,949900,2,1.5,971,971,1858,773,http://www.redfin.com/MA/Boston/21-Father-Francis-Gilday-St-02118/unit-301/home/17393101,42.3371558,-71.0732041
17,Condo/Co-op,463 Commonwealth Ave #6,Boston,MA,2215,645000,1,1,668,668,1900,219,http://www.redfin.com/MA/Boston/463-Commonwealth-Ave-02215/unit-6/home/9240247,42.3494022,-71.0931228
18,Condo/Co-op,126 Jersey St #402,Boston,MA,2215,729900,1,1,624,624,2007,357,http://www.redfin.com/MA/Boston/126-Jersey-St-02215/unit-402/home/18983038,42.3425746,-71.0965461
19,Condo/Co-op,109 N St #1,Boston,MA,2127,425000,1,1,480,480,1920,140,http://www.redfin.com/MA/Boston/109-N-St-02127/unit-1/home/11511722,42.3344853,-71.0314719
20,Condo/Co-op,181 Warren Ave #1,Boston,MA,2116,1290000,2,2,1112,1112,1899,368,http://www.redfin.com/MA/Boston/181-Warren-Ave-02116/unit-1/home/9325859,42.3439271,-71.0766076
21,Condo/Co-op,407 Washington St #2,Boston,MA,2124,350000,2,1,907,0,1900,294,http://www.redfin.com/MA/Boston/407-Washington-St-02124/unit-2/home/9305738,42.29734,-71.0728171
22,Condo/Co-op,407 W 1st #202,Boston,MA,2127,1225000,2,2,1663,0,2014,422,http://www.redfin.com/MA/Boston/407-W-First-St-02127/unit-202/home/55120426,42.3373474,-71.0437053
23,Condo/Co-op,18 Chelsea St #2,Boston,MA,2128,529999,2,2,757,0,1900,330,http://www.redfin.com/MA/Boston/18-Chelsea-St-02128/unit-2/home/124544953,42.3705787,-71.0382936
24,Condo/Co-op,533 E Second #102,Boston,MA,2127,925000,2,2,1060,0,2020,0,http://www.redfin.com/MA/Boston/533-E-2nd-St-02127/unit-102/home/172671660,42.337013,-71.041996
25,Condo/Co-op,108 Peterborough St Unit PHN,Boston,MA,2215,949000,2,1.5,836,0,1990,454,http://www.redfin.com/MA/Boston/108-Peterborough-St-02215/unit-PHN/home/12441472,42.3427617,-71.0999457
26,Condo/Co-op,11 Park Dr #17,Boston,MA,2215,649000,2,1,680,0,1920,319,http://www.redfin.com/MA/Boston/11-Park-Dr-02215/unit-17/home/9273493,42.3446127,-71.0952214
27,Condo/Co-op,99-105 Broad St Unit 4B,Boston,MA,2110,715000,1,1,702,702,1910,540,http://www.redfin.com/MA/Boston/99-Broad-St-02110/unit-4B/home/12379260,42.357323,-71.05262
28,Multi-Family (2-4 Unit),18 Arbroth St,Boston,MA,2122,799000,5,2,2328,3600,1929,0,http://www.redfin.com/MA/Dorchester/18-Arbroth-St-02122/home/9094528,42.2906859,-71.0519357
29,Multi-Family (2-4 Unit),30 Hewlett St,Boston,MA,2131,1375000,8,3,3780,5908,1910,0,http://www.redfin.com/MA/Roslindale/30-Hewlett-St-02131/home/9170379,42.2897862,-71.1351734
30,Condo/Co-op,1 Dalton St #2905,Boston,MA,2119,8475000,4,3.5,3124,0,2019,3490,http://www.redfin.com/MA/Boston/1-Dalton-St-02199/unit-2905/home/172671321,42.345,-71.084314
31,Condo/Co-op,135 Seaport Blvd #820,Boston,MA,2210,1994000,2,2.5,1424,0,2020,1805,http://www.redfin.com/MA/Boston/135-Seaport-Blvd-02210/unit-820/home/172671273,42.3509604,-71.0439013
32,Condo/Co-op,66 Mora St #3,Boston,MA,2124,485000,3,1,1350,4425,1905,221,http://www.redfin.com/MA/Boston/66-Mora-St-02124/unit-3/home/113710393,42.2818817,-71.0739422
33,Condo/Co-op,135 Seaport Blvd #906,Boston,MA,2210,1497400,2,2,1024,0,2019,1019,http://www.redfin.com/MA/Boston/135-Seaport-Blvd-02210/unit-906/home/168965266,42.3509604,-71.0439013
34,Condo/Co-op,100 Fulton St Unit 2M,Boston,MA,2109,685000,1,1,664,664,1890,585,http://www.redfin.com/MA/Boston/100-Fulton-St-02109/unit-2M/home/9231173,42.362617,-71.053035
35,Condo/Co-op,40 Traveler St #510,Boston,MA,2118,2300000,2,2.5,1571,0,2018,1382,http://www.redfin.com/MA/Boston/40-Traveler-St-02118/unit-510/home/92078684,42.3442232,-71.0623254
36,Single Family Residential,31 Plainfield St #1,Boston,MA,2130,749000,2,2.5,1984,4000,1890,0,http://www.redfin.com/MA/Jamaica-Plain/31-Plainfield-St-02130/unit-1/home/144277854,42.3034434,-71.1073211
37,Condo/Co-op,65 Lewis St #316,Boston,MA,2128,665000,1,1,787,0,2019,485,http://www.redfin.com/MA/Boston/65-Lewis-St-02128/unit-316/home/168998147,42.367142,-71.041588
38,Single Family Residential,541 Lagrange St,Boston,MA,2132,679000,4,2,1654,5100,1915,0,http://www.redfin.com/MA/West-Roxbury/541-Lagrange-St-02132/home/9211094,42.284764,-71.1622811
39,Condo/Co-op,36 Myrtle St #3,Boston,MA,2114,689000,2,1,657,0,1900,315,http://www.redfin.com/MA/Boston/36-Myrtle-St-02114/unit-3/home/9257849,42.359193,-71.0658458
40,Condo/Co-op,45 Vinton St #3,Boston,MA,2127,745000,2,2,1207,1207,2008,371,http://www.redfin.com/MA/Boston/45-Vinton-St-02127/unit-3/home/18322064,42.329698,-71.0531063
41,Condo/Co-op,73 Mt. Ida Rd #3,Boston,MA,2122,549900,3,1,1067,0,1920,175,http://www.redfin.com/MA/Dorchester/73-Mt-Ida-Rd-02122/unit-3/home/143937037,42.3046199,-71.0643319
42,Condo/Co-op,9 Wales St #1,Boston,MA,2124,515000,3,2,1500,6921,1905,175,http://www.redfin.com/MA/Boston/9-Wales-St-02124/unit-1/home/172669551,42.2980353,-71.0860592
43,Condo/Co-op,1784 Columbia Rd #1,Boston,MA,1227,1799000,3,1.5,1750,7543,1962,0,http://www.redfin.com/MA/Boston/1784-Columbia-Rd-02127/unit-1/home/172669517,42.3317716,-71.0297887
44,Townhouse,25 Harrison St Unit F,Boston,MA,2131,419000,3,2.5,1729,1742,1989,346,http://www.redfin.com/MA/Boston/25-Harrison-St-02131/unit-F/home/9166500,42.287925,-71.120094
45,Condo/Co-op,204 W Brookline St #4,Boston,MA,2118,899000,2,1,822,822,1900,231,http://www.redfin.com/MA/Boston/204-W-Brookline-St-02118/unit-4/home/9301336,42.3434166,-71.0768976
46,Multi-Family (2-4 Unit),132 High St,Boston,MA,2129,1289000,4,3,2600,1750,1989,0,http://www.redfin.com/MA/Charlestown/132-High-St-02129/home/9046815,42.3785283,-71.0666881
47,Townhouse,51 Pier 7 #51,Boston,MA,2129,1349000,2,2.5,1825,0,1987,1431,http://www.redfin.com/MA/Boston/51-9th-St-02129/unit-51/home/39996502,42.3760539,-71.0523564
48,Single Family Residential,324 Pond St,Boston,MA,2130,1350000,4,3,3068,9059,1954,0,http://www.redfin.com/MA/Jamaica-Plain/324-Pond-St-02130/home/9328124,42.3111429,-71.1285354
49,Condo/Co-op,12 Bellvista Rd #6,Boston,MA,2135,549900,2,1,802,802,1900,437,http://www.redfin.com/MA/Boston/12-Bellvista-Rd-02135/unit-6/home/9223545,42.3465307,-71.1379467
50,Condo/Co-op,234 Paris St #1,Boston,MA,2128,540000,2,2,813,0,2017,220,http://www.redfin.com/MA/Boston/234-Paris-St-02128/unit-1/home/129803219,42.3751582,-71.0344277
51,Condo/Co-op,172-178 Green St #13,Boston,MA,2130,699900,2,1,1279,1306,1890,351,http://www.redfin.com/MA/Boston/172-Green-St-02130/unit-13/home/9299973,42.310264,-71.1057154
52,Condo/Co-op,92-94 Walnut St #4,Boston,MA,2122,525000,2,1,812,0,1900,208,http://www.redfin.com/MA/Boston/92-Walnut-St-02122/unit-4/home/9326325,42.2879004,-71.0402709
53,Condo/Co-op,280 Beacon St #5,Boston,MA,2116,1100000,1,1,964,964,1930,738,http://www.redfin.com/MA/Boston/280-Beacon-St-02116/unit-5/home/9248281,42.3533964,-71.0812001
54,Single Family Residential,12 March Ave,Boston,MA,2132,899900,5,2,2890,7000,1790,0,http://www.redfin.com/MA/West-Roxbury/12-March-Ave-02132/home/9209527,42.2837234,-71.1546224
55,Condo/Co-op,770 E 3rd St #3,Boston,MA,2127,979000,2,2,1274,0,2010,391,http://www.redfin.com/MA/Boston/770-E-3rd-St-02127/unit-3/home/40352599,42.3367302,-71.0289407
56,Condo/Co-op,63 Maverick Sq #11,Boston,MA,2128,734999,2,1,1471,1471,1930,548,http://www.redfin.com/MA/Boston/63-Maverick-Sq-02128/unit-11/home/9112451,42.3695199,-71.0385249
57,Townhouse,62-64 Wrentham St #3,Boston,MA,2124,559000,4,2,1482,0,1910,240,http://www.redfin.com/MA/Boston/62-Wrentham-St-02124/unit-3/home/11838321,42.2884672,-71.0603135
58,Condo/Co-op,78 Train St #2,Boston,MA,2122,525000,3,1,1177,0,1905,280,http://www.redfin.com/MA/Boston/78-Train-St-02122/unit-2/home/9305552,42.2931729,-71.0541364
59,Single Family Residential,14 Sanford St,Boston,MA,2136,585000,3,1.5,1650,4960,1970,0,http://www.redfin.com/MA/Hyde-Park/14-Sanford-St-02136/home/11835639,42.2422783,-71.1409409
60,Multi-Family (2-4 Unit),66 Montcalm Ave,Boston,MA,2135,999900,5,3,2478,2584,1900,0,http://www.redfin.com/MA/Brighton/66-Montcalm-Ave-02135/home/9015378,42.3531027,-71.1485418
61,Townhouse,126 Florence St #126,Boston,MA,2131,799000,3,2.5,2000,0,2008,200,http://www.redfin.com/MA/Boston/126-Florence-St-02131/unit-126/home/28857451,42.2870173,-71.1238066
62,Condo/Co-op,188 Brookline Ave Unit 23D,Boston,MA,2215,1299000,1,1,762,0,2018,865,http://www.redfin.com/MA/Boston/188-Brookline-Ave-02215/unit-23D/home/171787704,42.3437734,-71.1017218
63,Condo/Co-op,370 Chestnut Hill Ave #5,Boston,MA,2135,429000,2,1,770,0,1950,579,http://www.redfin.com/MA/Boston/370-Chestnut-Hill-Ave-02135/unit-5/home/9308487,42.3366018,-71.1509181
64,Condo/Co-op,463 Rutherford Ave #402,Boston,MA,2129,689000,2,2,850,0,2015,499,http://www.redfin.com/MA/Boston/463-Rutherford-Ave-02129/unit-402/home/146212801,42.3808565,-71.0713251
65,Condo/Co-op,605 Massachusetts Ave #7,Boston,MA,2118,469900,1,1,415,378,1900,293,http://www.redfin.com/MA/Boston/605-Massachusetts-Ave-02118/unit-7/home/9287417,42.3370628,-71.0780854
66,Multi-Family (2-4 Unit),5-A Lorenzo St,Boston,MA,2122,599999,4,2,1782,3042,1905,0,http://www.redfin.com/MA/Dorchester/5A-Lorenzo-St-02122/home/132314565,42.287053,-71.041914
67,Condo/Co-op,280 W 5Th St #101,Boston,MA,2127,1249000,2,2.5,1624,0,2017,295,http://www.redfin.com/MA/Boston/280-W-Fifth-St-02127/unit-101/home/141860342,42.3350973,-71.0483935
68,Condo/Co-op,357 Commercial St #210,Boston,MA,2109,1000000,2,1.5,905,0,1900,535,http://www.redfin.com/MA/Boston/357-Commercial-St-02109/unit-210/home/9230233,42.3661069,-71.0505699
69,Multi-Family (2-4 Unit),48 Pearl St,Boston,MA,2129,1398000,3,3,3030,1433,1870,0,http://www.redfin.com/MA/Charlestown/48-Pearl-St-02129/home/9060449,42.379355,-71.0639257
70,Condo/Co-op,100 Lovejoy Wharf Ph 3B,Boston,MA,2114,1688000,2,2,1275,0,2017,1770,http://www.redfin.com/MA/Boston/100-Lovejoy-Wharf-02114/unit-3B/home/146992744,42.3670218,-71.0600856
71,Multi-Family (2-4 Unit),60 Lithgow St,Boston,MA,2124,850000,9,3,4410,5392,1905,0,http://www.redfin.com/MA/Dorchester-Center/60-Lithgow-St-02124/home/9068714,42.2907089,-71.0679532
72,Condo/Co-op,100 Saint Marys St #5,Boston,MA,2215,599000,2,1,652,5756,1880,479,http://www.redfin.com/MA/Boston/100-St-Marys-St-02215/unit-5/home/9251185,42.3465444,-71.1067982
73,Condo/Co-op,2 Harvard Pl #2,Boston,MA,2129,529000,1,1,500,0,1900,225,http://www.redfin.com/MA/Boston/2-Harvard-Pl-02129/unit-2/home/113226939,42.3723388,-71.0633492
74,Condo/Co-op,1625 Commonwealth Ave #1,Boston,MA,2135,360000,1,1,471,471,1930,325,http://www.redfin.com/MA/Boston/1625-Commonwealth-Ave-02135/unit-1/home/9002414,42.3428162,-71.1449067
75,Townhouse,77 Mount Vernon St Unit B,Somerville,MA,2145,639900,2,2,942,1403,1988,281,http://www.redfin.com/MA/Somerville/77-Mt-Vernon-St-02145/unit-B/home/8748445,42.382996,-71.081598
76,Condo/Co-op,151 Tremont St Unit 16C,Boston,MA,2111,625000,1,1,735,735,1968,460,http://www.redfin.com/MA/Boston/151-Tremont-St-02111/unit-16C/home/9279685,42.3544996,-71.0633802
77,Single Family Residential,108 Waldemar Ave,Boston,MA,2128,379000,3,1,1100,3864,1952,0,http://www.redfin.com/MA/Boston/108-Waldemar-Ave-02128/home/9109147,42.3920554,-71.0030437
78,Condo/Co-op,150 Orleans St #206,Boston,MA,2128,639900,1,1,948,948,1920,575,http://www.redfin.com/MA/Boston/150-Orleans-St-02128/unit-206/home/9107399,42.3702907,-71.0362555
79,Condo/Co-op,465-469 Hanover St Unit 5R,Boston,MA,2113,499900,1,1,445,445,1899,206,http://www.redfin.com/MA/Boston/465-Hanover-St-02113/unit-5R/home/21639926,42.3667607,-71.0524344
80,Multi-Family (2-4 Unit),202 South St,Boston,MA,2130,1200000,8,3,3628,4041,1905,0,http://www.redfin.com/MA/Jamaica-Plain/202-South-St-02130/home/9150111,42.3032331,-71.1143772
81,Condo/Co-op,130 Hyde Park Ave,Boston,MA,2130,699000,3,2,1720,0,1885,300,http://www.redfin.com/MA/Boston/130-Hyde-Park-Ave-02130/home/9151607,42.2965552,-71.1155377
82,Condo/Co-op,59 Congreve St #1,Boston,MA,2131,575000,2,1,1443,0,1910,200,http://www.redfin.com/MA/Boston/59-Congreve-St-02131/unit-1/home/104491023,42.2898315,-71.1385552
83,Townhouse,319 Grove St #319,Boston,MA,2132,449000,2,1.5,1206,1206,1983,371,http://www.redfin.com/MA/West-Roxbury/319-Grove-St-02132/unit-319/home/172664179,42.2589607,-71.1568942
84,Condo/Co-op,34 E Newton #1,Boston,MA,2118,489000,1,1,380,0,1900,239,http://www.redfin.com/MA/Boston/34-E-Newton-St-02118/unit-1/home/9285026,42.3379877,-71.0723858
85,Condo/Co-op,147 Trenton St #2,Boston,MA,2128,499000,3,1,1007,1007,1880,160,http://www.redfin.com/MA/Boston/147-Trenton-St-02128/unit-2/home/18974362,42.3796922,-71.0336144
86,Single Family Residential,65 Oak Square Ave,Boston,MA,2135,759000,4,1.5,1984,3224,1900,0,http://www.redfin.com/MA/Brighton/65-Oak-Square-Ave-02135/home/9035150,42.351966,-71.1634879
87,Multi-Family (2-4 Unit),59 Goodenough St,Boston,MA,2135,1100000,5,4,2688,4000,1924,0,http://www.redfin.com/MA/Brighton/59-Goodenough-St-02135/home/9017416,42.3553165,-71.154576
88,Condo/Co-op,20 Chapel St Unit B701,Brookline,MA,2446,729000,1,1,764,174240,1920,707,http://www.redfin.com/MA/Brookline/20-Chapel-St-02446/unit-B701/home/12458205,42.3410329,-71.1110021
89,Condo/Co-op,280 Commonwealth Ave Unit G7,Boston,MA,2116,489000,0,1,547,547,1899,206,http://www.redfin.com/MA/Boston/280-Commonwealth-Ave-02116/unit-G7/home/9266452,42.3498104,-71.0840765
90,Condo/Co-op,580 Washington St #404,Boston,MA,2111,850000,1,1,777,0,2013,742,http://www.redfin.com/MA/Boston/580-Washington-St-02111/unit-404/home/85680490,42.3533804,-71.0619769
91,Condo/Co-op,222 W Canton St #1,Boston,MA,2116,3095000,3,3.5,2534,2534,1890,427,http://www.redfin.com/MA/Boston/222-W-Canton-St-02116/unit-1/home/18982993,42.3452163,-71.0775258
92,Condo/Co-op,10 Otis Pl Unit 4B,Boston,MA,2108,3650000,3,3.5,2418,0,1900,945,http://www.redfin.com/MA/Boston/10-Otis-Pl-02108/unit-4B/home/9254625,42.3570332,-71.0724566
93,Condo/Co-op,65 Chester St #8,Boston,MA,2134,399000,2,1,700,700,1920,470,http://www.redfin.com/MA/Boston/65-Chester-St-02134/unit-8/home/8992078,42.3527821,-71.1280084
94,Condo/Co-op,124 Calumet St #3,Boston,MA,2120,729000,4,2,1685,1685,1900,250,http://www.redfin.com/MA/Boston/124-Calumet-St-02120/unit-3/home/9326950,42.3309581,-71.1023706
95,Condo/Co-op,140 Kilsyth Rd #4,Boston,MA,2135,545000,2,1,937,937,1912,390,http://www.redfin.com/MA/Boston/140-Kilsyth-Rd-02135/unit-4/home/9308628,42.3394345,-71.1468538
96,Multi-Family (2-4 Unit),19 Rexhame,Boston,MA,2131,789500,5,2,2804,5000,1920,0,http://www.redfin.com/MA/Roslindale/19-Rexhame-St-02131/home/9173220,42.2853578,-71.1430181
97,Condo/Co-op,51 Old Harbor St #1,Boston,MA,2127,699000,2,2,1126,1126,1890,200,http://www.redfin.com/MA/Boston/51-Old-Harbor-St-02127/unit-1/home/45406992,42.3331018,-71.0476421
98,Condo/Co-op,238 Bremen #3,Boston,MA,2128,640000,2,2,1127,0,2020,200,http://www.redfin.com/MA/Boston/238-Bremen-St-02128/unit-3/home/172663293,42.3744864,-71.0325746
99,Condo/Co-op,45 Mount Vernon St Unit 4A,Boston,MA,2108,995000,1,2,1080,1080,1850,307,http://www.redfin.com/MA/Boston/45-Mt-Vernon-St-02108/unit-4A/home/9259211,42.3584702,-71.0653301
100,Condo/Co-op,45 High St Unit B,Boston,MA,2129,409000,0,1,590,0,1890,131,http://www.redfin.com/MA/Boston/45-High-St-02129/unit-B/home/9062131,42.376503,-71.063011
101,Condo/Co-op,702 Massachuestts Ave #7,Boston,MA,2118,380000,1,1,372,0,1910,295,http://www.redfin.com/MA/Boston/702-Massachusetts-Ave-02118/unit-7/home/9323017,42.3352063,-71.0749985
102,Townhouse,101 Grew Ave Unit B,Boston,MA,2131,399900,3,2.5,1380,1380,1988,311,http://www.redfin.com/MA/Boston/101-Grew-Ave-02131/unit-B/home/9307283,42.275047,-71.122583
103,Condo/Co-op,59 Goodenough St #2,Boston,MA,2135,600000,3,2,1500,0,1924,200,http://www.redfin.com/MA/Brighton/59-Goodenough-St-02135/unit-2/home/169246934,42.3553165,-71.154576
104,Condo/Co-op,59 Goodenough St #1,Boston,MA,2135,500000,2,2,900,0,1924,200,http://www.redfin.com/MA/Brighton/59-Goodenough-St-02135/unit-1/home/169246933,42.3553165,-71.154576
105,Condo/Co-op,10 Greenley Pl #3,Boston,MA,2130,519000,3,1,1292,0,1910,200,http://www.redfin.com/MA/Boston/10-Greenley-Pl-02130/unit-3/home/11506595,42.310512,-71.1050517
106,Multi-Family (2-4 Unit),76 Ridgewood,Boston,MA,2122,839900,9,3,3249,4116,1905,0,http://www.redfin.com/MA/Dorchester/76-Ridgewood-St-02122/home/9079690,42.3026215,-71.0643783
107,Single Family Residential,38 Osceola St,Boston,MA,2136,399000,3,2,1248,4941,1920,0,http://www.redfin.com/MA/HYDE-PARK/38-OSCEOLA-ST-02136/home/9164460,42.262031,-71.102172
108,Condo/Co-op,380 Bunker Hill St #303,Boston,MA,2129,1729000,3,3,1871,0,1907,910,http://www.redfin.com/MA/Boston/380-Bunker-Hill-St-02129/unit-303/home/172662806,42.381908,-71.0693692
109,Condo/Co-op,5 Appleton St Unit 3B,Boston,MA,2116,1049900,2,1,1025,1025,1900,365,http://www.redfin.com/MA/Boston/5-Appleton-St-02116/unit-3B/home/11836677,42.3466867,-71.0698758
110,Condo/Co-op,239 Lexington St #2,Boston,MA,2128,799900,3,2,1362,0,1900,300,http://www.redfin.com/MA/Boston/239-Lexington-St-02128/unit-2/home/172662778,42.379866,-71.031137
111,Condo/Co-op,1949 Commonwealth Ave #32,Boston,MA,2135,410000,1,1,610,0,1932,290,http://www.redfin.com/MA/Boston/1949-Commonwealth-Ave-02135/unit-32/home/9242484,42.3395204,-71.1563018
112,Condo/Co-op,78 Forest Hills St #1,Boston,MA,2130,525000,2,1,1038,4262,1905,160,http://www.redfin.com/MA/Boston/78-Forest-Hills-St-02130/unit-1/home/12441538,42.3094967,-71.1021592
113,Single Family Residential,20 Woodland Pl,Boston,MA,2136,600000,3,2,1655,29837,1920,0,http://www.redfin.com/MA/Hyde-Park/20-Woodland-Pl-02136/home/9136551,42.2526803,-71.1223151
114,Condo/Co-op,111 Perkins St Unit 224-6,Boston,MA,2130,1180000,3,3,2100,0,1963,2999,http://www.redfin.com/MA/Jamaica-Plain/111-Perkins-St-02130/unit-224-6/home/172662654,42.3219957,-71.1164429
115,Multi-Family (2-4 Unit),112 Moore St,Boston,MA,2128,689900,3,2,1408,1875,1900,0,http://www.redfin.com/MA/Boston/112-Moore-St-02128/home/9108659,42.3810483,-71.0175424
116,Condo/Co-op,85 E India Row Unit 9c,Boston,MA,2110,1379000,1,1.5,1238,0,1972,1405,http://www.redfin.com/MA/Boston/85-E-India-Row-02110/unit-9C/home/9261388,42.3581217,-71.0498232
117,Single Family Residential,12-14 Ennis Rd,Boston,MA,2119,900000,3,2,1630,8388,1900,0,http://www.redfin.com/MA/Boston/12-Ennis-Rd-02119/home/77488250,42.312571,-71.09745
118,Townhouse,5-7 Louis Ter Unit 5A,Boston,MA,2124,535000,2,1.5,997,0,2010,244,http://www.redfin.com/MA/Boston/5-Louis-Ter-02124/unit-5A/home/39925150,42.2877959,-71.0568771
119,Condo/Co-op,480 Shawmut Unit 4B,Boston,MA,2118,749000,2,1,735,0,1900,348,http://www.redfin.com/MA/Boston/480-Shawmut-Ave-02118/unit-4B/home/9286718,42.338464,-71.0760081
120,Multi-Family (2-4 Unit),44 Hooker St,Boston,MA,2134,1490000,11,4,3504,5104,1930,0,http://www.redfin.com/MA/Allston/44-Hooker-St-02134/home/8991282,42.3585208,-71.1284426
121,Condo/Co-op,469 E 4th St #2,Boston,MA,2127,1399000,2,2.5,2037,0,2017,397,http://www.redfin.com/MA/Boston/469-E-4th-St-02127/unit-2/home/113865255,42.3346813,-71.0465833
122,Condo/Co-op,93 Strathmore Rd #2,Boston,MA,2135,375000,1,1,617,0,1935,566,http://www.redfin.com/MA/Boston/93-Strathmore-Rd-02135/unit-2/home/9026450,42.3392423,-71.1504828
123,Condo/Co-op,429 Chelsea St Unit - 1,Boston,MA,2128,528000,3,2,992,0,1890,148,http://www.redfin.com/MA/Boston/429-Chelsea-St-02128/unit-1/home/167201933,42.3808863,-71.0257492
124,Condo/Co-op,10 Sydney St #3,Boston,MA,2125,899900,2,2,1242,0,2019,184,http://www.redfin.com/MA/Dorchester/10-Sydney-St-02125/unit-3/home/163834607,42.3119283,-71.0537232
125,Condo/Co-op,15 Dixfield St #2,Boston,MA,2127,808000,2,1.5,1086,1017,1890,225,http://www.redfin.com/MA/Boston/15-Dixfield-St-02127/unit-2/home/9309048,42.3316331,-71.0468116
126,Townhouse,2 W Main St #2,Boston,MA,2126,429000,3,2.5,1417,1417,2009,344,http://www.redfin.com/MA/Boston/2-W-Main-St-02124/unit-2/home/104210358,42.2870238,-71.0954689
127,Multi-Family (2-4 Unit),31 Hiawatha Rd,Boston,MA,2126,899900,9,3,4160,3822,1905,0,http://www.redfin.com/MA/Mattapan/31-Hiawatha-Rd-02126/home/11835915,42.2768655,-71.0948798
128,Townhouse,59 Fuller St #59,Boston,MA,2124,449000,2,1.5,1110,1552,1988,253,http://www.redfin.com/MA/Boston/59-Fuller-St-02124/unit-59/home/113229878,42.2832258,-71.0682062
129,Condo/Co-op,56 Bryon Rd #2,Boston,MA,2467,299000,2,1,786,786,1950,299,http://www.redfin.com/MA/Chestnut-Hill/56-Bryon-Rd-02467/unit-2/home/9204372,42.3010409,-71.1675035
130,Condo/Co-op,1 Avery St Unit 15G,Boston,MA,2111,1495000,2,2.5,1402,0,2000,2004,http://www.redfin.com/MA/Boston/1-Avery-St-02111/unit-15G/home/9312453,42.3533168,-71.0628507
131,Single Family Residential,35 Halsey Rd,Boston,MA,2136,469999,3,1,1008,5333,1950,0,http://www.redfin.com/MA/Hyde-Park/35-Halsey-Rd-02136/home/9136763,42.242008,-71.1243112
132,Condo/Co-op,10 Linley Ter #1,Boston,MA,2127,715000,2,2,871,0,1900,141,http://www.redfin.com/MA/Boston/10-Linley-Ter-02127/unit-1/home/69442410,42.3359551,-71.0390909
133,Single Family Residential,10 Ashfield St,Boston,MA,2131,1150000,5,4.5,3843,6000,1896,0,http://www.redfin.com/MA/Roslindale/10-Ashfield-St-02131/home/9169397,42.2897761,-71.1304154
134,Single Family Residential,29 Westmount Ave,Boston,MA,2132,860000,4,2,1683,14130,1900,0,http://www.redfin.com/MA/West-Roxbury/29-Westmount-Ave-02132/home/9201089,42.283318,-71.160421
135,Condo/Co-op,399 Main St #3,Boston,MA,2129,700000,1,1,935,0,1865,179,http://www.redfin.com/MA/Boston/399-Main-St-02129/unit-3/home/56465958,42.3803847,-71.0697615
136,Condo/Co-op,114 Main St #3,Boston,MA,2129,829000,1,1,902,0,1899,200,http://www.redfin.com/MA/Charlestown/114-Main-St-02129/unit-3/home/172660202,42.3743476,-71.0638223
137,Condo/Co-op,114 Main St #2,Boston,MA,2129,1029000,2,2,1124,0,1899,200,http://www.redfin.com/MA/Charlestown/114-Main-St-02129/unit-2/home/172660201,42.3743476,-71.0638223
138,Condo/Co-op,114 Main St #4,Boston,MA,2129,799000,1,1,852,0,1899,200,http://www.redfin.com/MA/Charlestown/114-Main-St-02129/unit-4/home/172660188,42.3743476,-71.0638223
139,Townhouse,15 Sparhawk St #2,Boston,MA,2135,949000,2,2,1529,0,1889,185,http://www.redfin.com/MA/Boston/15-Sparhawk-St-02135/unit-2/home/105427154,42.3510607,-71.1496039
140,Condo/Co-op,461 Beacon St #2,Boston,MA,2115,1200000,2,2.5,1178,1178,1880,300,http://www.redfin.com/MA/Boston/461-Beacon-St-02115/unit-2/home/11735548,42.350934,-71.0881213
141,Townhouse,24 Mount Vernon St Unit C,Boston,MA,2125,699000,3,2,1357,1357,1995,250,http://www.redfin.com/MA/Dorchester/24-Mount-Vernon-St-02125/unit-C/home/172671636,42.322203,-71.0578785
142,Condo/Co-op,2 Avery St Unit 29D,Boston,MA,2111,2300000,2,2.5,1596,1596,1999,2477,http://www.redfin.com/MA/Boston/2-Avery-St-02111/unit-29D/home/9313066,42.3528703,-71.0629976
143,Condo/Co-op,86 Worcester St #2,Boston,MA,2118,799000,2,1,763,0,1899,160,http://www.redfin.com/MA/Boston/86-Worcester-St-02118/unit-2/home/9290354,42.3394635,-71.0784231
144,Single Family Residential,12 Worthington Rd,Brookline,MA,2446,4495000,7,3.5,5500,10877,1913,0,http://www.redfin.com/MA/Brookline/12-Worthington-Rd-02446/home/11442047,42.3486911,-71.1120329
145,Condo/Co-op,133 Seaport Blvd #512,Boston,MA,2210,948900,0,1,611,0,2019,718,http://www.redfin.com/MA/Boston/133-Seaport-Blvd-02210/unit-512/home/170280896,42.3504935,-71.0434498
146,Townhouse,96 Beacon St #2,Boston,MA,2108,5650000,3,3.5,2831,2831,1900,2621,http://www.redfin.com/MA/Boston/96-Beacon-St-02108/unit-2/home/12369130,42.3556921,-71.0727037
147,Condo/Co-op,38 Jamaica St #2,Boston,MA,2130,899000,2,2.5,1356,4800,1880,150,http://www.redfin.com/MA/Boston/38-Jamaica-St-02130/unit-2/home/172658795,42.3058243,-71.117705
148,Condo/Co-op,16 Sackville St #1,Boston,MA,2129,559000,1,1,602,0,1880,111,http://www.redfin.com/MA/Boston/16-Sackville-St-02129/unit-1/home/18982685,42.3809849,-71.0650444
149,Single Family Residential,38 Jamaica St,Boston,MA,2130,899000,2,2.5,1356,4800,1880,150,http://www.redfin.com/MA/Boston/38-Jamaica-St-02130/unit-000038/home/9299576,42.3058243,-71.117705
150,Condo/Co-op,151 Tremont St #405,Boston,MA,2111,79000,0,0,9999,0,1969,142,http://www.redfin.com/MA/Boston/151-Tremont-St-02111/unit-405/home/166995900,42.3549861,-71.063255
151,Condo/Co-op,1672-R Washington St Ph 1,Boston,MA,2118,1895000,2,2.5,1579,1579,2013,734,http://www.redfin.com/MA/Boston/1672-Washington-St-02118/unit-1/home/65653991,42.3374311,-71.0754016
152,Condo/Co-op,32 Union Park #4,Boston,MA,2118,1385000,2,2,1028,1028,1900,319,http://www.redfin.com/MA/Boston/32-Union-Park-02118/unit-4/home/9282029,42.3427694,-71.0718842
153,Condo/Co-op,1 Winter Pl,Boston,MA,2108,2750000,3,2.5,3323,0,1832,942,http://www.redfin.com/MA/Boston/1-Winter-Pl-02108/home/54813702,42.3555521,-71.0613835
154,Multi-Family (2-4 Unit),65 Harvest St,Boston,MA,2125,1195000,5,2,3111,5455,1900,0,http://www.redfin.com/MA/Dorchester/65-Harvest-St-02125/home/9099735,42.3236028,-71.0595499
155,Condo/Co-op,135 Appleton St #1,Boston,MA,2116,1399000,2,2,1222,1222,1899,100,http://www.redfin.com/MA/Boston/135-Appleton-St-02116/unit-1/home/9233249,42.3451784,-71.0751838
156,Condo/Co-op,1030 Bennington St #2,Boston,MA,2128,360000,2,1,842,842,1960,437,http://www.redfin.com/MA/Boston/1030-Bennington-St-02128/unit-2/home/9106990,42.3873473,-71.0054538
157,Condo/Co-op,86 Eutaw #3,Boston,MA,2128,549900,2,1,830,0,1870,275,http://www.redfin.com/MA/Boston/86-Eutaw-St-02128/unit-3/home/77467167,42.3799007,-71.0363592
158,Condo/Co-op,65 E India Row Unit 29D,Boston,MA,2110,699000,1,1,749,749,1972,844,http://www.redfin.com/MA/Boston/65-E-India-Row-02110/unit-29D/home/9261030,42.3576699,-71.0504859
159,Single Family Residential,510 E 8Th St,Boston,MA,2127,849000,2,1.5,1215,1140,1900,0,http://www.redfin.com/MA/Boston/510-E-8th-St-02127/home/9194586,42.331507,-71.0410631
160,Multi-Family (2-4 Unit),73 Halifax St,Boston,MA,2130,1799999,10,3,4965,4611,1910,0,http://www.redfin.com/MA/Jamaica-Plain/73-Halifax-St-02130/home/9141985,42.3206968,-71.1153627
161,Condo/Co-op,443 W 4Th St #1,Boston,MA,2127,699000,2,2,840,0,1890,215,http://www.redfin.com/MA/Boston/443-W-Fourth-St-02127/unit-1/home/18996726,42.3353342,-71.0477157
162,Condo/Co-op,39 A #18,Boston,MA,2127,899000,2,2,892,0,2018,272,http://www.redfin.com/MA/Boston/39-A-St-02127/unit-18/home/143897180,42.3413218,-71.0559953
163,Condo/Co-op,8 Everett #2,Boston,MA,2130,1050000,2,2,1423,5440,1884,300,http://www.redfin.com/MA/Jamaica-Plain/8-Everett-St-02130/unit-2/home/172656690,42.3100281,-71.1087834
164,Condo/Co-op,6 Charter St #1,Boston,MA,2113,699900,2,1,1040,0,1890,200,http://www.redfin.com/MA/Boston/6-Charter-St-02113/unit-1/home/9278005,42.3659389,-71.0531884
165,Condo/Co-op,156-168 Terrace St #411,Boston,MA,2120,699000,2,2,1511,0,1900,900,http://www.redfin.com/MA/Boston/156-168-Terrace-St-02120/unit-411/home/45407037,42.3291339,-71.0973695
166,Condo/Co-op,156 Terrace St #403,Boston,MA,2120,619900,2,2,1378,0,1900,821,http://www.redfin.com/MA/Boston/156-Terrace-St-02120/unit-403/home/172656343,42.3272225,-71.0985355
167,Condo/Co-op,156 Terrace St #409,Boston,MA,2120,679900,2,2,1492,0,1900,889,http://www.redfin.com/MA/Boston/156-Terrace-St-02120/unit-409/home/172656325,42.3272225,-71.0985355
168,Single Family Residential,43 Senator Bolling Cir,Boston,MA,2124,999999,4,3.5,3200,6663,2020,0,http://www.redfin.com/MA/Boston/43-Senator-Bolling-Cir-02124/home/85680085,42.2901273,-71.0939353
169,Condo/Co-op,655 E 5Th St #2,Boston,MA,2127,855000,2,2,1100,0,2018,225,http://www.redfin.com/MA/Boston/655-E-5th-St-02127/unit-2/home/172655494,42.3338206,-71.0343854
170,Condo/Co-op,655 E 5Th St #1,Boston,MA,2127,1099000,3,3,1600,0,2019,275,http://www.redfin.com/MA/Boston/655-E-5th-St-02127/unit-1/home/172655465,42.3338206,-71.0343854
171,Condo/Co-op,365 E St #2,Boston,MA,2127,1099000,3,2.5,1375,0,2018,275,http://www.redfin.com/MA/Boston/365-E-St-02127/unit-2/home/172655464,42.3388133,-71.0478774
172,Condo/Co-op,365 E St #1,Boston,MA,2127,849000,1,1.5,1275,0,2019,250,http://www.redfin.com/MA/Boston/365-E-St-02127/unit-1/home/172655451,42.3388133,-71.0478774
173,Condo/Co-op,729 E 5th #2,Boston,MA,2127,1290000,3,3,2000,0,2018,250,http://www.redfin.com/MA/Boston/729-E-5th-St-02127/unit-2/home/171033311,42.33379,-71.03073
174,Condo/Co-op,1 Goodwin Pl #1,Boston,MA,2114,825000,2,1.5,798,0,1899,348,http://www.redfin.com/MA/Boston/1-Goodwin-Pl-02114/unit-1/home/113225598,42.3595258,-71.0690771
175,Condo/Co-op,229 Princeton St #1,Boston,MA,2128,479000,2,1,827,0,1900,259,http://www.redfin.com/MA/Boston/229-Princeton-St-02128/unit-1/home/113972995,42.379079,-71.0312281
176,Single Family Residential,620 E 6th,Boston,MA,2127,1075000,5,2.5,2040,1425,1890,0,http://www.redfin.com/MA/Boston/620-E-6th-St-02127/home/9188094,42.3332781,-71.0356959
177,Condo/Co-op,1870 Commonwealth Ave #14,Boston,MA,2135,389900,1,1,650,650,1930,325,http://www.redfin.com/MA/Boston/1870-Commonwealth-Ave-02135/unit-14/home/9028052,42.3380512,-71.1524517
178,Single Family Residential,25 Millstone Rd,Boston,MA,2136,559000,4,1.5,1450,4979,1967,0,http://www.redfin.com/MA/Hyde-Park/25-Millstone-Rd-02136/home/9134282,42.2336838,-71.1337808
179,Condo/Co-op,593 E 5th #3,Boston,MA,2127,435000,1,1,515,0,1890,180,http://www.redfin.com/MA/Boston/593-E-5th-St-02127/unit-3/home/9303307,42.3337723,-71.0366235
180,Condo/Co-op,1982 Commonwealth Ave #8,Boston,MA,2135,559000,2,1,893,9999,1927,533,http://www.redfin.com/MA/Boston/1982-Commonwealth-Ave-02135/unit-8/home/9032622,42.3392584,-71.1578663
181,Condo/Co-op,2 Avery Unit 25A,Boston,MA,1111,1125000,1,1.5,804,0,2000,1200,http://www.redfin.com/MA/Boston/2-Avery-St-02111/unit-25A/home/11837562,42.3528703,-71.0629976
182,Condo/Co-op,3531 Washington St Ph 522,Boston,MA,2130,890000,2,2,1414,0,2020,817,http://www.redfin.com/MA/Boston/3531-Washington-St-02130/unit-522/home/171974962,42.3055522,-71.108879
183,Condo/Co-op,1880 Beacon St #6,Brookline,MA,2445,469999,1,1,474,0,1900,254,http://www.redfin.com/MA/Brookline/1880-Beacon-St-02445/unit-6/home/11457126,42.3370948,-71.1470676
184,Condo/Co-op,135 Seaport Blvd #2002,Boston,MA,2210,3545000,3,3.5,1899,0,2020,2855,http://www.redfin.com/MA/Boston/135-Seaport-Blvd-02210/unit-2002/home/172651387,42.3509604,-71.0439013
185,Condo/Co-op,135 Seaport Blvd #707,Boston,MA,2210,1284000,1,1,845,0,2020,1051,http://www.redfin.com/MA/Boston/135-Seaport-Blvd-02210/unit-707/home/170936434,42.3509604,-71.0439013
186,Condo/Co-op,135 Seaport Blvd #708,Boston,MA,2210,994000,1,1,670,0,2020,892,http://www.redfin.com/MA/Boston/135-Seaport-Blvd-02210/unit-708/home/168964696,42.3509604,-71.0439013
187,Single Family Residential,414 E Fifth St,Boston,MA,2127,799000,4,1,1788,1831,1911,0,http://www.redfin.com/MA/Boston/414-E-5th-St-02127/home/9189302,42.3339969,-71.043224
188,Townhouse,391 Hyde Park Ave #109,Boston,MA,2131,395000,2,1.5,1005,1005,1989,357,http://www.redfin.com/MA/Boston/391-Hyde-Park-Ave-02131/unit-109/home/9166640,42.2869749,-71.1190184
189,Condo/Co-op,37 Paul Gore St #1,Boston,MA,2130,825000,3,1.5,1369,1369,1905,151,http://www.redfin.com/MA/Boston/37-Paul-Gore-St-02130/unit-1/home/9138758,42.319926,-71.1093578
190,Condo/Co-op,73 Sullivan St #3,Boston,MA,2129,639000,2,1,733,0,1899,150,http://www.redfin.com/MA/Boston/73-Sullivan-St-02129/unit-3/home/9060224,42.3788993,-71.0650697
191,Condo/Co-op,478 Beacon St #1,Boston,MA,2115,445000,0,1,323,0,1892,182,http://www.redfin.com/MA/Boston/478-Beacon-St-02115/unit-1/home/9244461,42.3514011,-71.0886036
192,Condo/Co-op,99 Grove St #4,Boston,MA,2132,229900,1,1,605,0,1965,245,http://www.redfin.com/MA/Boston/99-Grove-St-02132/unit-4/home/9222658,42.2660714,-71.1596885
193,Condo/Co-op,104 BROOKLEY #2,Boston,MA,2130,629000,2,2,1100,0,2020,165,http://www.redfin.com/MA/Jamaica-Plain/104-Brookley-Rd-02130/unit-2/home/172649412,42.3026976,-71.1051218
194,Condo/Co-op,1 Franklin #1009,Boston,MA,2110,1239000,1,1,780,0,2016,1055,http://www.redfin.com/MA/Boston/1-Franklin-St-02110/unit-1009/home/145254388,42.3563166,-71.0595573
195,Condo/Co-op,163 Beacon St Unit B1,Boston,MA,2116,510000,1,1,520,0,1900,385,http://www.redfin.com/MA/Boston/163-Beacon-St-02116/unit-B1/home/9252332,42.3543829,-71.0753556
196,Townhouse,820 Truman Pkwy #1,Boston,MA,2136,620000,3,3.5,2448,0,2018,240,http://www.redfin.com/MA/Boston/820-Truman-Pkwy-02136/unit-1/home/143800313,42.2488959,-71.1235218
197,Condo/Co-op,66 Montcalm Ave #2,Boston,MA,2135,650000,3,2,1580,0,1900,0,http://www.redfin.com/MA/Brighton/66-Montcalm-Ave-02135/unit-2/home/172649033,42.3531027,-71.1485418
198,Townhouse,6 Cheshire St #6,Boston,MA,2130,1199000,3,2.5,2614,2614,1870,350,http://www.redfin.com/MA/Boston/6-Cheshire-St-02130/unit-6/home/172649002,42.3119674,-71.1096963
199,Multi-Family (2-4 Unit),313 Meridian,Boston,MA,2128,999900,4,2,2457,623,1920,0,http://www.redfin.com/MA/East-Boston/313-Meridian-St-02128/unit-313A/home/11506110,42.3774861,-71.0389936
200,Condo/Co-op,993 Memorial Dr #301,Cambridge,MA,2138,785000,2,1,740,0,1900,467,http://www.redfin.com/MA/Cambridge/993-Memorial-Dr-02138/unit-301/home/11575093,42.3735563,-71.1262848
201,Multi-Family (5+ Unit),42-44 Fenton St,Boston,MA,2122,1649000,10,6,4308,4000,1910,0,http://www.redfin.com/MA/Boston/42-Fenton-St-02122/home/9085591,42.3036068,-71.0568588
202,Condo/Co-op,2 Battery Wharf #2501,Boston,MA,2109,865000,1,1.5,932,0,2006,1237,http://www.redfin.com/MA/Boston/2-Battery-Wharf-02109/unit-2501/home/17486351,42.3671015,-71.0504206
203,Multi-Family (2-4 Unit),10 Branton St,Boston,MA,2122,859000,5,2,2464,4000,1928,0,http://www.redfin.com/MA/Dorchester/10-Branton-St-02122/home/9103028,42.2837197,-71.0524928
204,Condo/Co-op,170 Tremont St #1801,Boston,MA,2111,1679000,3,2,1431,1431,1989,1991,http://www.redfin.com/MA/Boston/170-Tremont-St-02111/unit-1801/home/9232403,42.3536576,-71.063854
205,Condo/Co-op,127 Shirley St #2,Boston,MA,2119,419900,2,1.5,743,0,1890,200,http://www.redfin.com/MA/Boston/127-Shirley-St-02119/unit-2/home/172647736,42.3253189,-71.0685103
206,Townhouse,76 Charles Unit STORE,Boston,MA,2114,595000,0,0.5,392,0,1920,6,http://www.redfin.com/MA/Boston/76-Charles-St-02114/unit-STORE/home/9304445,42.3580852,-71.0706368
207,Single Family Residential,24 Winslow Rd,Brookline,MA,2446,2150000,5,4.5,2600,3228,1900,0,http://www.redfin.com/MA/Brookline/24-Winslow-Rd-02446/home/11448582,42.3508915,-71.1223813
208,Parking,57 L St,Boston,MA,2127,99000,0,0,0,85,unknown,100,http://www.redfin.com/MA/Boston/57-L-St-02127/home/145291287,42.3361222,-71.0356854
209,Multi-Family (2-4 Unit),21 Leroy St,Boston,MA,2122,1250000,9,3,3972,3000,1905,0,http://www.redfin.com/MA/Dorchester/21-Leroy-St-02122/home/9080640,42.3008613,-71.0651676
210,Condo/Co-op,411 Shawmut Ave #5,Boston,MA,2118,539000,0,1,450,0,1899,236,http://www.redfin.com/MA/Boston/411-Shawmut-Ave-02118/unit-5/home/9286302,42.3403882,-71.0738774
211,Condo/Co-op,52 Fisher Ave #4,Boston,MA,2120,759000,3,2,1186,0,2020,250,http://www.redfin.com/MA/Boston/52-Fisher-Ave-02120/unit-4/home/172646561,42.3275326,-71.1021664
212,Townhouse,808 Washington #808,Brookline,MA,2445,2049000,4,4.5,2179,10018,1806,400,http://www.redfin.com/MA/Brookline/808-Washington-St-02446/unit-808/home/172646436,42.3415006,-71.1394034
213,Condo/Co-op,50 Melrose St Unit 1 / 2,Boston,MA,2116,995000,0,1.5,2016,0,1915,682,http://www.redfin.com/MA/Boston/50-Melrose-St-02116/unit-1-2/home/170591109,42.3488792,-71.0688545
214,Condo/Co-op,623 Cummns Hwy Unit A,Boston,MA,2136,219000,2,1,601,0,1950,398,http://www.redfin.com/MA/HYDE-PARK/623-CUMMINS-HWY-02136/unit-A/home/21717525,42.271674,-71.106985
215,Condo/Co-op,496 E 3Rd St #3,Boston,MA,2127,759000,2,2,906,906,1920,200,http://www.redfin.com/MA/Boston/496-E-3rd-St-02127/unit-3/home/85680795,42.3365545,-71.0400751
216,Single Family Residential,209 W 6th St #209,Boston,MA,2127,859000,3,3,1390,0,1989,0,http://www.redfin.com/MA/Boston/209-W-Sixth-St-02127/unit-209/home/137813485,42.3352137,-71.0507319
217,Condo/Co-op,105 Fletcher St #1,Boston,MA,2131,449000,2,1.5,1065,0,1928,175,http://www.redfin.com/MA/Boston/105-Fletcher-St-02131/unit-1/home/26850251,42.2911549,-71.139146
218,Condo/Co-op,9 Hawthorne Pl Unit 16R,Boston,MA,2114,619000,1,1,941,941,1967,892,http://www.redfin.com/MA/Boston/9-Hawthorne-Pl-02114/unit-16R/home/9275700,42.3643661,-71.0655158
219,Condo/Co-op,10 Clover St #2,Boston,MA,2122,549000,2,1.5,1128,0,1906,168,http://www.redfin.com/MA/Boston/10-Clover-St-02122/unit-2/home/69369912,42.2855965,-71.0451217
220,Condo/Co-op,221 Mount Auburn St #302,Cambridge,MA,2138,1200000,1,1,998,0,1960,1312,http://www.redfin.com/MA/Cambridge/221-Mt-Auburn-St-02138/unit-302/home/11587449,42.374825,-71.1302303
221,Multi-Family (2-4 Unit),211 Chelsea St,Boston,MA,2128,1250000,11,3,3290,1616,1910,0,http://www.redfin.com/MA/Boston/211-Chelsea-St-02128/home/9117681,42.3747958,-71.0327023
222,Townhouse,138 Brown Ave #1,Boston,MA,2131,979900,4,2.5,2100,0,2020,250,http://www.redfin.com/MA/Roslindale/138-Brown-Ave-02131/unit-1/home/172641519,42.2842813,-71.1211954
223,Condo/Co-op,93 Baldwin Unit A,Boston,MA,2129,675000,2,1.5,927,0,1890,240,http://www.redfin.com/MA/Charlestown/93-Baldwin-St-02129/unit-A/home/172641396,42.3829885,-71.0694505
224,Condo/Co-op,514-516 Harvard St Unit 1C,Brookline,MA,2446,689900,3,2,1092,0,1915,643,http://www.redfin.com/MA/Brookline/514-Harvard-St-02446/unit-1C/home/11450173,42.3481984,-71.1295329
225,Multi-Family (2-4 Unit),96 Sheridan St,Boston,MA,2130,999990,5,3,2984,2100,1905,0,http://www.redfin.com/MA/Jamaica-Plain/96-Sheridan-St-02130/unit-96A/home/9140674,42.3197878,-71.1062069
226,Condo/Co-op,596 E 2Nd St #1,Boston,MA,2127,565000,2,1,708,708,1905,150,http://www.redfin.com/MA/Boston/596-E-2nd-St-02127/unit-1/home/45407395,42.3374172,-71.0392744
227,Condo/Co-op,400 Savin Hill Ave #5,Boston,MA,2125,349000,1,1,669,0,1965,180,http://www.redfin.com/MA/Boston/400-Savin-Hill-Ave-02125/unit-5/home/9063164,42.3122425,-71.0516968
228,Condo/Co-op,7A Monmouth St #2,Boston,MA,2128,619900,2,2,1024,0,1900,125,http://www.redfin.com/MA/Boston/7A-Monmouth-St-02128/unit-2/home/172641028,42.3793795,-71.0387846
229,Townhouse,1 Prospect Ave #1,Boston,MA,2131,929900,3,2.5,2000,0,2020,250,http://www.redfin.com/MA/Roslindale/1-Prospect-Ave-02131/unit-1/home/172641002,42.2842197,-71.1212475
230,Single Family Residential,9 Russell St,Boston,MA,2129,1350000,3,1.5,1467,3520,1870,0,http://www.redfin.com/MA/Charlestown/9-Russell-St-02129/home/9060359,42.3793827,-71.0644132
231,Condo/Co-op,106 13th #236,Boston,MA,2129,410000,1,1,701,0,1920,729,http://www.redfin.com/MA/Boston/106-13th-St-02129/unit-236/home/9051109,42.377706,-71.0505749
232,Townhouse,4 Mount Vernon St #1,Boston,MA,2129,649000,1,1,670,0,1870,150,http://www.redfin.com/MA/Boston/4-Mt-Vernon-Ave-02129/unit-1/home/9304953,42.3760091,-71.0590685
233,Condo/Co-op,132 Boylston #4,Boston,MA,2116,1479000,3,2,1622,0,1899,689,http://www.redfin.com/MA/Boston/132-Boylston-St-02116/unit-4/home/12470845,42.3522586,-71.0660209
234,Condo/Co-op,15 Sheffield Rd #1,Boston,MA,2131,519000,2,1,978,0,1910,225,http://www.redfin.com/MA/Boston/15-Sheffield-Rd-02131/unit-1/home/145285764,42.2901511,-71.1337035
235,Condo/Co-op,27 Monument Sq #1,Boston,MA,2129,639000,1,1,591,0,1899,175,http://www.redfin.com/MA/Boston/27-Monument-Sq-02129/unit-1/home/9062330,42.3772866,-71.0608942
236,Condo/Co-op,201 Newbury #204,Boston,MA,2116,1779000,2,2,1300,0,1987,1457,http://www.redfin.com/MA/Boston/201-Newbury-St-02116/unit-204/home/9238145,42.3503967,-71.0804598
237,Condo/Co-op,437 D St Unit 6C,Boston,MA,2210,1270000,1,1,1244,0,1920,430,http://www.redfin.com/MA/Boston/437-D-St-02210/unit-6C/home/9185927,42.3451429,-71.0429517
238,Townhouse,4 Dolans Ct #4,Boston,MA,2130,769000,2,2,1000,0,1900,200,http://www.redfin.com/MA/Boston/4-Dolans-Ct-02130/unit-4/home/172637452,42.3132458,-71.1052075
239,Condo/Co-op,238 Bremen #2,Boston,MA,2128,620000,2,2,1000,0,2020,200,http://www.redfin.com/MA/Boston/238-Bremen-St-02128/unit-2/home/172636808,42.3744864,-71.0325746
240,Condo/Co-op,233 Metropolitan Ave #2,Boston,MA,2131,599900,4,2,1950,0,1910,175,http://www.redfin.com/MA/Roslindale/233-Metropolitan-Ave-02131/unit-2/home/171443141,42.276773,-71.1268643
241,Condo/Co-op,63 Melcher St #301,Boston,MA,2210,610000,0,1,519,0,1916,406,http://www.redfin.com/MA/Boston/63-Melcher-St-02210/unit-301/home/146401749,42.3490018,-71.0497087
242,Condo/Co-op,21 Beacon Unit 9F,Boston,MA,2108,475000,1,1,427,0,1899,427,http://www.redfin.com/MA/Boston/21-Beacon-St-02108/unit-9F/home/9276997,42.358197,-71.062431
243,Condo/Co-op,53 Dwight St #1,Boston,MA,2118,2595000,3,3.5,2179,0,1900,284,http://www.redfin.com/MA/Boston/53-Dwight-St-02118/unit-1/home/49729511,42.3447194,-71.0694487
244,Condo/Co-op,141 Dorchester Ave #114,Boston,MA,2127,442600,2,1,956,0,2006,289,http://www.redfin.com/MA/Boston/141-Dorchester-Ave-02127/unit-114/home/21718429,42.3423405,-71.0578677
245,Condo/Co-op,71 Farragut Rd #1,Boston,MA,2127,839900,2,1,1040,1040,1930,330,http://www.redfin.com/MA/Boston/71-Farragut-Rd-02127/unit-1/home/9186811,42.3356427,-71.0253797
246,Multi-Family (2-4 Unit),4 Benson St,Boston,MA,2135,1300000,7,3,2928,3960,1910,0,http://www.redfin.com/MA/Brighton/4-Benson-St-02135/home/9011331,42.3590799,-71.1403703
247,Multi-Family (2-4 Unit),8 Benson St,Boston,MA,2135,1300000,7,0,2794,3960,1900,0,http://www.redfin.com/MA/Boston/8-Benson-St-02135/home/9011326,42.3590971,-71.1407928
248,Condo/Co-op,121 High St #3,Boston,MA,2129,899000,3,2,1046,0,1920,220,http://www.redfin.com/MA/Charlestown/121-High-St-02129/unit-3/home/11511913,42.378368,-71.0659427
249,Multi-Family (2-4 Unit),348 Saratoga St,Boston,MA,2128,1145678,11,3.5,5364,3000,1890,0,http://www.redfin.com/MA/Boston/348-Saratoga-St-02128/home/11733434,42.3790181,-71.0304388
250,Multi-Family (2-4 Unit),23 Winslow Rd,Brookline,MA,2446,3899900,8,6,4846,4846,1928,0,http://www.redfin.com/MA/Brookline/23-Winslow-Rd-02446/home/11448448,42.3509852,-71.1227793
251,Condo/Co-op,153 Bigelow St #1,Boston,MA,2135,549000,3,1,1039,13540,1980,0,http://www.redfin.com/MA/Brighton/153-Bigelow-St-02135/unit-1/home/168914961,42.3556279,-71.1658087
252,Condo/Co-op,841 Saratoga St #3,Boston,MA,2128,574900,3,2,1278,1278,1900,257,http://www.redfin.com/MA/Boston/841-Saratoga-St-02128/unit-3/home/12431895,42.3847586,-71.0138687
253,Condo/Co-op,1 Beckler Ave #2,Boston,MA,2127,499000,1,1,522,522,1890,130,http://www.redfin.com/MA/Boston/1-Beckler-Ave-02127/unit-2/home/28627753,42.3333792,-71.0369734
254,Condo/Co-op,1058 Washington St #1,Boston,MA,2124,470000,3,1,1484,6001,1920,150,http://www.redfin.com/MA/Boston/1058-Washington-St-02124/unit-1/home/145254826,42.2746805,-71.0697002
255,Multi-Family (2-4 Unit),86 Ruthven St,Boston,MA,2121,779000,4,3.5,2520,4650,1905,0,http://www.redfin.com/MA/Boston/86-Ruthven-St-02121/home/9092913,42.3133049,-71.0908409
256,Condo/Co-op,931 South St #1,Boston,MA,2131,668000,2,2,2140,0,1895,315,http://www.redfin.com/MA/Boston/931-South-St-02131/unit-1/home/9166758,42.2882404,-71.1364592
257,Single Family Residential,55 Green St,Boston,MA,2129,1350000,4,2.5,1633,750,1880,0,http://www.redfin.com/MA/Charlestown/55-Green-St-02129/home/9061967,42.3775918,-71.0628346
258,Townhouse,48 Robey St #48,Boston,MA,2119,849000,3,2.5,1592,0,2020,99999,http://www.redfin.com/MA/Roxbury/48-50-Robey-St-02119/unit-48/home/172626533,42.321855,-71.068237
259,Condo/Co-op,101 Heath St #203,Boston,MA,2120,720000,3,2,1366,0,2020,274,http://www.redfin.com/MA/Boston/101-Heath-St-02120/unit-203/home/170556513,42.3263576,-71.102345
260,Multi-Family (2-4 Unit),79 Cottage St,Boston,MA,2128,1399000,4,3,2318,3000,1997,0,http://www.redfin.com/MA/Boston/79-Cottage-St-02128/home/9108012,42.3675476,-71.0351747
261,Condo/Co-op,366 W 2nd St #4,Boston,MA,2127,769000,2,1.5,866,0,2006,281,http://www.redfin.com/MA/Boston/366-W-2nd-St-02127/unit-4/home/18982587,42.3383429,-71.0462104
262,Condo/Co-op,65 Chester St #6,Boston,MA,2134,399000,2,1,650,0,1920,470,http://www.redfin.com/MA/Boston/65-Chester-St-02134/unit-6/home/8992067,42.3527821,-71.1280084
263,Condo/Co-op,30 Elgin St #2,Boston,MA,2132,729000,3,2,2010,0,1938,0,http://www.redfin.com/MA/Boston/30-Elgin-St-02132/unit-2/home/93034017,42.2802098,-71.160172
264,Townhouse,158 Endicott St #4,Boston,MA,2113,1299900,3,2.5,1464,1464,1899,530,http://www.redfin.com/MA/Boston/158-Endicott-St-02113/unit-4/home/12310152,42.3653732,-71.0575608
265,Condo/Co-op,135 Seaport Blvd #901,Boston,MA,2210,1199000,1,1.5,760,0,2020,941,http://www.redfin.com/MA/Boston/135-Seaport-Blvd-02210/unit-901/home/172619955,42.3509604,-71.0439013
266,Condo/Co-op,135 Seaport Blvd #818,Boston,MA,2210,798900,0,1,520,0,2020,667,http://www.redfin.com/MA/Boston/135-Seaport-Blvd-02210/unit-818/home/168964674,42.3509604,-71.0439013
267,Condo/Co-op,43 Westland Ave #303,Boston,MA,2115,769000,1,1,755,755,1910,510,http://www.redfin.com/MA/Boston/43-Westland-Ave-02115/unit-303/home/50281465,42.3440463,-71.087888
268,Condo/Co-op,66 Montcalm Ave #1,Boston,MA,2135,485000,1,1,754,0,1900,0,http://www.redfin.com/MA/Brighton/66-Montcalm-Ave-02135/unit-1/home/172618800,42.3531027,-71.1485418
269,Condo/Co-op,7 Cook #2,Boston,MA,2129,1450000,3,2.5,1600,0,1875,275,http://www.redfin.com/MA/Charlestown/7-Cook-St-02129/unit-2/home/172610180,42.3801036,-71.064181
270,Condo/Co-op,7 Cook St #1,Boston,MA,2129,1250000,2,2.5,1600,0,1875,275,http://www.redfin.com/MA/Charlestown/7-Cook-St-02129/unit-1/home/172618426,42.3801036,-71.064181
271,Condo/Co-op,408 Seaver St #4,Boston,MA,2121,499000,4,2,1915,1915,1905,290,http://www.redfin.com/MA/Boston/408-Seaver-St-02121/unit-4/home/12431291,42.303489,-71.0810691
272,Condo/Co-op,657 E 6Th St #1,Boston,MA,2127,799900,2,2,1021,1021,1910,150,http://www.redfin.com/MA/Boston/657-E-6th-St-02127/unit-1/home/9227539,42.3328983,-71.0341065
273,Condo/Co-op,6 Whittier Pl Unit 10M,Boston,MA,2114,739000,2,2,1272,0,1964,1141,http://www.redfin.com/MA/Boston/6-Whittier-Pl-02114/unit-10M/home/9228326,42.3657336,-71.0669497
274,Condo/Co-op,707 E 4Th St #1,Boston,MA,2127,799000,3,2,1293,1293,1890,208,http://www.redfin.com/MA/Boston/707-E-4th-St-02127/unit-1/home/54835549,42.3345941,-71.0363426
275,Single Family Residential,11 Shute Path,Newton,MA,2459,1835000,5,5.5,5100,7021,2020,0,http://www.redfin.com/MA/Newton/11-Shute-Path-02459/home/11490906,42.291071,-71.1843279
276,Townhouse,241 Perkins Unit J702,Boston,MA,2130,735000,2,2,1500,0,1976,806,http://www.redfin.com/MA/Jamaica-Plain/241-Perkins-St-02130/unit-J702/home/172616173,42.3211522,-71.1235806
277,Condo/Co-op,9-15 Battery St #10,Boston,MA,2109,789000,2,1,854,854,1880,492,http://www.redfin.com/MA/Boston/9-Battery-St-02109/unit-10/home/9270830,42.3662636,-71.0526349
278,Multi-Family (2-4 Unit),19 Carmen St,Boston,MA,2121,679900,6,3,3351,3668,1910,0,http://www.redfin.com/MA/Dorchester/19-Carmen-St-02121/home/11505176,42.3007339,-71.0783526
279,Multi-Family (2-4 Unit),87-93 Liverpool,Boston,MA,2128,3499999,6,7,6000,4875,2005,0,http://www.redfin.com/MA/Boston/87-89-Liverpool-St-02128/home/172615716,42.3720881,-71.0407196
280,Single Family Residential,76 Landseer,Boston,MA,2132,799000,4,1.5,1860,5097,1920,0,http://www.redfin.com/MA/West-Roxbury/76-Landseer-St-02132/home/9214204,42.2786573,-71.1567576
281,Townhouse,86 Litchfield St Unit A,Boston,MA,2135,759000,3,2.5,1430,0,2009,255,http://www.redfin.com/MA/Brighton/86-Litchfield-St-02135/unit-A/home/39877308,42.3611518,-71.140488
282,Condo/Co-op,11 Union Park #5,Boston,MA,2118,1175000,2,1,947,947,1899,244,http://www.redfin.com/MA/Boston/11-Union-Park-02118/unit-5/home/9281838,42.3426095,-71.0707044
283,Condo/Co-op,32 Kilsyth Rd #1,Brookline,MA,2445,1649000,4,2,1948,0,1905,1325,http://www.redfin.com/MA/Brookline/32-Kilsyth-Rd-02445/unit-1/home/11456227,42.3387042,-71.1447415
284,Multi-Family (2-4 Unit),9A Monastery Rd,Boston,MA,2135,950000,5,2.5,1611,5347,1955,0,http://www.redfin.com/MA/Brighton/9A-Monastery-Rd-02135/home/172615427,42.345882,-71.147169
285,Townhouse,67 Saint Botolph #1,Boston,MA,2116,2699000,3,2.5,2330,0,2019,640,http://www.redfin.com/MA/Boston/67-St-Botolph-St-02116/unit-1/home/145154477,42.3456603,-71.0802096
286,Condo/Co-op,383 Beacon St #2,Boston,MA,2116,975000,1,1,812,812,1870,200,http://www.redfin.com/MA/Boston/383-Beacon-St-02116/unit-2/home/172652520,42.3518738,-71.0846743
287,Condo/Co-op,15 Walbridge St #4,Boston,MA,2134,379900,1,1,655,9999,1950,342,http://www.redfin.com/MA/Boston/15-Walbridge-St-02134/unit-4/home/9000439,42.3471574,-71.135505
288,Townhouse,263 Webster St #1,Boston,MA,2128,895000,3,2.5,1544,0,2017,283,http://www.redfin.com/MA/Boston/263-Webster-St-02128/unit-1/home/144221140,42.364516,-71.031312
289,Townhouse,38 Broadlawn Dr #38,Newton,MA,2467,799000,3,2.5,1680,11501,1974,0,http://www.redfin.com/MA/Chestnut-Hill/38-Broadlawn-Dr-02467/unit-38/home/137811683,42.3027939,-71.1668762
290,Condo/Co-op,26 Claremont Park #1,Boston,MA,2118,1700000,2,2.5,1464,1464,1870,310,http://www.redfin.com/MA/Boston/26-Claremont-Park-02118/unit-1/home/39903343,42.3421764,-71.0817033
291,Multi-Family (5+ Unit),888 Package Deal,Boston,MA,2128,2749000,22,9.5,6770,4161,unknown,0,http://www.redfin.com/MA/Boston/888-Package-Deal-02128/home/172614722,42.3695431,-71.0200613
292,Single Family Residential,39 Greenwich Park,Boston,MA,2118,4995000,4,3.5,2572,1105,1899,0,http://www.redfin.com/MA/Boston/39-Greenwich-Park-02118/home/9283210,42.3431001,-71.0809816
293,Single Family Residential,169 W 9th,Boston,MA,2127,1089000,4,4,1750,1230,1900,0,http://www.redfin.com/MA/Boston/169-W-9th-St-02127/home/9189929,42.3337292,-71.0533402
294,Condo/Co-op,1682 Washington St #9,Boston,MA,2118,1295000,2,2,1559,1559,1875,606,http://www.redfin.com/MA/Boston/1682-Washington-St-02118/unit-9/home/9299067,42.3371242,-71.0754957
295,Condo/Co-op,514 Massachusetts Ave #3,Boston,MA,2118,609000,2,1,660,660,1899,133,http://www.redfin.com/MA/Boston/514-Massachusetts-Ave-02118/unit-3/home/9287284,42.3391633,-71.0797674
296,Condo/Co-op,100 Shawmut Ave #208,Boston,MA,2118,1599900,2,2,1182,0,2021,1277,http://www.redfin.com/MA/Boston/100-Shawmut-Ave-02118/unit-208/home/172614200,42.3466841,-71.0656551
297,Condo/Co-op,124 Everett St #1,Boston,MA,2128,625000,2,1.5,997,997,1900,222,http://www.redfin.com/MA/Boston/124-Everett-St-02128/unit-1/home/9328907,42.3670549,-71.0333202
298,Condo/Co-op,34 Clark #2,Boston,MA,2109,693999,1,1,712,0,1915,289,http://www.redfin.com/MA/Boston/34-Clark-St-02109/unit-2/home/11838721,42.3651714,-71.0522092
299,Condo/Co-op,9 Appleton St #401,Boston,MA,2116,659900,1,1,610,0,1880,259,http://www.redfin.com/MA/Boston/9-Appleton-St-02116/unit-401/home/9262409,42.3464941,-71.0701123
300,Condo/Co-op,10 Nonantum St #1,Newton,MA,2458,589000,2,1,1183,10000,1917,0,http://www.redfin.com/MA/Newton/10-Nonantum-St-02458/unit-1/home/11473914,42.3501306,-71.1753173
301,Single Family Residential,25 Westover St,Boston,MA,2132,689000,4,1.5,1523,5000,1890,0,http://www.redfin.com/MA/West-Roxbury/25-Westover-St-02132/home/9206076,42.292422,-71.156804
302,Condo/Co-op,1038 Beacon St #403,Brookline,MA,2446,1319000,3,2,1505,0,1898,941,http://www.redfin.com/MA/Brookline/1038-Beacon-St-02446/unit-403/home/11441459,42.3461112,-71.1086824
303,Condo/Co-op,74 The Fenway #26,Boston,MA,2115,925000,2,1,980,980,1920,553,http://www.redfin.com/MA/Boston/74-Fenway-02115/unit-26/home/9265576,42.3428315,-71.0908989
304,Condo/Co-op,50 Battery St Ph 6,Boston,MA,2109,3299000,3,3.5,2095,2095,1992,2036,http://www.redfin.com/MA/Boston/50-Battery-St-02109/unit-6/home/11509078,42.3662697,-71.0496096
305,Condo/Co-op,134 Beach St Unit TwoA,Boston,MA,2111,1450000,3,2.5,2170,2170,1900,930,http://www.redfin.com/MA/Boston/134-Beach-St-02111/unit-TwoA/home/172613816,42.3507,-71.0571378
306,Condo/Co-op,11 Monastery Unit A,Boston,MA,2135,525000,2,1,873,0,1910,150,http://www.redfin.com/MA/Brighton/11-Monastery-Rd-02135/unit-A/home/172613764,42.345771,-71.146821
307,Condo/Co-op,301 Shawmut Ave #25,Boston,MA,2118,1200000,2,1,1088,0,1900,467,http://www.redfin.com/MA/Boston/301-Shawmut-Ave-02118/unit-25/home/9301416,42.342644,-71.0702488
308,Condo/Co-op,1 Charles St S Unit 8H,Boston,MA,2116,1875000,2,2,1571,1571,2004,2136,http://www.redfin.com/MA/Boston/1-Charles-St-S-02116/unit-8H/home/9326093,42.3511397,-71.0671978
309,Condo/Co-op,35 Webster St #302,Boston,MA,2128,589000,2,1,883,0,1985,358,http://www.redfin.com/MA/Boston/35-Webster-St-02128/unit-302/home/9108122,42.3671811,-71.0390987
310,Condo/Co-op,321 W 2nd St #15,Boston,MA,2127,1350000,2,2,1563,1563,2006,632,http://www.redfin.com/MA/Boston/321-W-2nd-St-02127/unit-15/home/18982393,42.3387508,-71.0475434
311,Condo/Co-op,11 Prospect,Boston,MA,2129,1290000,2,2,1500,0,1890,275,http://www.redfin.com/MA/Charlestown/11-Prospect-St-02129/unit-1/home/172524544,42.3751139,-71.0575071
312,Condo/Co-op,500 Commercial St Unit B,Boston,MA,2109,2795000,2,2,2012,2012,1899,1221,http://www.redfin.com/MA/Boston/500-Commercial-St-02109/unit-B/home/9304840,42.3677373,-71.0548375
313,Condo/Co-op,32 Anderson #2,Boston,MA,2114,1116000,2,1.5,935,0,1910,400,http://www.redfin.com/MA/Boston/32-Anderson-St-02114/unit-2/home/9258238,42.360013,-71.0676225
314,Single Family Residential,4 Bolton Pl,Boston,MA,2129,870000,2,2,1240,607,1850,0,http://www.redfin.com/MA/Charlestown/4-Bolton-Pl-02129/home/9060910,42.378723,-71.066329
315,Condo/Co-op,339 S Huntington Ave #11,Boston,MA,2130,399900,1,1,721,0,1910,487,http://www.redfin.com/MA/Boston/339-S-Huntington-Ave-02130/unit-11/home/9241985,42.3233783,-71.1125075
316,Single Family Residential,8 Cook St,Boston,MA,2129,995000,3,1.5,1270,1142,1920,0,http://www.redfin.com/MA/Charlestown/8-Cook-St-02129/home/9056027,42.3802612,-71.0643435
317,Condo/Co-op,74-76 Rowe St #2,Boston,MA,2131,569900,3,1,1802,1802,1890,213,http://www.redfin.com/MA/Boston/74-Rowe-St-02131/unit-2/home/39913332,42.2819944,-71.1202264
318,Condo/Co-op,156 Porter St #339,Boston,MA,2128,629000,1,1.5,1039,0,1912,268,http://www.redfin.com/MA/Boston/156-Porter-St-02128/unit-339/home/11740520,42.3713905,-71.0324272
319,Condo/Co-op,10 Charlesgate E #3,Boston,MA,2215,650000,1,1,709,709,1889,397,http://www.redfin.com/MA/Boston/10-Charlesgate-E-02215/unit-3/home/9240021,42.3498885,-71.0912422
320,Condo/Co-op,15 Oakland St #3,Boston,MA,2135,545000,2,1,1206,0,1920,200,http://www.redfin.com/MA/Boston/15-Oakland-St-02135/unit-3/home/18983215,42.3498324,-71.1576149
321,Single Family Residential,7 Summer St,Boston,MA,2129,1649000,4,3,2125,926,1880,0,http://www.redfin.com/MA/Charlestown/7-Summer-St-02129/home/9061478,42.3775529,-71.0640185
322,Single Family Residential,91 Baxter St,Boston,MA,2127,950000,3,2.5,1486,1080,1920,0,http://www.redfin.com/MA/Boston/91-Baxter-St-02127/home/9189479,42.3350166,-71.0532433
323,Condo/Co-op,121 Tremont #316,Boston,MA,2135,440000,2,1,975,0,1964,531,http://www.redfin.com/MA/Boston/121-Tremont-St-02135/unit-316/home/9040881,42.3518915,-71.1734404
324,Single Family Residential,375 Baker St,Boston,MA,2132,699900,3,1.5,1400,4848,1929,0,http://www.redfin.com/MA/West-Roxbury/375-Baker-St-02132/home/9215468,42.2826751,-71.1689765
325,Condo/Co-op,500 Atlantic Ave Unit 17J,Boston,MA,2210,1699000,2,2.5,1484,0,2006,2064,http://www.redfin.com/MA/Boston/500-Atlantic-Ave-02210/unit-17J/home/14370798,42.3538536,-71.0520022
326,Condo/Co-op,1746 Commonwealth Ave #8,Boston,MA,2135,419000,1,1,630,0,1920,382,http://www.redfin.com/MA/Boston/1746-Commonwealth-Ave-02135/unit-8/home/9023028,42.3409947,-71.1493442
327,Condo/Co-op,48 Frankfort St #16,Boston,MA,2128,799000,3,1.5,1502,9999,1900,400,http://www.redfin.com/MA/Boston/48-Frankfort-St-02128/unit-16/home/9107546,42.3702345,-71.0352034
328,Condo/Co-op,950 Dorchester Ave #206,Boston,MA,2125,398868,2,1,912,912,1899,306,http://www.redfin.com/MA/Boston/950-Dorchester-Ave-02125/unit-206/home/12432212,42.318092,-71.0561768
329,Condo/Co-op,945 E Broadway #3,Boston,MA,2127,1750000,3,3.5,2256,0,2016,888,http://www.redfin.com/MA/Boston/945-E-Broadway-02127/unit-3/home/145285871,42.3355038,-71.0261234
330,Condo/Co-op,778 Boylston Unit 8G,Boston,MA,2116,1790000,1,1.5,1035,0,2008,2589,http://www.redfin.com/MA/Boston/778-Boylston-St-02199/unit-8G/home/65896380,42.3487003,-71.0821395
331,Condo/Co-op,290 Corey Rd #21,Boston,MA,2135,499000,2,1,685,0,1965,363,http://www.redfin.com/MA/Boston/290-Corey-Rd-02135/unit-21/home/9001135,42.3460812,-71.1364552
332,Multi-Family (2-4 Unit),6 Linwood St,Boston,MA,2119,1500000,8,3,3311,1514,1910,0,http://www.redfin.com/MA/Boston/6-Linwood-St-02119/home/9290606,42.327731,-71.0928239
333,Condo/Co-op,100 Riverway #1,Boston,MA,2215,899000,2,2.5,1240,0,1890,512,http://www.redfin.com/MA/Boston/100-Riverway-02215/unit-1/home/11836941,42.3428018,-71.1037211
334,Condo/Co-op,5 Appleton St Unit 3E,Boston,MA,2116,699000,1,1,710,0,1900,245,http://www.redfin.com/MA/Boston/5-Appleton-St-02116/unit-3E/home/9235262,42.3466867,-71.0698758
335,Condo/Co-op,281 Belgrade Ave #3,Boston,MA,2131,565000,3,1.5,1422,0,1900,221,http://www.redfin.com/MA/Roslindale/281-Belgrade-Ave-02131/unit-3/home/172608883,42.2862793,-71.1429717
336,Single Family Residential,115 Gordon Ave,Boston,MA,2136,674900,4,3,1952,10485,1950,0,http://www.redfin.com/MA/Boston/115-Gordon-Ave-02136/home/9135449,42.2589837,-71.1300673
337,Multi-Family (2-4 Unit),35 Melbourne St,Boston,MA,2124,1575000,8,6,3874,2442,1960,0,http://www.redfin.com/MA/Boston/35-Melbourne-St-02124/home/9075519,42.2899024,-71.065716
338,Condo/Co-op,2451 Washington St #403,Boston,MA,2119,494000,2,2,1067,0,2019,488,http://www.redfin.com/MA/Boston/2451-Washington-St-02119/unit-403/home/172608345,42.328578,-71.086495
339,Condo/Co-op,21 Lamartine #1,Boston,MA,2130,559000,1,1,944,0,2015,225,http://www.redfin.com/MA/Boston/21-Lamartine-St-02130/unit-1/home/70546451,42.322276,-71.1010346
340,Condo/Co-op,104 BROOKLEY #1,Boston,MA,2130,599000,2,1,1050,0,2020,150,http://www.redfin.com/MA/Jamaica-Plain/104-Brookley-Rd-02130/unit-1/home/172607793,42.3026976,-71.1051218
341,Condo/Co-op,101 Heath St #301,Boston,MA,2120,760000,3,2,1466,0,2020,293,http://www.redfin.com/MA/Boston/101-Heath-St-02120/unit-301/home/170596868,42.3263576,-71.102345
342,Condo/Co-op,57 L St #13,Boston,MA,2127,1249000,3,2,1310,0,2018,310,http://www.redfin.com/MA/Boston/57-L-St-02127/unit-13/home/146450993,42.3361222,-71.0356854
343,Condo/Co-op,149 Centre St #1,Boston,MA,2119,419000,2,1,845,0,1920,323,http://www.redfin.com/MA/Boston/149-Centre-St-02119/unit-1/home/11837539,42.3260993,-71.0967332
344,Condo/Co-op,280 E Eagle St #1,Boston,MA,2128,559900,2,2,1011,0,1900,200,http://www.redfin.com/MA/Boston/280-E-Eagle-St-02128/unit-1/home/172607452,42.381488,-71.0303688
345,Condo/Co-op,150 Dorchester #512,Boston,MA,2127,1350000,2,2,1422,0,2016,607,http://www.redfin.com/MA/Boston/150-Dorchester-Ave-02127/unit-512/home/104293543,42.3418223,-71.0569152
346,Condo/Co-op,20 W Fifth Unit 4-K,Boston,MA,2127,930000,2,2,1051,0,2021,564,http://www.redfin.com/MA/Boston/20-W-Fifth-St-02127/unit-4-K/home/172607403,42.3401945,-71.0561375
347,Condo/Co-op,20 W Fifth Ph -6G,Boston,MA,2127,1199000,2,2,1102,0,2021,693,http://www.redfin.com/MA/Boston/20-W-Fifth-St-02127/unit-6G/home/172607400,42.3401945,-71.0561375
348,Single Family Residential,102 Davison St,Boston,MA,2136,599900,4,2,2322,6000,1950,0,http://www.redfin.com/MA/Hyde-Park/102-Davison-St-02136/home/9126811,42.2589189,-71.1167911
349,Multi-Family (5+ Unit),50 Bradshaw St,Boston,MA,2121,1150000,9,5,5930,6480,1920,0,http://www.redfin.com/MA/Boston/50-Bradshaw-St-02121/home/9087062,42.2983003,-71.0836915
350,Vacant Land,190xx SW 312,Miami,FL,33030,590000,0,0,0,87991,unknown,0,http://www.redfin.com/FL/Miami/190xx-SW-312-Unknown/home/169582690,25.7616798,-80.1917902
351,Mobile/Manufactured Home,35250 SW 177th Ct,Homestead,FL,33034,130000,3,2,1690,5770,1995,132,http://www.redfin.com/FL/Miami/35250-SW-177-CT-Unknown/home/171205249,25.7616798,-80.1917902
352,Vacant Land,"1110 Brickell Av, #810 A/b/c",Miami,FL,33131,440000,0,0,0,0,unknown,0,http://www.redfin.com/FL/Miami/1110-Brickell-Ave-33131/home/170267546,25.7627253,-80.1922577
353,Single Family Residential,1200 Brickell Bay Dr,Miami,FL,33131,438500,3,2,1232,0,2005,850,http://www.redfin.com/FL/Miami/1200-Brickell-Bay-Dr-33131/unit-2308/home/42702966,25.7618036,-80.1905887
354,Condo/Co-op,1200 Brickell Bay Dr #2417,Miami,FL,33131,285000,1,1,836,0,2004,585,http://www.redfin.com/FL/Miami/1200-Brickell-Bay-Dr-33131/unit-2417/home/43318944,25.7618036,-80.1905887
355,Condo/Co-op,1200 Brickell Bay Dr #3919,Miami,FL,33131,280000,1,1,825,0,2005,585,http://www.redfin.com/FL/Miami/1200-Brickell-Bay-Dr-33131/unit-3919/home/43304447,25.7618036,-80.1905887
356,Condo/Co-op,1200 Brickell Bay Dr #1704,Miami,FL,33131,289000,1,1,825,0,2004,584,http://www.redfin.com/FL/Miami/1200-Brickell-Bay-Dr-33131/unit-1704/home/43317782,25.7618036,-80.1905887
357,Condo/Co-op,1200 Brickell Bay Dr #3609,Miami,FL,33131,425000,2,2,1183,0,2005,0,http://www.redfin.com/FL/Miami/1200-Brickell-Bay-Dr-33131/unit-3609/home/43304335,25.7618036,-80.1905887
358,Condo/Co-op,1200 Brickell Bay Dr #3709,Miami,FL,33131,460000,2,2,1183,0,2005,838,http://www.redfin.com/FL/Miami/1200-Brickell-Bay-Dr-33131/unit-3709/home/43320831,25.7618036,-80.1905887
359,Condo/Co-op,1200 Brickell Bay Dr #2007,Miami,FL,33131,450000,1,1,778,0,2004,585,http://www.redfin.com/FL/Miami/1200-Brickell-Bay-Dr-33131/unit-2007/home/43311304,25.7618036,-80.1905887
360,Condo/Co-op,1200 Brickell Bay Dr #3515,Miami,FL,33131,450000,2,2,0,0,2005,729,http://www.redfin.com/FL/Miami/1200-Brickell-Bay-Dr-33131/unit-3515/home/43321422,25.7618036,-80.1905887
361,Condo/Co-op,1200 Brickell Bay Dr #1608,Miami,FL,33131,275000,1,1,825,0,2004,584,http://www.redfin.com/FL/Miami/1200-Brickell-Bay-Dr-33131/unit-1608/home/43317818,25.7618036,-80.1905887
362,Condo/Co-op,1200 Brickell Bay Dr #4208,Miami,FL,33131,350000,1,1,825,0,2005,584,http://www.redfin.com/FL/Miami/1200-Brickell-Bay-Dr-33131/unit-4208/home/43306287,25.7618036,-80.1905887
363,Condo/Co-op,1200 Brickell Bay Dr #4217,Miami,FL,33131,350000,1,1,836,0,2005,592,http://www.redfin.com/FL/Miami/1200-Brickell-Bay-Dr-33131/unit-4217/home/43303907,25.7618036,-80.1905887
364,Condo/Co-op,1200 Brickell Bay Dr #2117,Miami,FL,33131,270000,1,1,836,0,2004,592,http://www.redfin.com/FL/Miami/1200-Brickell-Bay-Dr-33131/unit-2117/home/43313409,25.7618036,-80.1905887
365,Condo/Co-op,1200 Brickell Bay #2819,Miami,FL,33131,279000,1,1,825,0,2005,490,http://www.redfin.com/FL/Miami/1200-Brickell-Bay-Dr-33131/unit-2819/home/43318464,25.7618036,-80.1905887
366,Condo/Co-op,1200 Brickell Bay Dr #3105,Miami,FL,33131,265000,1,1,740,0,2005,524,http://www.redfin.com/FL/Miami/1200-Brickell-Bay-Dr-33131/unit-3105/home/43310789,25.7618036,-80.1905887
367,Condo/Co-op,1200 Brickell Bay Dr #2224,Miami,FL,33131,485000,3,2,1232,0,2004,900,http://www.redfin.com/FL/Miami/1200-Brickell-Bay-Dr-33131/unit-2224/home/43302998,25.7618036,-80.1905887
368,Condo/Co-op,1200 Brickell Bay Dr #1520,Miami,FL,33131,295000,1,1,825,0,2004,0,http://www.redfin.com/FL/Miami/1200-Brickell-Bay-Dr-33131/unit-1520/home/43304435,25.7618036,-80.1905887
369,Condo/Co-op,1200 Brickell Bay Dr #1404,Miami,FL,33131,325000,1,1,825,0,2005,585,http://www.redfin.com/FL/Miami/1200-Brickell-Bay-Dr-33131/unit-1404/home/43311249,25.7618036,-80.1905887
370,Condo/Co-op,1200 Brickell Bay Dr #2410,Miami,FL,33131,220000,0,1,425,0,2004,301,http://www.redfin.com/FL/Miami/1200-Brickell-Bay-Dr-33131/unit-2410/home/43433926,25.7618036,-80.1905887
371,Condo/Co-op,1200 Brickell Bay Dr #2204,Miami,FL,33131,289000,1,1,825,0,2004,585,http://www.redfin.com/FL/Miami/1200-Brickell-Bay-Dr-33131/unit-2204/home/43320261,25.7618036,-80.1905887
372,Condo/Co-op,1200 Brickell Bay Dr #4119,Miami,FL,33131,289000,1,1,825,0,2005,570,http://www.redfin.com/FL/Miami/1200-Brickell-Bay-Dr-33131/unit-4119/home/43319476,25.7618036,-80.1905887
373,Condo/Co-op,1200 Brickell Bay Dr #2012,Miami,FL,33131,299000,1,1,818,0,2004,0,http://www.redfin.com/FL/Miami/1200-Brickell-Bay-Dr-33131/unit-2012/home/43318332,25.7618036,-80.1905887
374,Condo/Co-op,1200 Brickell Bay Dr #3412,Miami,FL,33131,278000,1,1,818,0,2005,579,http://www.redfin.com/FL/Miami/1200-Brickell-Bay-Dr-33131/unit-3412/home/43312850,25.7618036,-80.1905887
375,Condo/Co-op,1200 Brickell Bay Dr #4010,Miami,FL,33131,220000,0,1,425,0,2005,301,http://www.redfin.com/FL/Miami/1200-Brickell-Bay-Dr-33131/unit-4010/home/43318886,25.7618036,-80.1905887
376,Condo/Co-op,186 SE 12th Ter Ph 2,Miami,FL,33131,389000,2,2,1015,0,2006,963,http://www.redfin.com/FL/Miami/186-SE-12th-Ter-33131/unit-2/home/112892306,25.7613322,-80.1906014
377,Condo/Co-op,1395 Brickell Ave #3101,Miami,FL,33131,555000,2,2,1286,0,2003,0,http://www.redfin.com/FL/Miami/1395-Brickell-Ave-33131/unit-3101/home/43318385,25.7603404,-80.1920171
378,Condo/Co-op,1395 Brickell Ave #3007,Miami,FL,33131,425000,1,1.5,966,0,2003,841,http://www.redfin.com/FL/Miami/1395-Brickell-Ave-33131/unit-3007/home/43317634,25.7603404,-80.1920171
379,Single Family Residential,1395 SE Brickell Ave #2908,Miami,FL,33131,599900,2,2,1256,0,2003,916,http://www.redfin.com/FL/Miami/1395-Brickell-Ave-33131/unit-2908/home/43312589,25.7603404,-80.1920171
380,Condo/Co-op,1395 Brickell Ave #2904,Miami,FL,33131,285000,0,1,481,0,2003,349,http://www.redfin.com/FL/Miami/1395-Brickell-Ave-33131/unit-2904/home/43319416,25.7603404,-80.1920171
381,Condo/Co-op,1395 Brickell Ave #2806,Miami,FL,33131,639000,2,2,1363,0,2004,995,http://www.redfin.com/FL/Miami/1395-Brickell-Ave-33131/unit-2806/home/43441899,25.7603404,-80.1920171
382,Condo/Co-op,1395 Brickell Ave #2604,Miami,FL,33131,360000,1,1,829,0,2003,628,http://www.redfin.com/FL/Miami/1395-Brickell-Ave-33131/unit-2604/home/43302885,25.7603404,-80.1920171
383,Condo/Co-op,1395 Brickell Ave #2805,Miami,FL,33131,384555,1,1,827,0,2003,604,http://www.redfin.com/FL/Miami/1395-Brickell-Ave-33131/unit-2805/home/43320914,25.7603404,-80.1920171
384,Condo/Co-op,1395 Brickell Ave #3306,Miami,FL,33131,695000,2,2,1239,0,2003,998,http://www.redfin.com/FL/Miami/1395-Brickell-Ave-33131/unit-3306/home/43310890,25.7603404,-80.1920171
385,Condo/Co-op,1080 Brickell Ave #1801,Miami,FL,33131,590000,2,2,1134,0,2016,1100,http://www.redfin.com/FL/Miami/1080-Brickell-Ave-33131/unit-1801/home/56743329,25.7628401,-80.1926595
386,Condo/Co-op,1080 Brickell Ave #2104,Miami,FL,33131,459000,1,1,828,0,2016,736,http://www.redfin.com/FL/Miami/1080-Brickell-Ave-33131/unit-2104/home/56743352,25.7628401,-80.1926595
387,Condo/Co-op,1080 Brickell Ave #1906,Miami,FL,33131,389900,1,1.5,906,0,2016,0,http://www.redfin.com/FL/Miami/1080-Brickell-Ave-33131/unit-1906/home/56743171,25.7628401,-80.1926595
388,Condo/Co-op,1080 Brickell Ave #1601,Miami,FL,33131,615000,2,2,1134,0,2016,1006,http://www.redfin.com/FL/Miami/1080-Brickell-Ave-33131/unit-1601/home/56743327,25.7628401,-80.1926595
389,Condo/Co-op,1080 Brickell Ave #313,Miami,FL,33131,470000,1,1.5,1078,0,2016,0,http://www.redfin.com/FL/Miami/1080-Brickell-Ave-33131/unit-313/home/56743087,25.7628401,-80.1926595
390,Condo/Co-op,1080 Brickell Ave #911,Miami,FL,33131,400000,1,1.5,727,0,2016,872,http://www.redfin.com/FL/Miami/1080-Brickell-Ave-33131/unit-911/home/56743036,25.7628401,-80.1926595
391,Condo/Co-op,1080 Brickell Ave #1503,Miami,FL,33131,425000,1,1,0,0,2016,630,http://www.redfin.com/FL/Miami/1080-Brickell-Ave-33131/unit-1503/home/56743398,25.7628401,-80.1926595
392,Condo/Co-op,1080 Brickell Ave #4204,Miami,FL,33131,497000,1,1.5,830,0,2016,0,http://www.redfin.com/FL/Miami/1080-Brickell-Ave-33131/unit-4204/home/56743196,25.7628401,-80.1926595
393,Condo/Co-op,1080 Brickell Ave #3405,Miami,FL,33131,310000,0,1,528,0,2016,427,http://www.redfin.com/FL/Miami/1080-Brickell-Ave-33131/unit-3405/home/56743215,25.7628401,-80.1926595
394,Condo/Co-op,1080 Brickell Ave #1800,Miami,FL,33131,600000,2,2,1129,0,2016,1238,http://www.redfin.com/FL/Miami/1080-Brickell-Ave-33131/unit-1800/home/168027363,25.7628401,-80.1926595
395,Condo/Co-op,1080 Brickell #1603,Miami,FL,33131,435000,1,1,796,0,2016,604,http://www.redfin.com/FL/Miami/1080-Brickell-Ave-33131/unit-1603/home/56743383,25.7628401,-80.1926595
396,Condo/Co-op,1080 Brickell Ave #3707,Miami,FL,33131,399000,1,1,783,0,2016,605,http://www.redfin.com/FL/Miami/1080-Brickell-Ave-33131/unit-3707/home/56743225,25.7628401,-80.1926595
397,Condo/Co-op,1080 Brickell Ave #3309,Miami,FL,33131,595000,2,2,1134,0,2016,1200,http://www.redfin.com/FL/Miami/1080-Brickell-Ave-33131/unit-3309/home/56743042,25.7628401,-80.1926595
398,Condo/Co-op,1080 Brickell Ave #4002,Miami,FL,33130,489500,1,1.5,830,0,2016,645,http://www.redfin.com/FL/Miami/1080-Brickell-Ave-33131/unit-4002/home/56743307,25.7628401,-80.1926595
399,Condo/Co-op,1080 Brickell Ave #2005,Miami,FL,33131,298000,0,1,558,0,2016,150,http://www.redfin.com/FL/Miami/1080-Brickell-Ave-33131/unit-2005/home/56743202,25.7628401,-80.1926595
400,Condo/Co-op,1080 Brickell Ave #2803,Miami,FL,33131,445000,1,1,748,0,2016,630,http://www.redfin.com/FL/Miami/1080-Brickell-Ave-33131/unit-2803/home/56743412,25.7628401,-80.1926595
401,Condo/Co-op,1080 Brickell Ave #505,Miami,FL,33131,495000,1,1.5,1028,0,2016,1000,http://www.redfin.com/FL/Miami/1080-Brickell-Ave-33131/unit-505/home/56743192,25.7628401,-80.1926595
402,Condo/Co-op,1080 Brickell Ave #709,Miami,FL,33131,454900,1,1.5,967,0,2016,631,http://www.redfin.com/FL/Miami/1080-Brickell-Ave-33131/unit-709/home/56743247,25.7628401,-80.1926595
403,Condo/Co-op,1080 Brickell Ave #1103,Miami,FL,33131,379500,1,1.5,727,0,2016,797,http://www.redfin.com/FL/Miami/1080-Brickell-Ave-33131/unit-1103/home/56743396,25.7628401,-80.1926595
404,Condo/Co-op,1080 Brickell Ave #1605,Miami,FL,33131,298000,0,1,507,0,2016,556,http://www.redfin.com/FL/Miami/1080-Brickell-Ave-33131/unit-1605/home/56743206,25.7628401,-80.1926595
405,Condo/Co-op,1080 Brickell Ave #307,Miami,FL,33131,399000,1,1.5,950,0,2016,0,http://www.redfin.com/FL/Miami/1080-Brickell-Ave-33131/unit-307/home/56743259,25.7628401,-80.1926595
406,Condo/Co-op,1080 Brickell Ave #3607,Miami,FL,33131,387000,1,1,748,0,2016,0,http://www.redfin.com/FL/Miami/1080-Brickell-Ave-33131/unit-3607/home/56743226,25.7628401,-80.1926595
407,Condo/Co-op,1080 Brickell Ave #2706,Miami,FL,33131,460000,1,1.5,906,0,2016,994,http://www.redfin.com/FL/Miami/1080-Brickell-Ave-33131/unit-2706/home/56743180,25.7628401,-80.1926595
408,Condo/Co-op,1080 Brickell Ave #2307,Miami,FL,33131,2450,1,1,748,0,2016,0,http://www.redfin.com/FL/Miami/1080-Brickell-Ave-33131/unit-2307/home/56743274,25.7628401,-80.1926595
409,Condo/Co-op,1080 Brickell Ave #703,Miami,FL,33131,395000,1,1.5,727,0,2016,797,http://www.redfin.com/FL/Miami/1080-Brickell-Ave-33131/unit-703/home/56743394,25.7628401,-80.1926595
410,Condo/Co-op,1080 Brickell Ave #3006,Miami,FL,33131,1150000,3,3,1593,0,2016,1747,http://www.redfin.com/FL/Miami/1080-Brickell-Ave-33131/unit-3006/home/56743175,25.7628401,-80.1926595
411,Condo/Co-op,1080 Brickell Ave #1600,Miami,FL,33131,575000,2,2,1129,0,2016,0,http://www.redfin.com/FL/Miami/1080-Brickell-Ave-33131/unit-1600/home/56742773,25.7628401,-80.1926595
412,Condo/Co-op,1080 Brickell Ave #3801,Miami,FL,33131,699000,2,2,1134,0,2016,1006,http://www.redfin.com/FL/Miami/1080-Brickell-Ave-33131/unit-3801/home/56743342,25.7628401,-80.1926595
413,Condo/Co-op,1080 Brickell Ave #701,Miami,FL,33131,459000,1,1.5,1080,0,2016,950,http://www.redfin.com/FL/Miami/1080-Brickell-Ave-33131/unit-701/home/56743430,25.7628401,-80.1926595
414,Condo/Co-op,1080 Brickell Ave #1901,Miami,FL,33131,595000,2,2,1134,0,2016,1006,http://www.redfin.com/FL/Miami/1080-Brickell-Ave-33131/unit-1901/home/56743330,25.7628401,-80.1926595
415,Condo/Co-op,1080 Brickell Ave #1700,Miami,FL,33131,615000,2,2,1129,0,2016,999,http://www.redfin.com/FL/Miami/1080-Brickell-Ave-33131/unit-1700/home/56742746,25.7628401,-80.1926595
416,Condo/Co-op,1080 Brickell Ave #2202,Miami,FL,33131,485000,1,1,783,0,2016,0,http://www.redfin.com/FL/Miami/1080-Brickell-Ave-33131/unit-2202/home/56743294,25.7628401,-80.1926595
417,Condo/Co-op,1080 Brickell Ave #1504,Miami,FL,33131,349000,1,1,770,0,2016,0,http://www.redfin.com/FL/Miami/1080-Brickell-Ave-33131/unit-1504/home/56743366,25.7628401,-80.1926595
418,Condo/Co-op,1080 Brickell Ave #711,Miami,FL,33131,399900,1,1.5,727,0,2016,760,http://www.redfin.com/FL/Miami/1080-Brickell-Ave-33131/unit-711/home/56743037,25.7628401,-80.1926595
419,Condo/Co-op,1080 Brickell Ave #1804,Miami,FL,33131,344000,1,1,770,0,2016,0,http://www.redfin.com/FL/Miami/1080-Brickell-Ave-33131/unit-1804/home/56743353,25.7628401,-80.1926595
420,Condo/Co-op,186 SE 12th Ter #1805,Miami,FL,33131,365000,2,2,1145,0,2006,856,http://www.redfin.com/FL/Miami/186-SE-12th-Ter-33131/unit-1805/home/43354094,25.76126,-80.1904019
421,Condo/Co-op,186 SE 12th Ter #704,Miami,FL,33131,359900,2,2,1145,0,2006,8,http://www.redfin.com/FL/Miami/186-SE-12th-Ter-33131/unit-704/home/43351230,25.76126,-80.1904019
422,Condo/Co-op,186 SE 12th Ter #1005,Miami,FL,33131,339000,2,2,1145,0,2006,0,http://www.redfin.com/FL/Miami/186-SE-12th-Ter-33131/unit-1005/home/43369106,25.76126,-80.1904019
423,Condo/Co-op,186 SE 12th Ter #2102,Miami,FL,33131,345000,2,2,1064,0,2006,805,http://www.redfin.com/FL/Miami/186-SE-12th-Ter-33131/unit-2102/home/43361619,25.76126,-80.1904019
424,Condo/Co-op,1200 Brickell Bay Dr #2818,Miami,FL,33131,284900,1,1,825,0,2005,0,http://www.redfin.com/FL/Miami/1200-Brickell-Bay-Dr-33131/unit-2818/home/43313424,25.7617019,-80.190318
425,Condo/Co-op,1200 Brickell Bay Dr #3603,Miami,FL,33131,290000,1,1,825,0,2005,562,http://www.redfin.com/FL/Miami/1200-Brickell-Bay-Dr-33131/unit-3603/home/43320159,25.7617019,-80.190318
426,Condo/Co-op,1200 Brickell Bay Dr #2116,Miami,FL,33131,217500,0,1,425,0,2004,301,http://www.redfin.com/FL/Miami/1200-Brickell-Bay-Dr-33131/unit-2116/home/43319418,25.7617019,-80.190318
427,Condo/Co-op,1200 Brickell Bay Dr #2601,Miami,FL,33131,420000,2,2,1105,0,2004,783,http://www.redfin.com/FL/Miami/1200-Brickell-Bay-Dr-33131/unit-2601/home/43313647,25.7617019,-80.190318
428,Condo/Co-op,1200 Brickell Bay Dr #1620,Miami,FL,33131,282000,1,1,825,0,2004,585,http://www.redfin.com/FL/Miami/1200-Brickell-Bay-Dr-33131/unit-1620/home/43312932,25.7617019,-80.190318
429,Condo/Co-op,1200 Brickell Bay Dr #4012,Miami,FL,33131,285000,1,1,818,0,2005,579,http://www.redfin.com/FL/Miami/1200-Brickell-Bay-Dr-33131/unit-4012/home/43440434,25.7617019,-80.190318
430,Condo/Co-op,1200 Brickell Bay Dr #2815,Miami,FL,33131,379000,2,2,1030,0,2005,729,http://www.redfin.com/FL/Miami/1200-Brickell-Bay-Dr-33131/unit-2815/home/43434962,25.7617019,-80.190318
431,Condo/Co-op,1200 Brickell Bay Dr #2114,Miami,FL,33131,275000,1,1,818,0,2004,0,http://www.redfin.com/FL/Miami/1200-Brickell-Bay-Dr-33131/unit-2114/home/43320382,25.7617019,-80.190318
432,Condo/Co-op,1200 Brickell Bay Dr #1821,Miami,FL,33131,289000,1,1,825,0,2004,584,http://www.redfin.com/FL/Miami/1200-Brickell-Bay-Dr-33131/unit-1821/home/43304453,25.7617019,-80.190318
433,Condo/Co-op,1080 Brickell #2702,Miami,FL,33131,480000,1,1.5,905,0,2016,679,http://www.redfin.com/FL/Miami/1080-Brickell-Ave-33131/unit-2702/home/56743287,25.7629963,-80.1927535
434,Condo/Co-op,1080 Brickell Ave #4104,Miami,FL,33131,496900,1,1.5,0,0,2016,930,http://www.redfin.com/FL/Miami/1080-Brickell-Ave-33131/unit-4104/home/56743371,25.7629963,-80.1927535
435,Condo/Co-op,1060 Brickell Ave #3111,Miami,FL,33131,389000,2,2,1088,0,2008,744,http://www.redfin.com/FL/Miami/1060-Brickell-Ave-33131/unit-3111/home/42676195,25.7632794,-80.1921952
436,Condo/Co-op,1060 Brickell Ave #4503,Miami,FL,33131,1350000,3,3.5,2525,0,2008,1663,http://www.redfin.com/FL/Miami/1060-Brickell-Ave-33131/unit-4503/home/43405484,25.7632794,-80.1921952
437,Condo/Co-op,1050 Brickell Ave #2818,Miami,FL,33131,320000,1,1.5,1128,0,2008,827,http://www.redfin.com/FL/Miami/1050-Brickell-Ave-33131/unit-2818/home/43414296,25.7632794,-80.1921952
438,Condo/Co-op,1050 W Brickell Ave #208,Miami,FL,33131,311000,1,1.5,1066,0,2008,0,http://www.redfin.com/FL/Miami/1050-Brickell-Ave-33131/unit-208/home/43396644,25.7632794,-80.1921952
439,Condo/Co-op,1060 Brickell Ave #415,Miami,FL,33131,395000,1,1.5,1053,0,2008,700,http://www.redfin.com/FL/Miami/1060-Brickell-Ave-33131/unit-415/home/43415994,25.7632794,-80.1921952
440,Condo/Co-op,1060 Brickell Ave #211,Miami,FL,33131,300000,1,2,1147,0,2008,717,http://www.redfin.com/FL/Miami/1060-Brickell-Ave-33131/unit-211/home/43398182,25.7632794,-80.1921952
441,Condo/Co-op,1050 Brickell Ave #3504,Miami,FL,33131,1500000,3,3.5,2238,0,2008,900,http://www.redfin.com/FL/Miami/1050-Brickell-Ave-33131/unit-3504/home/43469603,25.7632794,-80.1921952
442,Condo/Co-op,1060 Brickell Ave #413,Miami,FL,33131,570000,2,2,1440,0,2008,950,http://www.redfin.com/FL/Miami/1060-Brickell-Ave-33131/unit-413/home/42676210,25.7632794,-80.1921952
443,Condo/Co-op,1060 Brickell Ave #1805,Miami,FL,33131,360000,1,1.5,963,0,2008,655,http://www.redfin.com/FL/Miami/1060-Brickell-Ave-33131/unit-1805/home/43401489,25.7632794,-80.1921952
444,Condo/Co-op,1050 Brickell Ave #2508,Miami,FL,33131,295000,1,1,731,0,2008,0,http://www.redfin.com/FL/Miami/1050-Brickell-Ave-33131/unit-2508/home/43414137,25.7632794,-80.1921952
445,Condo/Co-op,1060 Brickell Ave #2207,Miami,FL,33131,360000,2,2,1088,0,2008,744,http://www.redfin.com/FL/Miami/1060-Brickell-Ave-33131/unit-2207/home/43405532,25.7632794,-80.1921952
446,Condo/Co-op,1060 Brickell Ave #3007,Miami,FL,33131,395000,2,2,1088,0,2008,744,http://www.redfin.com/FL/Miami/1060-Brickell-Ave-33131/unit-3007/home/43414515,25.7632794,-80.1921952
447,Condo/Co-op,1050 Brickell Ave #2216,Miami,FL,33131,295000,1,1.5,1128,0,2008,0,http://www.redfin.com/FL/Miami/1050-Brickell-Ave-33131/unit-2216/home/42678365,25.7632794,-80.1921952
448,Condo/Co-op,1060 Brickell Ave #4303,Miami,FL,33131,899000,3,2.5,1765,0,2008,1219,http://www.redfin.com/FL/Miami/1060-Brickell-Ave-33131/unit-4303/home/43424503,25.7632794,-80.1921952
449,Condo/Co-op,1060 Brickell Ave #1411,Miami,FL,33131,399000,2,2,0,0,2008,0,http://www.redfin.com/FL/Miami/1060-Brickell-Ave-33131/unit-1411/home/43444666,25.7632794,-80.1921952
450,Condo/Co-op,1060 Brickell Ave #3209,Miami,FL,33131,275000,0,1,551,0,2008,0,http://www.redfin.com/FL/Miami/1060-Brickell-Ave-33131/unit-3209/home/43440994,25.7632794,-80.1921952
451,Condo/Co-op,1060 Brickell Ave #409,Miami,FL,33131,299999,1,1.5,982,0,2008,642,http://www.redfin.com/FL/Miami/1060-Brickell-Ave-33131/unit-409/home/43405522,25.7632794,-80.1921952
452,Condo/Co-op,1060 Brickell Ave #2603,Miami,FL,33131,345000,1,1.5,963,0,2008,640,http://www.redfin.com/FL/Miami/1060-Brickell-Ave-33131/unit-2603/home/43408009,25.7632794,-80.1921952
453,Condo/Co-op,1050 Brickell Ave #1012,Miami,FL,33131,328900,1,2,1000,0,2008,693,http://www.redfin.com/FL/Miami/1050-Brickell-Ave-33131/unit-1012/home/43405143,25.7632794,-80.1921952
454,Condo/Co-op,1060 Brickell Ave #4407,Miami,FL,33131,875000,3,3,1867,0,2008,1223,http://www.redfin.com/FL/Miami/1060-Brickell-Ave-33131/unit-4407/home/43469997,25.7632794,-80.1921952
455,Condo/Co-op,1050 Brickell Ave #1414,Miami,FL,33131,399999,2,2.5,1278,0,2008,828,http://www.redfin.com/FL/Miami/1050-Brickell-Ave-33131/unit-1414/home/43473310,25.7632794,-80.1921952
456,Condo/Co-op,1050 Brickell Ave #1804,Miami,FL,33131,289000,1,1,731,0,2008,496,http://www.redfin.com/FL/Miami/1050-Brickell-Ave-33131/unit-1804/home/43398091,25.7632794,-80.1921952
457,Condo/Co-op,1060 Brickell Ave #403,Miami,FL,33131,620000,2,2,1440,0,2008,947,http://www.redfin.com/FL/Miami/1060-Brickell-Ave-33131/unit-403/home/43398049,25.7632794,-80.1921952
458,Condo/Co-op,1060 Brickell Ave #4507,Miami,FL,33131,1395000,3,3.5,2564,0,2008,1663,http://www.redfin.com/FL/Miami/1060-Brickell-Ave-33131/unit-4507/home/43405513,25.7632794,-80.1921952
459,Condo/Co-op,1050 Brickell #2320,Miami,FL,33131,440000,2,2,0,0,2008,5627,http://www.redfin.com/FL/Miami/1050-Brickell-Ave-33131/unit-2320/home/43405838,25.7632794,-80.1921952
460,Condo/Co-op,1050 Brickell Ave #2510,Miami,FL,33131,315000,1,1,843,0,2008,2517,http://www.redfin.com/FL/Miami/1050-Brickell-Ave-33131/unit-2510/home/43469632,25.7632794,-80.1921952
461,Condo/Co-op,1060 Brickell Ave #1013,Miami,FL,33131,515000,2,2,1440,0,2008,947,http://www.redfin.com/FL/Miami/1060-Brickell-Ave-33131/unit-1013/home/43398207,25.7632795,-80.1921953
462,Condo/Co-op,1060 Brickell Ave #1205,Miami,FL,33131,314900,1,1,963,0,2008,0,http://www.redfin.com/FL/Miami/1060-Brickell-Ave-33131/unit-1205/home/43413960,25.7632795,-80.1921953
463,Condo/Co-op,1060 Brickell Ave #1209,Miami,FL,33131,335000,1,1,1088,0,2008,0,http://www.redfin.com/FL/Miami/1060-Brickell-Ave-33131/unit-1209/home/43405508,25.7632795,-80.1921953
464,Condo/Co-op,1250 S Miami Ave #1009,Miami,FL,33130,289000,1,1.5,783,0,2004,495,http://www.redfin.com/FL/Miami/1250-S-Miami-Ave-33130/unit-1009/home/43336676,25.7620994,-80.1935558
465,Condo/Co-op,1250 S Miami Ave #1008,Miami,FL,33130,280000,1,1.5,838,0,2004,529,http://www.redfin.com/FL/Miami/1250-S-Miami-Ave-33130/unit-1008/home/43474742,25.7620994,-80.1935558
466,Condo/Co-op,1250 S Miami Ave #1106,Miami,FL,33130,354900,2,2,1143,0,2004,0,http://www.redfin.com/FL/Miami/1250-S-Miami-Ave-33130/unit-1106/home/43328805,25.7620994,-80.1935558
467,Condo/Co-op,1250 S Miami Ave #1509,Miami,FL,33130,264900,1,1.5,783,0,2004,496,http://www.redfin.com/FL/Miami/1250-S-Miami-Ave-33130/unit-1509/home/43434839,25.7620994,-80.1935558
468,Condo/Co-op,1250 S Miami Ave #813,Miami,FL,33130,268000,1,1.5,737,0,2004,529,http://www.redfin.com/FL/Miami/1250-S-Miami-Ave-33130/unit-813/home/43345210,25.7620994,-80.1935558
469,Condo/Co-op,1250 S Miami #1013,Miami,FL,33130,250000,1,1,737,0,2004,0,http://www.redfin.com/FL/Miami/1250-S-Miami-Ave-33130/unit-1013/home/43441773,25.7620994,-80.1935558
470,Condo/Co-op,1250 S Miami Ave #2106,Miami,FL,33130,420000,2,2,1143,0,2004,748,http://www.redfin.com/FL/Miami/1250-S-Miami-Ave-33130/unit-2106/home/43336681,25.7620994,-80.1935558
471,Condo/Co-op,1250 S Miami Ave #1307,Miami,FL,33130,259900,1,1.5,0,0,2004,533,http://www.redfin.com/FL/Miami/1250-S-Miami-Ave-33130/unit-1307/home/43470277,25.7620994,-80.1935558
472,Condo/Co-op,1250 S Miami Ave #1201,Miami,FL,33130,400000,2,2,1255,0,2004,0,http://www.redfin.com/FL/Miami/1250-S-Miami-Ave-33130/unit-1201/home/43321251,25.7620994,-80.1935558
473,Condo/Co-op,1250 S Miami Ave #904,Miami,FL,33130,344900,2,2,1023,0,2004,604,http://www.redfin.com/FL/Miami/1250-S-Miami-Ave-33130/unit-904/home/43338170,25.7620994,-80.1935558
474,Condo/Co-op,1703 Unit 1703,Miami,FL,33130,424900,1,1,583,0,2020,0,http://www.redfin.com/FL/Miami/1250-S-Miami-Ave-33130/unit-1703/home/43336310,25.7620994,-80.1935558
475,Condo/Co-op,1250 S Miami Ave #1011,Miami,FL,33130,245000,1,1.5,796,0,2004,510,http://www.redfin.com/FL/Miami/1250-S-Miami-Ave-33130/unit-1011/home/43330196,25.7620994,-80.1935558
476,Condo/Co-op,1250 S Miami Ave #2201,Miami,FL,33130,398000,2,2,0,0,2004,0,http://www.redfin.com/FL/Miami/1250-S-Miami-Ave-33130/unit-2201/home/43341363,25.7620994,-80.1935558
477,Condo/Co-op,1250 S Miami #1515,Miami,FL,33130,327900,2,2,0,0,2004,780,http://www.redfin.com/FL/Miami/1250-S-Miami-Ave-33130/unit-1515/home/43336887,25.7620994,-80.1935558
478,Condo/Co-op,1250 S Miami Ave #1513,Miami,FL,33130,274000,1,1.5,737,0,2004,589,http://www.redfin.com/FL/Miami/1250-S-Miami-Ave-33130/unit-1513/home/43329312,25.7620994,-80.1935558
479,Condo/Co-op,1250 S Miami Ave #2112,Miami,FL,33130,279000,1,1.5,0,0,2004,570,http://www.redfin.com/FL/Miami/1250-S-Miami-Ave-33130/unit-2112/home/43329791,25.7620994,-80.1935558
480,Condo/Co-op,1250 S Miami Ave #2102,Miami,FL,33130,427000,2,2,1322,0,2004,748,http://www.redfin.com/FL/Miami/1250-S-Miami-Ave-33130/unit-2102/home/43345714,25.7620994,-80.1935558
481,Condo/Co-op,1250 S Miami Ave #1502,Miami,FL,33130,415000,2,2,1322,0,2004,866,http://www.redfin.com/FL/Miami/1250-S-Miami-Ave-33130/unit-1502/home/43336322,25.7620994,-80.1935558
482,Condo/Co-op,1250 S Miami Ave #1714,Miami,FL,33130,395000,2,2,1149,0,2004,726,http://www.redfin.com/FL/Miami/1250-S-Miami-Ave-33130/unit-1714/home/43334786,25.7620994,-80.1935558
483,Condo/Co-op,1250 S Miami Ave #1102,Miami,FL,33130,418000,2,2,0,0,2004,748,http://www.redfin.com/FL/Miami/1250-S-Miami-Ave-33130/unit-1102/home/43329329,25.7620994,-80.1935558
484,Condo/Co-op,1250 S Miami Ave #1604,Miami,FL,33130,339000,2,2,1023,0,2004,0,http://www.redfin.com/FL/Miami/1250-S-Miami-Ave-33130/unit-1604/home/43387859,25.7620994,-80.1935558
485,Condo/Co-op,1250 S Miami Ave #908,Miami,FL,33130,250000,1,1.5,0,0,2004,529,http://www.redfin.com/FL/Miami/1250-S-Miami-Ave-33130/unit-908/home/43329306,25.7620994,-80.1935558
486,Condo/Co-op,1250 S Miami Ave #2211,Miami,FL,33130,275000,1,1.5,796,0,2004,495,http://www.redfin.com/FL/Miami/1250-S-Miami-Ave-33130/unit-2211/home/43345146,25.7620994,-80.1935558
487,Condo/Co-op,Panoramic Unit 5,Miami,FL,33131,2137900,2,3.5,1774,0,2020,0,http://www.redfin.com/FL/Miami/1100-Brickell-Bay-Dr-33131/unit-5/home/170883914,25.7631148,-80.1905463
488,Condo/Co-op,Panoramic Unit 1,Miami,FL,33131,5312900,5,5.5,3758,0,2020,0,http://www.redfin.com/FL/Miami/1100-Brickell-Bay-Dr-33131/unit-1/home/170883922,25.7631148,-80.1905463
489,Condo/Co-op,Panoramic Unit 3,Miami,FL,33131,2660900,3,4.5,3075,0,2020,0,http://www.redfin.com/FL/Miami/1100-Brickell-Bay-Dr-33131/unit-3/home/170883919,25.7631148,-80.1905463
490,Condo/Co-op,Panoramic Unit 7,Miami,FL,33131,2312900,3,5.5,2985,0,2020,0,http://www.redfin.com/FL/Miami/1100-Brickell-Bay-Dr-33131/unit-7/home/170883907,25.7631148,-80.1905463
491,Condo/Co-op,Panoramic Unit 4,Miami,FL,33131,3097900,4,5.5,3536,0,2020,0,http://www.redfin.com/FL/Miami/1100-Brickell-Bay-Dr-33131/unit-4/home/170883918,25.7631148,-80.1905463
492,Condo/Co-op,Panoramic Unit 2,Miami,FL,33131,2648900,3,3.5,2422,0,2020,0,http://www.redfin.com/FL/Miami/1100-Brickell-Bay-Dr-33131/unit-2/home/170883920,25.7631148,-80.1905463
493,Condo/Co-op,Panoramic Unit 6,Miami,FL,33131,1478900,1,1.5,1001,0,2020,0,http://www.redfin.com/FL/Miami/1100-Brickell-Bay-Dr-33131/unit-6/home/170883911,25.7631148,-80.1905463
494,Condo/Co-op,Panoramic Unit 9,Miami,FL,33131,1406900,2,2.5,1571,0,2020,0,http://www.redfin.com/FL/Miami/1100-Brickell-Bay-Dr-33131/unit-9/home/170883891,25.7631148,-80.1905463
495,Condo/Co-op,Panoramic Unit 8,Miami,FL,33131,961900,1,1.5,828,0,2020,0,http://www.redfin.com/FL/Miami/1100-Brickell-Bay-Dr-33131/unit-8/home/170883893,25.7631148,-80.1905463
496,Condo/Co-op,1300 Brickell Bay Dr #2503,Miami,FL,33131,618000,2,2,997,0,2014,1007,http://www.redfin.com/FL/Miami/1300-Brickell-Bay-Dr-33131/unit-2503/home/55273269,25.7603908,-80.1903465
497,Condo/Co-op,1300 Brickell Bay Dr #1900,Miami,FL,33131,249000,0,1,420,0,2014,423,http://www.redfin.com/FL/Miami/1300-Brickell-Bay-Dr-33131/unit-1900/home/55273285,25.7603908,-80.1903465
498,Condo/Co-op,1300 Brickell Bay Dr #3105,Miami,FL,33131,625000,2,2,1076,0,2014,1028,http://www.redfin.com/FL/Miami/1300-Brickell-Bay-Dr-33131/unit-3105/home/55273038,25.7603908,-80.1903465
499,Condo/Co-op,1300 Brickell Bay Dr #2807,Miami,FL,33131,389000,1,1,696,0,2014,705,http://www.redfin.com/FL/Miami/1300-Brickell-Bay-Dr-33131/unit-2807/home/55272924,25.7603908,-80.1903465
500,Condo/Co-op,1300 Brickell Bay Dr #4401,Miami,FL,33131,5999000,6,7.5,6521,0,2014,6972,http://www.redfin.com/FL/Miami/1300-Brickell-Bay-Dr-33131/unit-4401/home/55272967,25.7603908,-80.1903465
501,Condo/Co-op,1300 Brickell Bay Dr #2901,Miami,FL,33131,454500,2,2.5,969,0,2014,941,http://www.redfin.com/FL/Miami/1300-Brickell-Bay-Dr-33131/unit-2901/home/55273010,25.7603908,-80.1903465
502,Condo/Co-op,1300 Brickell Bay Dr #1613,Miami,FL,33131,225000,0,1,355,0,2014,0,http://www.redfin.com/FL/Miami/1300-Brickell-Bay-Dr-33131/unit-1613/home/55272839,25.7603908,-80.1903465
503,Condo/Co-op,1300 Brickell Bay Dr #3705,Miami,FL,33131,590000,2,2.5,1153,0,2014,1100,http://www.redfin.com/FL/Miami/1300-Brickell-Bay-Dr-33131/unit-3705/home/55272951,25.7603908,-80.1903465
504,Condo/Co-op,1300 Brickell Bay Dr #2511,Miami,FL,33131,359900,1,1.5,653,0,2014,635,http://www.redfin.com/FL/Miami/1300-Brickell-Bay-Dr-33131/unit-2511/home/55272855,25.7603908,-80.1903465
505,Condo/Co-op,1300 Brickell Bay Dr #2803,Miami,FL,33131,815000,2,2,1139,0,2014,1007,http://www.redfin.com/FL/Miami/1300-Brickell-Bay-Dr-33131/unit-2803/home/55273270,25.7603908,-80.1903465
506,Condo/Co-op,1300 Brickell Bay Dr #3005,Miami,FL,33131,620000,2,2,1076,0,2014,1028,http://www.redfin.com/FL/Miami/1300-Brickell-Bay-Dr-33131/unit-3005/home/55273041,25.7603908,-80.1903465
507,Condo/Co-op,1300 Brickell Bay Dr #3400,Miami,FL,33131,450000,1,1.5,965,0,2014,855,http://www.redfin.com/FL/Miami/1300-Brickell-Bay-Dr-33131/unit-3400/home/55273015,25.7603908,-80.1903465
508,Condo/Co-op,1300 Brickell Bay Dr #2509,Miami,FL,33131,559000,2,2,997,0,2014,1000,http://www.redfin.com/FL/Miami/1300-Brickell-Bay-Dr-33131/unit-2509/home/55272827,25.7603908,-80.1903465
509,Condo/Co-op,1300 Brickell Bay Dr #910,Miami,FL,33131,325000,1,1.5,644,0,2014,708,http://www.redfin.com/FL/Miami/1300-Brickell-Bay-Dr-33131/unit-910/home/55273203,25.7603908,-80.1903465
510,Condo/Co-op,1300 Brickell Bay Dr #3503,Miami,FL,33131,580000,2,2,1076,0,2014,1044,http://www.redfin.com/FL/Miami/1300-Brickell-Bay-Dr-33131/unit-3503/home/55272985,25.7603908,-80.1903465
511,Condo/Co-op,1300 Brickell Bay Dr #2408,Miami,FL,33131,330000,1,1.5,701,0,2014,0,http://www.redfin.com/FL/Miami/1300-Brickell-Bay-Dr-33131/unit-2408/home/55272914,25.7603908,-80.1903465
512,Condo/Co-op,1300 Brickell Bay Dr #1811,Miami,FL,33131,335000,1,1.5,653,0,2014,635,http://www.redfin.com/FL/Miami/1300-Brickell-Bay-Dr-33131/unit-1811/home/55272813,25.7603908,-80.1903465
513,Condo/Co-op,1300 Brickell Bay Dr #1711,Miami,FL,33131,345000,1,1.5,653,0,2014,659,http://www.redfin.com/FL/Miami/1300-Brickell-Bay-Dr-33131/unit-1711/home/55272812,25.7603908,-80.1903465
514,Condo/Co-op,1300 Brickell Bay Dr #2304,Miami,FL,33131,360000,1,1.5,701,0,2014,708,http://www.redfin.com/FL/Miami/1300-Brickell-Bay-Dr-33131/unit-2304/home/55272890,25.7603908,-80.1903465
515,Condo/Co-op,1300 S Miami Ave #4301,Miami,FL,33130,790000,2,2,1279,0,2016,0,http://www.redfin.com/FL/Miami/1300-S-Miami-Ave-33130/unit-4301/home/56742532,25.7613319,-80.1937742
516,Condo/Co-op,1300 S Miami Ave #2207,Miami,FL,33130,380000,1,1,570,0,2016,0,http://www.redfin.com/FL/Miami/1300-S-Miami-Ave-33130/unit-2207/home/56742858,25.7613319,-80.1937742
517,Condo/Co-op,1300 S Miami Ave #1206,Miami,FL,33130,630000,3,2.5,1154,0,2016,850,http://www.redfin.com/FL/Miami/1300-S-Miami-Ave-33130/unit-1206/home/56742557,25.7613319,-80.1937742
518,Condo/Co-op,1300 S Miami Ave #3005,Miami,FL,33130,830000,3,2.5,1505,0,2016,634,http://www.redfin.com/FL/Miami/1300-S-Miami-Ave-33130/unit-3005/home/56742583,25.7613319,-80.1937742
519,Condo/Co-op,1300 S Miami Ave #4202,Miami,FL,33130,695000,2,2,1332,0,2016,900,http://www.redfin.com/FL/Miami/1300-S-Miami-Ave-33130/unit-4202/home/56742440,25.7613319,-80.1937742
520,Condo/Co-op,1300 S Miami Ave #2111,Miami,FL,33130,595000,2,2,868,0,2017,805,http://www.redfin.com/FL/Miami/1300-S-Miami-Ave-33130/unit-2111/home/56742721,25.7613319,-80.1937742
521,Condo/Co-op,1300 S Miami Ave Ph 5205,Miami,FL,33130,1670000,3,3.5,2117,0,2016,750,http://www.redfin.com/FL/Miami/1300-S-Miami-Ave-33130/unit-5205/home/56742782,25.7613319,-80.1937742
522,Condo/Co-op,1300 S Miami Ave #1705,Miami,FL,33130,990000,2,2.5,1281,0,2016,1091,http://www.redfin.com/FL/Miami/1300-S-Miami-Ave-33130/unit-1705/home/56742661,25.7613319,-80.1937742
523,Condo/Co-op,1300 S Miami Ave #2809,Miami,FL,33130,565000,2,2.5,961,0,2016,477,http://www.redfin.com/FL/Miami/1300-S-Miami-Ave-33130/unit-2809/home/56742902,25.7613319,-80.1937742
524,Condo/Co-op,1300 S Miami Ave #1907,Miami,FL,33130,375000,1,1,570,0,2016,487,http://www.redfin.com/FL/Miami/1300-S-Miami-Ave-33130/unit-1907/home/56742860,25.7613319,-80.1937742
525,Condo/Co-op,1300 S Miami Ave #3908,Miami,FL,33130,369000,1,1.5,649,0,2016,0,http://www.redfin.com/FL/Miami/1300-S-Miami-Ave-33130/unit-3908/home/56742795,25.7613319,-80.1937742
526,Condo/Co-op,1300 S Miami Ave #3504,Miami,FL,33130,590000,1,1,699,0,2016,695,http://www.redfin.com/FL/Miami/1300-S-Miami-Ave-33130/unit-3504/home/56742674,25.7613319,-80.1937742
527,Condo/Co-op,1300 S Miami Ave #4805,Miami,FL,33130,935000,3,2.5,1281,0,2016,926,http://www.redfin.com/FL/Miami/1300-S-Miami-Ave-33130/unit-4805/home/56742562,25.7613319,-80.1937742
528,Condo/Co-op,1300 S Miami Ave #2206,Miami,FL,33130,720000,3,2.5,1154,0,2016,0,http://www.redfin.com/FL/Miami/1300-S-Miami-Ave-33130/unit-2206/home/56742615,25.7613319,-80.1937742
529,Condo/Co-op,1300 S Miami Ave #2311,Miami,FL,33130,535000,2,2,868,0,2016,629,http://www.redfin.com/FL/Miami/1300-S-Miami-Ave-33130/unit-2311/home/56742702,25.7613319,-80.1937742
530,Condo/Co-op,1300 S Miami Ave Ph 5009,Miami,FL,33130,590000,2,2.5,997,0,2016,0,http://www.redfin.com/FL/Miami/1300-S-Miami-Ave-33130/unit-5009/home/56742788,25.7613319,-80.1937742
531,Condo/Co-op,1300 S Miami Ave #2204,Miami,FL,33130,458999,1,1,699,0,2016,100,http://www.redfin.com/FL/Miami/1300-S-Miami-Ave-33130/unit-2204/home/56742630,25.7613319,-80.1937742
532,Condo/Co-op,1300 S Miami Ave #4304,Miami,FL,33130,430000,1,1,699,0,2016,595,http://www.redfin.com/FL/Miami/1300-S-Miami-Ave-33130/unit-4304/home/56742666,25.7613319,-80.1937742
533,Condo/Co-op,1300 S Miami Ave #1808,Miami,FL,33130,459000,1,1.5,0,0,2017,471,http://www.redfin.com/FL/Miami/1300-S-Miami-Ave-33130/unit-1808/home/56742813,25.7613319,-80.1937742
534,Condo/Co-op,1300 S Miami Ave #2309,Miami,FL,33130,550000,2,2.5,961,0,2016,0,http://www.redfin.com/FL/Miami/1300-S-Miami-Ave-33130/unit-2309/home/56742915,25.7613319,-80.1937742
535,Condo/Co-op,1300 S Miami Ave #3907,Miami,FL,33130,395000,1,1,570,0,2016,488,http://www.redfin.com/FL/Miami/1300-S-Miami-Ave-33130/unit-3907/home/56742831,25.7613319,-80.1937742
536,Condo/Co-op,1300 S Miami Ave #1905,Miami,FL,33130,930000,3,2.5,0,0,2016,1091,http://www.redfin.com/FL/Miami/1300-S-Miami-Ave-33130/unit-1905/home/56742651,25.7613319,-80.1937742
537,Condo/Co-op,1300 S Miami Ave #2601,Miami,FL,33130,799000,2,2,1279,0,2016,926,http://www.redfin.com/FL/Miami/1300-S-Miami-Ave-33130/unit-2601/home/56742542,25.7613319,-80.1937742
538,Condo/Co-op,1300 S Miami Ave #3903,Miami,FL,33130,520000,1,2,880,0,2016,752,http://www.redfin.com/FL/Miami/1300-S-Miami-Ave-33130/unit-3903/home/56742642,25.7613319,-80.1937742
539,Condo/Co-op,1300 S Miami Ave #4104,Miami,FL,33130,599000,1,1,699,0,2016,0,http://www.redfin.com/FL/Miami/1300-S-Miami-Ave-33130/unit-4104/home/56742668,25.7613319,-80.1937742
540,Condo/Co-op,1300 S Miami Ave #2401,Miami,FL,33130,935000,2,2,962,0,2016,0,http://www.redfin.com/FL/Miami/1300-S-Miami-Ave-33130/unit-2401/home/56742544,25.7613319,-80.1937742
541,Condo/Co-op,1300 S Miami Ave #2508,Miami,FL,33130,445000,1,1.5,649,0,2016,0,http://www.redfin.com/FL/Miami/1300-S-Miami-Ave-33130/unit-2508/home/56742805,25.7613319,-80.1937742
542,Condo/Co-op,1300 S Miami Ave #4302,Miami,FL,33130,790000,2,2,1088,0,2016,900,http://www.redfin.com/FL/Miami/1300-S-Miami-Ave-33130/unit-4302/home/56742443,25.7613319,-80.1937742
543,Condo/Co-op,1300 S Miami Ph 5010,Miami,FL,33130,1699000,3,2.5,1845,0,2017,1253,http://www.redfin.com/FL/Miami/1300-S-Miami-Ave-33130/unit-5010/home/56742761,25.7613319,-80.1937742
544,Condo/Co-op,1300 S Miami Ave #1811,Miami,FL,33130,542000,2,2,868,0,2016,0,http://www.redfin.com/FL/Miami/1300-S-Miami-Ave-33130/unit-1811/home/56742726,25.7613319,-80.1937742
545,Condo/Co-op,1300 Miami Ave #2609,Miami,FL,33130,590000,2,2.5,1115,0,2017,810,http://www.redfin.com/FL/Miami/1300-S-Miami-Ave-33130/unit-2609/home/56742912,25.7613319,-80.1937742
546,Condo/Co-op,1300 S Miami Ave #4502,Miami,FL,33130,940000,2,2,1332,0,2016,789,http://www.redfin.com/FL/Miami/1300-S-Miami-Ave-33130/unit-4502/home/56742486,25.7613319,-80.1937742
547,Condo/Co-op,1300 S Miami Ave #1509,Miami,FL,33130,549000,2,2.5,961,0,2016,0,http://www.redfin.com/FL/Miami/1300-S-Miami-Ave-33130/unit-1509/home/56742922,25.7613319,-80.1937742
548,Condo/Co-op,1300 S Miami Ave Ph 4909,Miami,FL,33130,649000,2,2.5,997,0,2016,0,http://www.redfin.com/FL/Miami/1300-S-Miami-Ave-33130/unit-4909/home/56742789,25.7613319,-80.1937742
549,Condo/Co-op,1300 S Miami Ave #1101,Miami,FL,33130,719000,2,2,1279,0,2016,1093,http://www.redfin.com/FL/Miami/1300-S-Miami-Ave-33130/unit-1101/home/56742497,25.7613319,-80.1937742
550,Condo/Co-op,1300 S Miami Ave #3408,Miami,FL,33130,450000,1,1.5,649,0,2016,470,http://www.redfin.com/FL/Miami/1300-S-Miami-Ave-33130/unit-3408/home/56742796,25.7613319,-80.1937742
551,Condo/Co-op,1300 S Miami Ave #4001,Miami,FL,33130,840000,2,2,1279,0,2016,0,http://www.redfin.com/FL/Miami/1300-S-Miami-Ave-33130/unit-4001/home/56742527,25.7613319,-80.1937742
552,Condo/Co-op,1300 S Miami Ave #3401,Miami,FL,33130,835000,2,2,1279,0,2016,0,http://www.redfin.com/FL/Miami/1300-S-Miami-Ave-33130/unit-3401/home/56742550,25.7613319,-80.1937742
